~Version Information Section
VERS.              2.0  : CWLS LOG ASCII STANDARD - VERSION 2.0
WRAP.              NO   : ONE LINE PER DEPTH STEP
CREA.              22-jan-2025
#
~Well Information Section
#MNEM.UNIT         VALUE/NAME          DESCRIPTION
#_________         __________          ___________
STRT.M             30.1500             : START DEPTH
STOP.M             2139.6001           : STOP DEPTH
STEP.M             0.1524              : STEP
NULL.              -999.2500           : NULL VALUE
COMP.                                  : COMPANY
WELL.              F03-2               : WELL NAME
FLD.                                   : FIELD
LOC.                                   : LOCATION
PROV.                                  : PROVINCE
CNTY.                                  : COUNTY
STAT.                                  : STATE
CTRY.                                  : COUNTRY
SRVC.                                  : SERVICE COMPANY
DATE.                                  : LOG DATE
UWI.                                   : UNIQUE WELL ID
XCOORD.M           619101.000          : SURFACE X
YCOORD.M           6089491.000         : SURFACE Y
#
~Curve Information Section
#MNEM.UNIT         API CODE            DESCRIPTION
#_________         ________            ___________
DEPT.M                                 : 0 Depth
AI.m/sxg/cc                            : 1 AI from well tie
RHOB.g/cc                              : 2 Density
DT.us/ft                               : 3 Sonic
#
~Parameter Information Section
#MNEM.UNIT           VALUE             DESCRIPTION
#_________         __________          ___________
EKB.M              30.0000             : Elevation Kelly Bushing
EGL.M              -999.25             : Elevation Ground Level
#
~Other Information Section
#
~Ascii Data Section
# ...
    942.4164     4846.5664        2.1676      139.4327
    942.5688     4858.3057        2.1654      139.8296
    942.7213     4870.0449        2.1712      138.8180
    942.8737     4881.7832        2.1604      140.6719
    943.0261     4893.5225        2.1608      140.6205
    943.1784     4905.2563        2.1730      138.5038
    943.3308     4916.9956        2.1818      136.9788
    943.4832     4928.7339        2.1876      135.9731
    943.6356     4932.6133        2.1994      133.9326
    943.7880     4934.7935        2.2077      132.4943
    943.9404     4936.9731        2.2078      132.4745
    944.0928     4939.1533        2.2027      133.3605
    944.2452     4941.3330        2.1972      134.3265
    944.3976     4943.5127        2.1928      135.0767
    944.5500     4945.6929        2.1866      136.1505
    944.7025     4945.6445        2.1860      136.2597
    944.8549     4941.7305        2.1853      136.3698
    945.0073     4937.8169        2.1952      134.6637
    945.1596     4933.9043        2.1909      135.4110
    945.3120     4929.9907        2.1941      134.8548
    945.4644     4926.0767        2.1930      135.0422
    945.6168     4922.1626        2.1881      135.8943
    945.7692     4918.2490        2.1937      134.9241
    945.9216     4920.3789        2.1940      134.8702
    946.0740     4922.6475        2.1959      134.5455
    946.2264     4924.9160        2.1954      134.6334
    946.3788     4927.1851        2.1923      135.1578
    946.5312     4929.4531        2.1878      135.9501
    946.6837     4931.7217        2.1806      137.1889
    946.8361     4933.9907        2.1812      137.0793
    946.9885     4934.5820        2.1862      136.2254
    947.1408     4934.1123        2.1848      136.4615
    947.2932     4933.6421        2.1843      136.5543
    947.4456     4933.1719        2.1883      135.8656
    947.5980     4932.7017        2.1923      135.1595
    947.7504     4932.2314        2.1968      134.3841
    947.9028     4931.7612        2.2011      133.6448
    948.0552     4931.2432        2.2013      133.6103
    948.2076     4930.5464        2.1983      134.1245
    948.3600     4929.8501        2.1976      134.2429
    948.5125     4929.1538        2.1964      134.4585
    948.6649     4928.4570        2.1953      134.6473
    948.8173     4927.7612        2.1944      134.8040
    948.9697     4927.0645        2.1872      136.0472
    949.1220     4926.3687        2.1826      136.8469
    949.2744     4933.5405        2.1787      137.5278
    949.4268     4942.5708        2.1742      138.2959
    949.5792     4951.6021        2.1786      137.5394
    949.7316     4960.6328        2.1820      136.9432
    949.8840     4969.6631        2.1880      135.9167
    950.0364     4978.6934        2.1906      135.4643
    950.1888     4987.7241        2.1907      135.4458
    950.3412     4985.3555        2.1963      134.4665
    950.4937     4970.9590        2.2036      133.2150
    950.6461     4956.5630        2.2106      131.9964
    950.7985     4942.1665        2.2152      131.1953
    950.9508     4927.7764        2.2129      131.6051
    951.1032     4913.3799        2.2052      132.9257
    951.2556     4898.9839        2.1983      134.1297
    951.4080     4884.5879        2.1936      134.9339
    951.5604     4876.9595        2.1977      134.2292
    951.7128     4869.5552        2.1977      134.2362
    951.8652     4862.1514        2.1824      136.8875
    952.0176     4854.7471        2.1789      137.4839
    952.1700     4847.3428        2.1839      136.6165
    952.3224     4839.9390        2.1698      139.0530
    952.4749     4832.5352        2.1725      138.6003
    952.6273     4839.2466        2.1697      139.0667
    952.7797     4853.3867        2.1623      140.3572
    952.9320     4867.5210        2.1774      137.7444
    953.0844     4881.6611        2.1767      137.8621
    953.2368     4895.8008        2.1792      137.4331
    953.3892     4909.9409        2.1948      134.7387
    953.5416     4924.0815        2.1884      135.8462
    953.6940     4944.6987        2.1895      135.6557
    953.8464     4975.9380        2.1925      135.1333
    953.9988     5007.1772        2.1745      138.2421
    954.1512     5038.4155        2.1708      138.8839
    954.3036     5069.6548        2.1833      136.7177
    954.4561     5100.8936        2.1925      135.1407
    954.6085     5132.1323        2.1965      134.4355
    954.7609     5162.7144        2.2004      133.7687
    954.9132     5168.6938        2.2038      133.1702
    955.0656     5174.6763        2.2080      132.4464
    955.2180     5180.6587        2.2152      131.1965
    955.3704     5186.6406        2.2255      129.4160
    955.5228     5192.6230        2.2330      128.1038
    955.6752     5198.6055        2.2376      127.3225
    955.8276     5204.5879        2.2373      127.3662
    955.9800     5213.7305        2.2344      127.8646
    956.1324     5229.7769        2.2325      128.1952
    956.2849     5245.8237        2.2297      128.6882
    956.4373     5261.8701        2.2205      130.2823
    956.5897     5277.9165        2.2155      131.1443
    956.7421     5293.9634        2.2111      131.9075
    956.8944     5310.0034        2.2098      132.1381
    957.0468     5326.0503        2.2116      131.8194
    957.1992     5335.6685        2.2066      132.6867
    957.3516     5341.9102        2.2056      132.8667
    957.5040     5348.1514        2.2157      131.1202
    957.6564     5354.3926        2.2276      129.0462
    957.8088     5360.6333        2.2413      126.6753
    957.9612     5366.8750        2.2585      123.6946
    958.1136     5373.1162        2.2712      121.5063
    958.2661     5379.3574        2.2709      121.5578
    958.4185     5357.9458        2.2614      123.2018
    958.5709     5328.9751        2.2554      124.2305
    958.7232     5300.0166        2.2513      124.9444
    958.8756     5271.0464        2.2440      126.2175
    959.0280     5242.0762        2.2325      128.2060
    959.1804     5213.1050        2.2135      131.4913
    959.3328     5184.1348        2.2056      132.8575
    959.4852     5155.1650        2.2138      131.4403
    959.6376     5130.5425        2.2217      130.0770
    959.7900     5106.0493        2.2295      128.7224
    959.9424     5081.5562        2.2299      128.6473
    960.0948     5057.0630        2.2213      130.1445
    960.2473     5032.5703        2.2127      131.6293
    960.3997     5008.0767        2.2200      130.3662
    960.5521     4983.5840        2.2334      128.0408
    960.7044     4959.3706        2.2278      129.0145
    960.8568     4935.9395        2.2101      132.0891
    961.0092     4912.5078        2.1919      135.2311
    961.1616     4889.0762        2.1720      138.6904
    961.3140     4865.6445        2.1698      139.0629
    961.4664     4842.2129        2.1818      136.9946
    961.6188     4818.7812        2.1776      137.7175
    961.7712     4795.3496        2.1843      136.5602
    961.9236     4780.2905        2.1859      136.2707
    962.0760     4765.9487        2.1702      139.0049
    962.2285     4751.6069        2.1714      138.7836
    962.3809     4737.2656        2.1689      139.2129
    962.5333     4722.9233        2.1711      138.8306
    962.6856     4708.5874        2.1692      139.1645
    962.8380     4694.2451        2.1693      139.1453
    962.9904     4693.6689        2.1738      138.3636
    963.1428     4698.6919        2.1741      138.3083
    963.2952     4703.7144        2.1722      138.6511
    963.4476     4708.7373        2.1695      139.1186
    963.6000     4713.7603        2.1501      142.4650
    963.7524     4718.7832        2.1510      142.3125
    963.9048     4723.8057        2.1483      142.7954
    964.0573     4729.0620        2.1406      144.1225
    964.2097     4734.4766        2.1497      142.5374
    964.3621     4739.8906        2.1596      140.8164
    964.5145     4745.3052        2.1559      141.4760
