~Version Information Section
VERS.              2.0  : CWLS LOG ASCII STANDARD - VERSION 2.0
WRAP.              NO   : ONE LINE PER DEPTH STEP
CREA.              22-jan-2025
#
~Well Information Section
#MNEM.UNIT         VALUE/NAME          DESCRIPTION
#_________         __________          ___________
STRT.M             30.1500             : START DEPTH
STOP.M             2139.6001           : STOP DEPTH
STEP.M             0.1524              : STEP
NULL.              -999.2500           : NULL VALUE
COMP.                                  : COMPANY
WELL.              F03-2               : WELL NAME
FLD.                                   : FIELD
LOC.                                   : LOCATION
PROV.                                  : PROVINCE
CNTY.                                  : COUNTY
STAT.                                  : STATE
CTRY.                                  : COUNTRY
SRVC.                                  : SERVICE COMPANY
DATE.                                  : LOG DATE
UWI.                                   : UNIQUE WELL ID
XCOORD.M           619101.000          : SURFACE X
YCOORD.M           6089491.000         : SURFACE Y
#
~Curve Information Section
#MNEM.UNIT         API CODE            DESCRIPTION
#_________         ________            ___________
DEPT.M                                 : 0 Depth
AI.m/sxg/cc                            : 1 AI from well tie
RHOB.g/cc                              : 2 Density
DT.us/ft                               : 3 Sonic
#
~Parameter Information Section
#MNEM.UNIT           VALUE             DESCRIPTION
#_________         __________          ___________
EKB.M              30.0000             : Elevation Kelly Bushing
EGL.M              -999.25             : Elevation Ground Level
#
~Other Information Section
#
~Ascii Data Section
# ...
   2010.4357     9009.4805        2.0310       69.0307
   2010.5880     9006.4863        2.0138       68.2952
   2010.7405     9003.4883        2.0201       68.8328
   2010.8928     9000.4932        2.0074       69.0807
   2011.0453     8997.4971        2.0185       68.6446
   2011.1976     8994.5010        2.0351       68.2447
   2011.3501     8991.5039        2.0370       68.3642
   2011.5024     8988.5088        2.0213       68.3678
   2011.6549     8985.5117        2.0193       69.0881
   2011.8073     8986.3896        2.0158       68.7793
   2011.9596     8992.8887        2.0281       69.2696
   2012.1121     8999.3936        2.0262       68.7793
   2012.2644     9005.8926        2.0197       68.8782
   2012.4169     9012.3965        2.0257       69.2744
   2012.5692     9018.8955        2.0126       68.9407
   2012.7217     9025.3994        2.0121       69.1394
   2012.8740     9031.8984        2.0262       68.9356
   2013.0265     9038.4033        2.0414       68.6493
   2013.1788     9044.9023        2.0388       68.9565
   2013.3313     9051.4072        2.0280       68.7506
   2013.4836     9057.9062        2.0295       68.8668
   2013.6361     9064.4111        2.0238       68.7595
   2013.7885     9070.9102        2.0148       68.6558
   2013.9408     9077.4082        2.0182       68.9655
   2014.0933     9081.2510        2.0214       68.9098
   2014.2456     9084.7881        2.0250       68.7470
   2014.3981     9088.3291        2.0305       68.7641
   2014.5504     9091.8662        2.0290       68.6214
   2014.7029     9095.4062        2.0306       68.2321
   2014.8552     9098.9443        2.0480       67.8548
   2015.0077     9102.4844        2.0694       67.8097
   2015.1600     9106.0225        2.0714       68.0802
   2015.3125     9109.5625        2.0537       68.1062
   2015.4648     9113.1006        2.0391       68.0649
   2015.6173     9116.6416        2.0392       68.0891
   2015.7697     9120.1787        2.0395       68.1844
   2015.9220     9123.7158        2.0399       68.3246
   2016.0745     9127.2568        2.0537       68.1089
   2016.2268     9129.9736        2.0591       68.1778
   2016.3793     9130.2715        2.0532       68.2092
   2016.5316     9130.5684        2.0561       68.4262
   2016.6841     9130.8662        2.0540       68.6182
   2016.8364     9131.1631        2.0405       68.1401
   2016.9889     9131.4609        2.0269       68.0989
   2017.1412     9131.7578        2.0145       68.3103
   2017.2937     9132.0557        2.0108       68.1013
   2017.4460     9132.3525        2.0188       68.5452
   2017.5984     9132.6494        2.0346       68.7277
   2017.7509     9132.9473        2.0435       68.3520
   2017.9032     9133.2441        2.0462       68.0307
   2018.0557     9133.5420        2.0460       68.0305
   2018.2080     9133.8389        2.0400       68.6629
   2018.3605     9134.1377        2.0396       68.6184
   2018.5128     9134.2900        2.0510       68.1911
   2018.6653     9134.3525        2.0579       68.4735
   2018.8176     9134.4160        2.0501       68.1810
   2018.9701     9134.4805        2.0404       67.6077
   2019.1224     9134.5439        2.0431       68.0597
   2019.2749     9134.6074        2.0251       67.5120
   2019.4272     9134.6699        2.0308       67.5835
   2019.5796     9134.7344        2.0296       67.6995
   2019.7321     9134.7979        2.0487       68.4595
   2019.8844     9134.8613        2.0627       68.4079
   2020.0369     9134.9248        2.0677       68.0643
   2020.1892     9134.9893        2.0486       68.6800
   2020.3417     9135.0518        2.0385       68.0694
   2020.4940     9135.1152        2.0525       67.7677
   2020.6465     9135.1797        2.0502       67.6606
   2020.7988     9131.6270        2.0310       67.5383
   2020.9513     9127.7402        2.0310       68.1236
   2021.1036     9123.8594        2.0263       67.5185
   2021.2561     9119.9736        2.0310       68.0678
   2021.4084     9116.0918        2.0297       67.7609
   2021.5608     9112.2109        2.0361       68.1837
   2021.7133     9108.3252        2.0350       67.9574
   2021.8656     9104.4434        2.0437       68.4203
   2022.0181     9100.5576        2.0534       68.3499
   2022.1704     9096.6758        2.0738       68.6374
   2022.3229     9092.7910        2.0948       68.3199
   2022.4752     9088.9092        2.0891       68.4835
   2022.6277     9085.0234        2.0683       68.3721
   2022.7800     9081.1426        2.0604       68.5116
   2022.9325     9077.7324        2.0523       68.3825
   2023.0848     9075.8232        2.0341       68.5185
   2023.2373     9073.9131        2.0215       68.3974
   2023.3896     9072.0039        2.0185       68.4279
   2023.5420     9070.0947        2.0222       68.9000
   2023.6945     9068.1836        2.0332       68.9372
   2023.8468     9066.2744        2.0390       68.5302
   2023.9993     9064.3633        2.0373       68.2816
   2024.1516     9062.4551        2.0383       68.3201
   2024.3041     9060.5449        2.0337       68.5109
   2024.4564     9058.6348        2.0248       68.4272
   2024.6089     9056.7236        2.0251       68.2971
   2024.7612     9054.8145        2.0273       68.6469
   2024.9137     9052.9043        2.0305       68.7895
   2025.0660     9050.9951        2.0386       68.4302
   2025.2185     9047.0518        2.0367       68.2223
   2025.3708     9042.0283        2.0256       68.4146
   2025.5232     9037.0059        2.0232       68.6482
   2025.6757     9031.9795        2.0289       68.4324
   2025.8280     9026.9570        2.0299       68.2054
   2025.9805     9021.9307        2.0244       68.3663
   2026.1328     9016.9082        2.0179       68.3986
   2026.2853     9011.8818        2.0231       68.2895
   2026.4376     9006.8594        2.0280       68.2016
   2026.5901     9001.8330        2.0305       68.1279
   2026.7424     8996.8105        2.0332       68.1049
   2026.8949     8991.7842        2.0305       68.2978
   2027.0472     8986.7617        2.0264       68.7360
   2027.1997     8981.7344        2.0370       68.3590
   2027.3521     8976.8623        2.0403       68.1576
   2027.5044     8978.7188        2.0463       68.3730
   2027.6569     8980.5762        2.0444       68.6294
   2027.8092     8982.4326        2.0429       68.8214
   2027.9617     8984.2910        2.0266       68.9933
   2028.1140     8986.1484        2.0217       69.2655
   2028.2665     8988.0068        2.0250       68.1131
   2028.4188     8989.8623        2.0379       67.4790
   2028.5713     8991.7217        2.0515       67.4263
   2028.7236     8993.5781        2.0778       68.9929
   2028.8761     8995.4365        2.1094       70.9470
   2029.0284     8997.2930        2.1440       74.7977
   2029.1809     8999.1514        2.1386       76.6641
   2029.3333     9001.0078        2.1108       77.8870
   2029.4856     9002.8643        2.1085       77.5461
   2029.6381     9005.5342        2.1026       74.3396
   2029.7904     9008.2637        2.1027       72.0922
   2029.9429     9010.9941        2.0810       69.8053
   2030.0952     9013.7227        2.0511       68.0949
   2030.2477     9016.4531        2.0427       68.8244
   2030.4000     9019.1816        2.0354       68.2984
   2030.5525     9021.9131        2.0413       68.7041
   2030.7048     9024.6416        2.0347       68.6483
   2030.8573     9027.3721        2.0377       67.9694
   2031.0096     9030.1016        2.0551       67.8209
   2031.1621     9032.8320        2.0690       68.0635
   2031.3145     9035.5605        2.0661       68.5418
   2031.4668     9038.2881        2.0362       68.2358
   2031.6193     9041.0195        2.0298       68.1793
   2031.7716     9041.8916        2.0356       68.5713
   2031.9241     9040.5811        2.0325       68.2520
   2032.0764     9039.2734        2.0263       68.1484
   2032.2289     9037.9629        2.0317       68.5909
   2032.3812     9036.6553        2.0411       68.5053
   2032.5337     9035.3447        2.0441       68.6662
