~Version Information Section
VERS.              2.0  : CWLS LOG ASCII STANDARD - VERSION 2.0
WRAP.              NO   : ONE LINE PER DEPTH STEP
CREA.              22-jan-2025
#
~Well Information Section
#MNEM.UNIT         VALUE/NAME          DESCRIPTION
#_________         __________          ___________
STRT.M             30.1500             : START DEPTH
STOP.M             2139.6001           : STOP DEPTH
STEP.M             0.1524              : STEP
NULL.              -999.2500           : NULL VALUE
COMP.                                  : COMPANY
WELL.              F03-2               : WELL NAME
FLD.                                   : FIELD
LOC.                                   : LOCATION
PROV.                                  : PROVINCE
CNTY.                                  : COUNTY
STAT.                                  : STATE
CTRY.                                  : COUNTRY
SRVC.                                  : SERVICE COMPANY
DATE.                                  : LOG DATE
UWI.                                   : UNIQUE WELL ID
XCOORD.M           619101.000          : SURFACE X
YCOORD.M           6089491.000         : SURFACE Y
#
~Curve Information Section
#MNEM.UNIT         API CODE            DESCRIPTION
#_________         ________            ___________
DEPT.M                                 : 0 Depth
AI.m/sxg/cc                            : 1 AI from well tie
RHOB.g/cc                              : 2 Density
DT.us/ft                               : 3 Sonic
#
~Parameter Information Section
#MNEM.UNIT           VALUE             DESCRIPTION
#_________         __________          ___________
EKB.M              30.0000             : Elevation Kelly Bushing
EGL.M              -999.25             : Elevation Ground Level
#
~Other Information Section
#
~Ascii Data Section
# ...
   1765.6813     9507.7080        2.4125       76.0243
   1765.8336     9531.8018        2.4016       76.3102
   1765.9861     9555.9131        2.3894       76.3863
   1766.1384     9580.0059        2.3893       76.7822
   1766.2909     9604.1182        2.3927       77.8483
   1766.4432     9628.2109        2.3956       78.1813
   1766.5957     9653.7881        2.3945       78.0560
   1766.7480     9696.1758        2.3889       77.6808
   1766.9004     9738.5635        2.3754       77.3285
   1767.0529     9780.9863        2.3671       77.0233
   1767.2052     9823.3740        2.3704       76.7686
   1767.3577     9865.7949        2.3711       76.7745
   1767.5100     9908.1836        2.3719       77.4100
   1767.6625     9950.6055        2.3698       78.3846
   1767.8148     9992.9932        2.3672       79.2947
   1767.9673    10035.4150        2.3753       79.2737
   1768.1196    10077.8037        2.3900       76.6566
   1768.2721    10120.2256        2.3987       72.5484
   1768.4244    10162.6133        2.3890       68.7990
   1768.5769    10205.0352        2.3617       68.5844
   1768.7292    10222.2559        2.3520       72.0074
   1768.8816    10236.8242        2.3653       75.7116
   1769.0341    10251.4023        2.3881       77.1569
   1769.1864    10265.9697        2.4234       75.5870
   1769.3389    10280.5488        2.4393       72.2724
   1769.4912    10295.1162        2.4372       69.2281
   1769.6437    10309.6963        2.4227       68.9540
   1769.7960    10324.2627        2.4065       70.3756
   1769.9485    10338.8428        2.3976       71.1208
   1770.1008    10353.4102        2.4061       71.9378
   1770.2533    10367.9893        2.4403       73.3083
   1770.4056    10382.5566        2.4507       73.1582
   1770.5581    10397.1348        2.4535       71.8902
   1770.7104    10407.5488        2.4473       70.3597
   1770.8628    10370.7812        2.4509       69.4388
   1771.0153    10333.9844        2.4658       69.5535
   1771.1676    10297.2168        2.4771       69.1563
   1771.3201    10260.4209        2.4601       68.7187
   1771.4724    10223.6523        2.4461       68.1020
   1771.6249    10186.8555        2.4303       68.1621
   1771.7772    10150.0879        2.4289       69.1794
   1771.9297    10113.2910        2.4006       71.2180
   1772.0820    10076.5234        2.4132       73.0905
   1772.2345    10039.7266        2.4450       72.0478
   1772.3868    10002.9590        2.4601       72.1095
   1772.5393     9966.1621        2.4592       71.6166
   1772.6917     9929.3945        2.4352       70.1565
   1772.8440     9892.6270        2.4344       68.8842
   1772.9965     9853.2715        2.4226       68.7095
   1773.1488     9813.3623        2.4200       70.1419
   1773.3013     9773.4219        2.3990       72.5870
   1773.4536     9733.5146        2.4011       72.7899
   1773.6061     9693.5742        2.3966       74.6549
   1773.7584     9653.6660        2.3519       74.7116
   1773.9109     9613.7266        2.3504       75.3617
   1774.0632     9573.8174        2.3526       77.1631
   1774.2157     9533.8779        2.3618       77.4121
   1774.3680     9493.9697        2.3611       76.3683
   1774.5204     9454.0615        2.3596       75.4763
   1774.6729     9414.1211        2.3666       75.9203
   1774.8252     9374.2129        2.3682       76.7276
   1774.9777     9340.3066        2.3765       76.4003
   1775.1300     9314.8760        2.3777       76.0999
   1775.2825     9289.4277        2.3758       75.1473
   1775.4348     9263.9980        2.3847       75.1153
   1775.5873     9238.5488        2.3855       75.2180
   1775.7396     9213.1191        2.3922       74.9809
   1775.8921     9187.6699        2.4084       74.7590
   1776.0444     9162.2402        2.4056       72.9623
   1776.1969     9136.7910        2.3758       71.6955
   1776.3492     9111.3613        2.3583       72.3411
   1776.5016     9085.9326        2.3593       74.4653
   1776.6541     9060.4824        2.3621       77.6883
   1776.8064     9035.0547        2.3644       78.9554
   1776.9589     9012.7197        2.3517       78.3965
   1777.1112     9011.5977        2.3267       78.5076
   1777.2637     9010.4746        2.3068       79.5823
   1777.4160     9009.3525        2.2953       81.1232
   1777.5685     9008.2295        2.2935       81.8172
   1777.7208     9007.1064        2.3094       82.1107
   1777.8733     9005.9824        2.3341       82.2570
   1778.0256     9004.8604        2.3492       82.1545
   1778.1781     9003.7373        2.3624       81.9676
   1778.3304     9002.6143        2.3700       80.8604
   1778.4828     9001.4922        2.3664       80.3904
   1778.6353     9000.3682        2.3587       81.5239
   1778.7876     8999.2461        2.3437       82.8555
   1778.9401     9014.0078        2.3313       82.7435
   1779.0924     9032.2822        2.3277       81.0709
   1779.2449     9050.5713        2.3285       78.4133
   1779.3972     9068.8477        2.3333       77.4244
   1779.5497     9087.1367        2.3402       77.9980
   1779.7020     9105.4121        2.3374       79.4255
   1779.8545     9123.7021        2.3455       81.5207
   1780.0068     9141.9766        2.3686       82.6549
   1780.1593     9160.2656        2.3717       82.6241
   1780.3116     9178.5420        2.3632       80.9752
   1780.4640     9196.8154        2.3715       78.4500
   1780.6165     9215.1064        2.3824       77.9105
   1780.7688     9228.4170        2.3769       79.3941
   1780.9213     9231.0498        2.3970       78.8303
   1781.0736     9233.6807        2.4017       78.7093
   1781.2261     9236.3135        2.3834       79.0252
   1781.3784     9238.9443        2.3931       77.2583
   1781.5309     9241.5771        2.3910       76.6127
   1781.6832     9244.2080        2.4020       78.3836
   1781.8357     9246.8398        2.3966       77.0890
   1781.9880     9249.4717        2.4008       76.9995
   1782.1405     9252.1035        2.3920       73.6706
   1782.2928     9254.7354        2.3679       73.7774
   1782.4452     9257.3652        2.3481       75.4788
   1782.5977     9259.9990        2.3649       77.7655
   1782.7500     9258.3457        2.3637       80.5211
   1782.9025     9249.2949        2.3775       79.1480
   1783.0548     9240.2520        2.3901       76.0489
   1783.2073     9231.2031        2.3533       75.5482
   1783.3596     9222.1592        2.3457       77.2506
   1783.5121     9213.1094        2.3454       81.5839
   1783.6644     9204.0674        2.3363       82.6888
   1783.8169     9195.0166        2.3333       83.1290
   1783.9692     9185.9736        2.3471       82.1318
   1784.1217     9176.9238        2.3704       79.4311
   1784.2740     9167.8809        2.3734       76.7958
   1784.4264     9158.8389        2.3757       76.0728
   1784.5789     9149.7881        2.3750       75.2006
   1784.7312     9131.0430        2.3808       75.1094
   1784.8837     9107.3203        2.3643       76.2989
   1785.0360     9083.6172        2.3340       77.0579
   1785.1885     9059.8945        2.3265       78.7139
   1785.3408     9036.1914        2.3307       79.3175
   1785.4933     9012.4688        2.3250       78.0019
   1785.6456     8988.7656        2.3206       77.9202
   1785.7981     8965.0430        2.3152       79.4220
   1785.9504     8941.3398        2.3077       80.7989
   1786.1029     8917.6182        2.3077       81.0651
   1786.2552     8893.9150        2.3073       80.1394
   1786.4076     8870.2119        2.3184       78.6204
   1786.5601     8846.4893        2.3357       77.0601
   1786.7124     8824.3613        2.3383       77.3134
   1786.8649     8802.3525        2.3407       78.3188
   1787.0172     8780.3613        2.3514       77.2532
   1787.1697     8758.3535        2.3714       75.6907
   1787.3220     8736.3623        2.3776       75.4647
   1787.4745     8714.3545        2.3568       76.2747
   1787.6268     8692.3633        2.3455       76.6727
   1787.7793     8670.3545        2.3413       77.4141
