~Version Information Section
VERS.              2.0  : CWLS LOG ASCII STANDARD - VERSION 2.0
WRAP.              NO   : ONE LINE PER DEPTH STEP
CREA.              22-jan-2025
#
~Well Information Section
#MNEM.UNIT         VALUE/NAME          DESCRIPTION
#_________         __________          ___________
STRT.M             30.1500             : START DEPTH
STOP.M             2139.6001           : STOP DEPTH
STEP.M             0.1524              : STEP
NULL.              -999.2500           : NULL VALUE
COMP.                                  : COMPANY
WELL.              F03-2               : WELL NAME
FLD.                                   : FIELD
LOC.                                   : LOCATION
PROV.                                  : PROVINCE
CNTY.                                  : COUNTY
STAT.                                  : STATE
CTRY.                                  : COUNTRY
SRVC.                                  : SERVICE COMPANY
DATE.                                  : LOG DATE
UWI.                                   : UNIQUE WELL ID
XCOORD.M           619101.000          : SURFACE X
YCOORD.M           6089491.000         : SURFACE Y
#
~Curve Information Section
#MNEM.UNIT         API CODE            DESCRIPTION
#_________         ________            ___________
DEPT.M                                 : 0 Depth
AI.m/sxg/cc                            : 1 AI from well tie
RHOB.g/cc                              : 2 Density
DT.us/ft                               : 3 Sonic
#
~Parameter Information Section
#MNEM.UNIT           VALUE             DESCRIPTION
#_________         __________          ___________
EKB.M              30.0000             : Elevation Kelly Bushing
EGL.M              -999.25             : Elevation Ground Level
#
~Other Information Section
#
~Ascii Data Section
# ...
    452.9076     3862.4812        2.0453      160.6246
    453.0600     3866.6150        2.0317      162.9796
    453.2124     3871.3689        2.0262      163.9247
    453.3648     3876.6987        2.0316      162.9852
    453.5172     3882.0286        2.0449      160.6900
    453.6696     3887.3574        2.0557      158.8128
    453.8220     3892.6873        2.0587      158.2989
    453.9744     3898.0171        2.0583      158.3689
    454.1268     3900.2759        2.0525      159.3649
    454.2792     3894.0991        2.0377      161.9293
    454.4316     3887.9224        2.0281      163.5963
    454.5840     3881.7471        2.0282      163.5796
    454.7364     3875.5703        2.0343      162.5262
    454.8888     3869.3938        2.0478      160.1768
    455.0412     3864.5305        2.0603      158.0257
    455.1936     3874.0073        2.0621      157.7057
    455.3460     3883.4844        2.0584      158.3395
    455.4984     3892.9609        2.0519      159.4709
    455.6508     3902.4360        2.0406      161.4339
    455.8032     3911.9128        2.0277      163.6582
    455.9556     3921.3899        2.0247      164.1902
    456.1080     3936.8740        2.0278      163.6392
    456.2604     3953.2844        2.0372      162.0127
    456.4128     3969.6946        2.0494      159.9134
    456.5652     3986.1016        2.0572      158.5509
    456.7176     4002.5120        2.0518      159.4917
    456.8700     4018.9224        2.0560      158.7610
    457.0224     4025.3481        2.0671      156.8533
    457.1748     4025.5906        2.0869      153.4200
    457.3272     4025.8333        2.0905      152.7960
    457.4796     4026.0759        2.0875      153.3094
    457.6320     4026.3184        2.0790      154.7810
    457.7844     4026.5610        2.0684      156.6102
    457.9368     4027.4189        2.0636      157.4453
    458.0892     4031.4846        2.0602      158.0308
    458.2416     4035.5503        2.0653      157.1561
    458.3940     4039.6160        2.0656      157.1030
    458.5464     4043.6809        2.0595      158.1642
    458.6988     4047.7468        2.0642      157.3465
    458.8512     4051.8125        2.0708      156.1885
    459.0036     4053.2656        2.0685      156.6026
    459.1560     4054.0786        2.0734      155.7474
    459.3084     4054.8911        2.0682      156.6427
    459.4608     4055.7039        2.0677      156.7300
    459.6132     4056.5168        2.0739      155.6656
    459.7656     4057.3296        2.0805      154.5270
    459.9180     4056.6006        2.0839      153.9441
    460.0704     4053.4109        2.0853      153.6849
    460.2228     4050.2214        2.0823      154.2071
    460.3752     4047.0317        2.0758      155.3281
    460.5276     4043.8428        2.0696      156.4076
    460.6800     4040.6531        2.0658      157.0636
    460.8324     4037.4634        2.0667      156.9049
    460.9848     4044.1160        2.0690      156.5092
    461.1372     4051.2117        2.0667      156.9139
    461.2896     4058.3069        2.0658      157.0685
    461.4420     4065.4009        2.0690      156.5111
    461.5944     4072.4966        2.0725      155.9070
    461.7468     4079.5918        2.0754      155.4108
    461.8992     4078.5510        2.0773      155.0793
    462.0516     4071.0037        2.0757      155.3488
    462.2040     4063.4565        2.0707      156.2121
    462.3564     4055.9109        2.0697      156.3902
    462.5088     4048.3635        2.0738      155.6833
    462.6612     4040.8164        2.0767      155.1821
    462.8136     4033.0544        2.0812      154.4125
    462.9660     4023.7983        2.0887      153.0983
    463.1184     4014.5422        2.0915      152.6118
    463.2708     4005.2864        2.0929      152.3810
    463.4232     3996.0322        2.0952      151.9796
    463.5756     3986.7764        2.0863      153.5222
    463.7280     3977.5203        2.0552      158.9123
    463.8804     3976.9001        2.0312      163.0622
    464.0328     3981.0452        2.0308      163.1281
    464.1852     3985.1907        2.0384      161.8060
    464.3376     3989.3357        2.0581      158.3863
    464.4900     3993.4807        2.0737      155.6993
    464.6424     3997.6262        2.0700      156.3362
    464.7948     4001.8562        2.0599      158.0925
    464.9472     4006.2305        2.0602      158.0334
    465.0996     4010.6045        2.0493      159.9228
    465.2520     4014.9788        2.0433      160.9684
    465.4044     4019.3518        2.0464      160.4263
    465.5568     4023.7261        2.0567      158.6388
    465.7092     4028.1514        2.0798      154.6399
    465.8616     4033.2383        2.0852      153.7100
    466.0140     4038.3250        2.0775      155.0535
    466.1664     4043.4119        2.0722      155.9538
    466.3188     4048.4976        2.0635      157.4669
    466.4712     4053.5845        2.0641      157.3709
    466.6236     4058.6711        2.0687      156.5585
    466.7760     4059.6636        2.0735      155.7380
    466.9284     4058.5500        2.0782      154.9196
    467.0808     4057.4363        2.0746      155.5446
    467.2332     4056.3232        2.0847      153.7939
    467.3856     4055.2092        2.0896      152.9373
    467.5380     4054.0957        2.0904      152.7989
    467.6904     4051.8484        2.0893      153.0068
    467.8428     4044.1191        2.0755      155.3953
    467.9952     4036.3899        2.0557      158.8304
    468.1476     4028.6609        2.0525      159.3561
    468.3000     4020.9331        2.0533      159.2220
    468.4524     4013.2041        2.0537      159.1519
    468.6048     4005.4751        2.0728      155.8668
    468.7572     4012.2883        2.0749      155.5012
    468.9096     4022.0388        2.0718      156.0229
    469.0620     4031.7886        2.0803      154.5586
    469.2144     4041.5366        2.0892      153.0151
    469.3668     4051.2866        2.0918      152.5532
    469.5192     4061.0364        2.0868      153.4295
    469.6716     4073.6147        2.0712      156.1333
    469.8240     4091.5059        2.0453      160.6191
    469.9764     4109.3975        2.0286      163.5049
    470.1288     4127.2852        2.0296      163.3396
    470.2812     4145.1758        2.0494      159.9056
    470.4336     4163.0674        2.0809      154.4456
    470.5860     4180.4927        2.1018      150.8243
    470.7384     4189.0513        2.1011      150.9540
    470.8908     4197.6089        2.0978      151.5355
    471.0432     4206.1675        2.0997      151.1897
    471.1956     4214.7241        2.1019      150.8108
    471.3480     4223.2822        2.1037      150.5083
    471.5004     4231.8403        2.1050      150.2715
    471.6528     4231.8345        2.1061      150.0813
    471.8052     4219.9688        2.1071      149.9232
    471.9576     4208.1025        2.1073      149.8813
    472.1100     4196.2393        2.1051      150.2632
    472.2624     4184.3735        2.0987      151.3638
    472.4148     4172.5073        2.0912      152.6670
    472.5672     4160.6416        2.0904      152.8105
    472.7196     4144.5786        2.0959      151.8598
    472.8720     4127.4927        2.0999      151.1585
    473.0244     4110.4072        2.0955      151.9162
    473.1768     4093.3254        2.0811      154.4165
    473.3292     4076.2397        2.0693      156.4595
    473.4816     4059.1543        2.0716      156.0615
    473.6340     4043.1023        2.0841      153.9041
    473.7864     4029.4963        2.0903      152.8363
    473.9388     4015.8901        2.0897      152.9323
    474.0912     4002.2869        2.0870      153.3886
    474.2436     3988.6809        2.0787      154.8366
    474.3960     3975.0752        2.0846      153.8048
    474.5484     3961.4690        2.0827      154.1278
    474.7008     3946.2341        2.0350      162.3852
    474.8532     3930.5686        2.0202      164.9587
    475.0056     3914.9062        2.0478      160.1936
