~Version Information Section
VERS.              2.0  : CWLS LOG ASCII STANDARD - VERSION 2.0
WRAP.              NO   : ONE LINE PER DEPTH STEP
CREA.              22-jan-2025
#
~Well Information Section
#MNEM.UNIT         VALUE/NAME          DESCRIPTION
#_________         __________          ___________
STRT.M             30.1500             : START DEPTH
STOP.M             2139.6001           : STOP DEPTH
STEP.M             0.1524              : STEP
NULL.              -999.2500           : NULL VALUE
COMP.                                  : COMPANY
WELL.              F03-2               : WELL NAME
FLD.                                   : FIELD
LOC.                                   : LOCATION
PROV.                                  : PROVINCE
CNTY.                                  : COUNTY
STAT.                                  : STATE
CTRY.                                  : COUNTRY
SRVC.                                  : SERVICE COMPANY
DATE.                                  : LOG DATE
UWI.                                   : UNIQUE WELL ID
XCOORD.M           619101.000          : SURFACE X
YCOORD.M           6089491.000         : SURFACE Y
#
~Curve Information Section
#MNEM.UNIT         API CODE            DESCRIPTION
#_________         ________            ___________
DEPT.M                                 : 0 Depth
AI.m/sxg/cc                            : 1 AI from well tie
RHOB.g/cc                              : 2 Density
DT.us/ft                               : 3 Sonic
#
~Parameter Information Section
#MNEM.UNIT           VALUE             DESCRIPTION
#_________         __________          ___________
EKB.M              30.0000             : Elevation Kelly Bushing
EGL.M              -999.25             : Elevation Ground Level
#
~Other Information Section
#
~Ascii Data Section
# ...
    341.6556     3986.0012        2.0595      158.1487
    341.8080     3987.4033        2.0563      158.6954
    341.9604     3988.8057        2.0563      158.7106
    342.1128     3990.2080        2.0589      158.2644
    342.2652     3991.6104        2.0645      157.2911
    342.4176     3992.9839        2.0694      156.4512
    342.5700     3988.1765        2.0659      157.0494
    342.7224     3983.3689        2.0629      157.5621
    342.8748     3978.5625        2.0674      156.7857
    343.0272     3973.7549        2.0715      156.0716
    343.1796     3968.9475        2.0686      156.5843
    343.3320     3964.1399        2.0644      157.3034
    343.4844     3960.1602        2.0613      157.8360
    343.6368     3956.6577        2.0592      158.2001
    343.7892     3953.1558        2.0509      159.6521
    343.9416     3949.6538        2.0498      159.8272
    344.0940     3946.1516        2.0476      160.2181
    344.2464     3942.6489        2.0485      160.0537
    344.3988     3939.2437        2.0540      159.1046
    344.5512     3936.0120        2.0623      157.6680
    344.7036     3932.7808        2.0638      157.4066
    344.8560     3929.5493        2.0588      158.2691
    345.0084     3926.3176        2.0533      159.2237
    345.1608     3923.0859        2.0509      159.6499
    345.3132     3919.9365        2.0520      159.4538
    345.4656     3918.2017        2.0576      158.4920
    345.6180     3916.4670        2.0588      158.2798
    345.7704     3914.7324        2.0550      158.9323
    345.9228     3912.9973        2.0487      160.0287
    346.0752     3911.2625        2.0436      160.9065
    346.2276     3909.5276        2.0433      160.9570
    346.3800     3911.8669        2.0469      160.3413
    346.5324     3915.2976        2.0508      159.6608
    346.6848     3918.7278        2.0495      159.8941
    346.8372     3922.1584        2.0454      160.5914
    346.9896     3925.5891        2.0443      160.7887
    347.1420     3929.0195        2.0471      160.2984
    347.2944     3929.8196        2.0533      159.2272
    347.4468     3928.4519        2.0624      157.6590
    347.5992     3927.0840        2.0695      156.4172
    347.7516     3925.7168        2.0710      156.1596
    347.9040     3924.3486        2.0677      156.7354
    348.0564     3922.9810        2.0595      158.1605
    348.2088     3920.3311        2.0483      160.0898
    348.3612     3912.5540        2.0401      161.5074
    348.5136     3904.7769        2.0388      161.7422
    348.6660     3897.0012        2.0422      161.1479
    348.8184     3889.2239        2.0475      160.2233
    348.9708     3881.4468        2.0544      159.0401
    349.1232     3873.6699        2.0611      157.8880
    349.2756     3876.1152        2.0614      157.8349
    349.4280     3878.9915        2.0486      160.0324
    349.5804     3881.8674        2.0260      163.9612
    349.7328     3884.7441        2.0179      165.3681
    349.8852     3887.6204        2.0273      163.7359
    350.0376     3890.4968        2.0347      162.4461
    350.1900     3894.8992        2.0508      159.6602
    350.3424     3899.6846        2.0512      159.5930
    350.4948     3904.4692        2.0438      160.8828
    350.6472     3909.2534        2.0539      159.1157
    350.7996     3914.0388        2.0574      158.5160
    350.9520     3918.8237        2.0533      159.2407
    351.1044     3920.5159        2.0562      158.7397
    351.2568     3919.4211        2.0569      158.6176
    351.4092     3918.3262        2.0679      156.7004
    351.5616     3917.2319        2.0663      156.9913
    351.7140     3916.1372        2.0588      158.2895
    351.8664     3915.0425        2.0419      161.1971
    352.0188     3914.2219        2.0345      162.4834
    352.1712     3914.3105        2.0445      160.7472
    352.3236     3914.3984        2.0371      162.0316
    352.4760     3914.4868        2.0431      160.9936
    352.6284     3914.5754        2.0416      161.2531
    352.7808     3914.6636        2.0446      160.7388
    352.9332     3914.8645        2.0594      158.1605
    353.0856     3926.6345        2.0676      156.7509
    353.2380     3938.4048        2.0611      157.8763
    353.3904     3950.1748        2.0617      157.7682
    353.5428     3961.9426        2.0574      158.5274
    353.6952     3973.7131        2.0452      160.6297
    353.8476     3985.4829        2.0457      160.5425
    354.0000     3992.3984        2.0378      161.9091
    354.1524     3997.3464        2.0400      161.5435
    354.3048     4002.2952        2.0514      159.5617
    354.4572     4007.2422        2.0671      156.8413
    354.6096     4012.1907        2.0759      155.3255
    354.7620     4017.1387        2.0822      154.2308
    354.9144     4017.8472        2.0846      153.8096
    355.0668     4011.2820        2.0837      153.9668
    355.2192     4004.7166        2.0797      154.6447
    355.3716     3998.1514        2.0783      154.9046
    355.5240     3991.5872        2.0721      155.9610
    355.6764     3985.0220        2.0633      157.4886
    355.8288     3978.4563        2.0546      159.0062
    355.9812     3976.7231        2.0441      160.8285
    356.1336     3975.2329        2.0408      161.4040
    356.2860     3973.7424        2.0461      160.4846
    356.4384     3972.2522        2.0540      159.1111
    356.5908     3970.7620        2.0648      157.2470
    356.7432     3969.2712        2.0738      155.6885
    356.8956     3965.7542        2.0756      155.3738
    357.0480     3961.1895        2.0726      155.8956
    357.2004     3956.6248        2.0670      156.8492
    357.3528     3952.0613        2.0593      158.1818
    357.5052     3947.4968        2.0503      159.7507
    357.6576     3942.9324        2.0466      160.3972
    357.8100     3941.8730        2.0496      159.8655
    357.9624     3947.7087        2.0510      159.6369
    358.1148     3953.5447        2.0523      159.4096
    358.2672     3959.3809        2.0565      158.6816
    358.4196     3965.2158        2.0572      158.5589
    358.5720     3971.0518        2.0585      158.3273
    358.7244     3976.4487        2.0603      158.0251
    358.8768     3971.3191        2.0572      158.5526
    359.0292     3966.1897        2.0557      158.8052
    359.1816     3961.0603        2.0593      158.1972
    359.3340     3955.9319        2.0600      158.0656
    359.4864     3950.8025        2.0615      157.8176
    359.6388     3945.6729        2.0651      157.1846
    359.7912     3938.3430        2.0654      157.1363
    359.9436     3930.1260        2.0624      157.6624
    360.0960     3921.9092        2.0648      157.2475
    360.2484     3913.6919        2.0632      157.5222
    360.4008     3905.4761        2.0574      158.5168
    360.5532     3897.2590        2.0508      159.6739
    360.7056     3890.7061        2.0410      161.3628
    360.8580     3886.6943        2.0323      162.8706
    361.0104     3882.6821        2.0406      161.4341
    361.1628     3878.6709        2.0343      162.5195
    361.3152     3874.6594        2.0321      162.9077
    361.4676     3870.6479        2.0478      160.1715
    361.6200     3865.9150        2.0596      158.1310
    361.7724     3858.3562        2.0532      159.2538
    361.9248     3850.7974        2.0570      158.6008
    362.0772     3843.2385        2.0196      165.0665
    362.2296     3835.6812        2.0130      166.2126
    362.3820     3828.1223        2.0230      164.4702
    362.5344     3820.7290        2.0440      160.8508
    362.6868     3817.2405        2.0590      158.2488
    362.8392     3813.7520        2.0694      156.4527
    362.9916     3810.2637        2.0678      156.7220
    363.1440     3806.7751        2.0543      159.0618
    363.2964     3803.2874        2.0400      161.5287
    363.4488     3799.7991        2.0221      164.6362
    363.6012     3794.4854        2.0150      165.8771
    363.7536     3788.6448        2.0142      165.9960
