~Version Information Section
VERS.              2.0  : CWLS LOG ASCII STANDARD - VERSION 2.0
WRAP.              NO   : ONE LINE PER DEPTH STEP
CREA.              22-jan-2025
#
~Well Information Section
#MNEM.UNIT         VALUE/NAME          DESCRIPTION
#_________         __________          ___________
STRT.M             30.1500             : START DEPTH
STOP.M             2139.6001           : STOP DEPTH
STEP.M             0.1524              : STEP
NULL.              -999.2500           : NULL VALUE
COMP.                                  : COMPANY
WELL.              F03-2               : WELL NAME
FLD.                                   : FIELD
LOC.                                   : LOCATION
PROV.                                  : PROVINCE
CNTY.                                  : COUNTY
STAT.                                  : STATE
CTRY.                                  : COUNTRY
SRVC.                                  : SERVICE COMPANY
DATE.                                  : LOG DATE
UWI.                                   : UNIQUE WELL ID
XCOORD.M           619101.000          : SURFACE X
YCOORD.M           6089491.000         : SURFACE Y
#
~Curve Information Section
#MNEM.UNIT         API CODE            DESCRIPTION
#_________         ________            ___________
DEPT.M                                 : 0 Depth
AI.m/sxg/cc                            : 1 AI from well tie
RHOB.g/cc                              : 2 Density
DT.us/ft                               : 3 Sonic
#
~Parameter Information Section
#MNEM.UNIT           VALUE             DESCRIPTION
#_________         __________          ___________
EKB.M              30.0000             : Elevation Kelly Bushing
EGL.M              -999.25             : Elevation Ground Level
#
~Other Information Section
#
~Ascii Data Section
# ...
   2121.6875     8961.4414        2.0088       68.8437
   2121.8398     8964.5469        2.0149       68.8239
   2121.9924     8967.6562        2.0218       68.8873
   2122.1448     8970.7607        2.0273       68.8204
   2122.2971     8973.8662        2.0216       68.5891
   2122.4495     8976.9707        2.0168       68.7922
   2122.6018     8980.0762        2.0108       68.7339
   2122.7544     8983.1855        2.0146       68.4921
   2122.9067     8986.2900        2.0127       68.7328
   2123.0591     8987.7598        2.0273       68.8657
   2123.2114     8989.2109        2.0249       68.5063
   2123.3640     8990.6650        2.0168       68.8499
   2123.5164     8992.1152        2.0240       68.5735
   2123.6687     8993.5654        2.0070       68.9519
   2123.8210     8995.0176        2.0022       68.9317
   2123.9736     8996.4707        2.0212       68.7972
   2124.1260     8997.9209        2.0294       68.3063
   2124.2783     8999.3730        2.0255       68.3054
   2124.4307     9000.8232        2.0242       68.7086
   2124.5830     9002.2754        2.0364       68.4902
   2124.7356     9003.7285        2.0296       68.4911
   2124.8879     9005.1797        2.0254       68.4958
   2125.0403     9006.6299        2.0204       68.4842
   2125.1926     9006.4609        2.0241       68.4587
   2125.3452     9004.0479        2.0337       68.4159
   2125.4976     9001.6387        2.0341       68.3644
   2125.6499     8999.2305        2.0343       68.3078
   2125.8022     8996.8223        2.0327       68.8389
   2125.9548     8994.4092        2.0292       68.3511
   2126.1072     8992.0010        2.0210       68.7690
   2126.2595     8989.5918        2.0187       68.4610
   2126.4119     8987.1826        2.0124       68.7955
   2126.5642     8984.7744        2.0241       68.5189
   2126.7168     8982.3623        2.0285       68.4281
   2126.8691     8979.9531        2.0308       68.7104
   2127.0215     8977.5449        2.0241       68.7768
   2127.1738     8975.1367        2.0108       68.4815
   2127.3264     8972.7236        2.0150       68.7188
   2127.4788     8970.6777        2.0243       68.6257
   2127.6311     8968.7061        2.0316       68.2805
   2127.7834     8966.7324        2.0260       68.2250
   2127.9360     8964.7568        2.0146       68.4110
   2128.0884     8962.7842        2.0136       68.6221
   2128.2407     8960.8115        2.0144       68.3969
   2128.3931     8958.8389        2.0180       68.3528
   2128.5454     8956.8662        2.0268       68.5274
   2128.6980     8954.8896        2.0277       68.5643
   2128.8503     8952.9170        2.0250       68.5774
   2129.0027     8950.9453        2.0253       68.5444
   2129.1550     8948.9717        2.0194       68.5928
   2129.3076     8946.9961        2.0038       68.7637
   2129.4600     8945.0234        1.9946       68.6606
   2129.6123     8943.3594        1.9982       68.6605
   2129.7646     8942.7217        2.0048       68.7606
   2129.9172     8942.0811        2.0116       68.4296
   2130.0696     8941.4414        2.0192       68.3690
   2130.2219     8940.8027        2.0237       68.6431
   2130.3743     8940.1641        2.0238       68.6496
   2130.5266     8939.5244        2.0192       68.6446
   2130.6792     8938.8848        2.0135       68.5920
   2130.8315     8938.2451        2.0082       68.6774
   2130.9839     8937.6055        2.0058       68.7255
   2131.1362     8936.9668        2.0108       68.4287
   2131.2888     8936.3271        2.0111       68.5063
   2131.4412     8935.6875        2.0134       68.7445
   2131.5935     8935.0498        2.0118       68.7714
   2131.7458     8934.4102        2.0103       68.6859
   2131.8984     8935.1162        2.0074       68.4718
   2132.0508     8936.5166        2.0054       68.2819
   2132.2031     8937.9180        2.0039       68.6542
   2132.3555     8939.3193        2.0068       68.4875
   2132.5078     8940.7207        2.0065       68.7701
   2132.6604     8942.1240        2.0180       68.8003
   2132.8127     8943.5244        2.0101       68.3630
   2132.9651     8944.9258        2.0133       68.9059
   2133.1174     8946.3262        2.0090       68.4923
   2133.2700     8947.7295        2.0036       68.9321
   2133.4224     8949.1309        2.0083       69.0037
   2133.5747     8950.5312        2.0047       68.3502
   2133.7271     8951.9326        2.0074       68.2052
   2133.8796     8953.3359        2.0167       68.2395
   2134.0320     8954.7002        2.0090       68.9738
   2134.1843     8955.6592        2.0189       68.2749
   2134.3367     8956.6182        2.0009       68.7467
   2134.4890     8957.5752        1.9970       68.6878
   2134.6416     8958.5352        2.0166       68.2748
   2134.7939     8959.4941        2.0317       68.7968
   2134.9463     8960.4531        2.0206       68.2409
   2135.0986     8961.4111        2.0003       68.2065
   2135.2512     8962.3711        2.0137       68.8596
   2135.4036     8963.3301        2.0052       68.3221
   2135.5559     8964.2891        2.0032       68.6456
   2135.7083     8965.2471        2.0083       68.2579
   2135.8608     8966.2070        2.0067       68.6357
   2136.0132     8967.1650        2.0101       68.3713
   2136.1655     8968.1240        2.0008       68.2482
   2136.3179     -999.2500        2.0137       68.7818
   2136.4702     -999.2500        2.0308       68.7155
   2136.6228     -999.2500        2.0313       68.4518
   2136.7751     -999.2500        2.0375       68.6555
   2136.9275     -999.2500        2.0316       68.7601
   2137.0798     -999.2500        2.0256       68.6096
   2137.2324     -999.2500        2.0209       68.3854
   2137.3848     -999.2500        2.0140       68.3600
   2137.5371     -999.2500        2.0121       68.7073
   2137.6895     -999.2500        2.0214       68.7238
   2137.8420     -999.2500        2.0211       68.4868
   2137.9944     -999.2500        2.0098       68.6214
   2138.1467     -999.2500        2.0071       68.6591
   2138.2991     -999.2500        2.0138       68.5203
   2138.4514     -999.2500        2.0159       68.6532
   2138.6040     -999.2500        2.0192       68.6251
   2138.7563     -999.2500        2.0274       68.5566
   2138.9087     -999.2500        2.0270       68.5180
   2139.0610     -999.2500        2.0204       68.3569
   2139.2136     -999.2500        2.0188       68.4259
   2139.3660     -999.2500        2.0173       68.6030
   2139.5183     -999.2500        2.0140       68.5112
   2139.6707     -999.2500     -999.2500     -999.2500
