~Version Information Section
VERS.              2.0  : CWLS LOG ASCII STANDARD - VERSION 2.0
WRAP.              NO   : ONE LINE PER DEPTH STEP
CREA.              22-jan-2025
#
~Well Information Section
#MNEM.UNIT         VALUE/NAME          DESCRIPTION
#_________         __________          ___________
STRT.M             30.1500             : START DEPTH
STOP.M             2139.6001           : STOP DEPTH
STEP.M             0.1524              : STEP
NULL.              -999.2500           : NULL VALUE
COMP.                                  : COMPANY
WELL.              F03-2               : WELL NAME
FLD.                                   : FIELD
LOC.                                   : LOCATION
PROV.                                  : PROVINCE
CNTY.                                  : COUNTY
STAT.                                  : STATE
CTRY.                                  : COUNTRY
SRVC.                                  : SERVICE COMPANY
DATE.                                  : LOG DATE
UWI.                                   : UNIQUE WELL ID
XCOORD.M           619101.000          : SURFACE X
YCOORD.M           6089491.000         : SURFACE Y
#
~Curve Information Section
#MNEM.UNIT         API CODE            DESCRIPTION
#_________         ________            ___________
DEPT.M                                 : 0 Depth
AI.m/sxg/cc                            : 1 AI from well tie
RHOB.g/cc                              : 2 Density
DT.us/ft                               : 3 Sonic
#
~Parameter Information Section
#MNEM.UNIT           VALUE             DESCRIPTION
#_________         __________          ___________
EKB.M              30.0000             : Elevation Kelly Bushing
EGL.M              -999.25             : Elevation Ground Level
#
~Other Information Section
#
~Ascii Data Section
# ...
    586.4100     4074.1523        2.0830      154.0963
    586.5624     4071.7048        2.0849      153.7686
    586.7148     4071.7510        2.0831      154.0758
    586.8672     4071.7971        2.0818      154.3010
    587.0197     4071.8435        2.0787      154.8359
    587.1721     4071.8896        2.0726      155.8858
    587.3244     4071.9358        2.0677      156.7386
    587.4768     4073.4641        2.0678      156.7276
    587.6292     4081.2852        2.0684      156.6167
    587.7816     4089.1064        2.0693      156.4653
    587.9340     4096.9272        2.0760      155.2913
    588.0864     4104.7485        2.0766      155.1871
    588.2388     4112.5693        2.0692      156.0057
    588.3912     4120.3906        2.0685      154.0482
    588.5436     4125.7104        2.0701      152.6350
    588.6960     4130.2578        2.0701      152.6350
    588.8484     4134.8057        2.0701      152.6350
    589.0009     4139.3535        2.0701      152.6350
    589.1533     4143.9014        2.0701      152.6350
    589.3056     4148.4473        2.0732      152.6350
    589.4580     4151.7832        2.0771      152.6350
    589.6104     4152.3384        2.0781      152.6350
    589.7628     4152.8940        2.0781      152.6350
    589.9152     4153.4492        2.0781      152.6350
    590.0676     4154.0049        2.0781      152.6350
    590.2200     4154.5605        2.0781      152.6350
    590.3724     4155.1157        2.0839      152.6350
    590.5248     4154.8306        2.0860      152.6350
    590.6772     4154.3911        2.0862      152.6350
    590.8297     4153.9512        2.0862      152.6350
    590.9821     4153.5112        2.0862      152.6350
    591.1345     4153.0718        2.0862      152.6350
    591.2868     4152.6318        2.0863      152.6350
    591.4392     4152.3774        2.0906      152.6350
    591.5916     4152.4189        2.0794      154.6991
    591.7440     4152.4609        2.0857      153.6127
    591.8964     4152.5024        2.0875      153.3218
    592.0488     4152.5444        2.0808      154.4761
    592.2012     4152.5859        2.0882      153.1904
    592.3536     4152.6274        2.0980      151.4991
    592.5060     4152.9683        2.0858      153.6177
    592.6584     4153.3521        2.0836      153.9800
    592.8109     4153.7354        2.0915      152.6034
    592.9633     4154.1187        2.0828      154.1245
    593.1157     4154.5024        2.0852      153.7167
    593.2680     4154.8862        2.0916      152.5992
    593.4204     4156.4951        2.0869      153.4168
    593.5728     4160.3286        2.0861      153.5491
    593.7252     4164.1621        2.0896      152.9398
    593.8776     4167.9956        2.0931      152.3392
    594.0300     4171.8291        2.0912      152.6759
    594.1824     4175.6626        2.0859      153.5988
    594.3348     4179.4956        2.0870      153.4017
    594.4872     4179.0259        2.0857      153.6186
    594.6396     4177.6421        2.0887      153.1010
    594.7921     4176.2578        2.0949      152.0330
    594.9445     4174.8730        2.0913      152.6491
    595.0968     4173.4893        2.0899      152.9004
    595.2492     4172.1050        2.0941      152.1595
    595.4016     4169.6533        2.0947      152.0663
    595.5540     4164.3555        2.0980      151.4825
    595.7064     4159.0576        2.0996      151.2202
    595.8588     4153.7598        2.0926      152.4275
    596.0112     4148.4614        2.0848      153.7722
    596.1636     4143.1636        2.0799      154.6274
    596.3160     4137.8657        2.0793      154.7258
    596.4684     4150.2212        2.0807      154.4792
    596.6208     4168.7773        2.0869      153.4081
    596.7733     4187.3325        2.0982      151.4460
    596.9257     4205.8882        2.1071      149.9084
    597.0780     4224.4365        2.1076      149.8344
    597.2304     4242.9917        2.0935      152.2806
    597.3828     4261.7446        2.0743      155.6030
    597.5352     4281.4692        2.0643      157.3326
    597.6876     4301.1943        2.0699      156.3613
    597.8400     4320.9189        2.0921      152.5089
    597.9924     4340.6440        2.1170      148.2032
    598.1448     4360.3691        2.1331      145.4128
    598.2972     4380.0942        2.1360      144.9012
    598.4496     4397.4121        2.1264      146.5791
    598.6021     4412.6118        2.1146      148.6281
    598.7545     4427.8105        2.1039      150.4730
    598.9069     4443.0103        2.1048      150.3142
    599.0592     4458.2031        2.1124      149.0032
    599.2116     4473.4023        2.1192      147.8181
    599.3640     4488.6016        2.1258      146.6858
    599.5164     4481.3848        2.1248      146.8529
    599.6688     4468.4707        2.1217      147.3860
    599.8212     4455.5571        2.1485      142.7525
    599.9736     4442.6431        2.1721      138.6543
    600.1260     4429.7290        2.1863      136.1972
    600.2784     4416.8154        2.1868      136.1139
    600.4308     4403.9014        2.1574      141.1986
    600.5833     4382.5981        2.1302      145.9150
    600.7357     4358.0986        2.1067      149.9800
    600.8881     4333.5991        2.0870      153.3925
    601.0404     4309.1094        2.0854      153.6740
    601.1928     4284.6099        2.0882      153.1875
    601.3452     4260.1099        2.1003      151.0932
    601.4976     4239.3105        2.1082      149.7208
    601.6500     4248.0479        2.1069      149.9406
    601.8024     4256.7856        2.1013      150.9156
    601.9548     4265.5229        2.0999      151.1509
    602.1072     4274.2603        2.1001      151.1309
    602.2596     4282.9976        2.1003      151.0810
    602.4120     4291.7344        2.1007      151.0146
    602.5645     4304.1392        2.1021      150.7805
    602.7169     4320.4507        2.1050      150.2733
    602.8692     4336.7559        2.1077      149.7996
    603.0216     4353.0664        2.1089      149.5910
    603.1740     4369.3779        2.1063      150.0627
    603.3264     4385.6895        2.1020      150.7957
    603.4788     4402.0005        2.1035      150.5343
    603.6312     4405.6230        2.1145      148.6299
    603.7836     4406.5977        2.1309      145.7969
    603.9360     4407.5732        2.1391      144.3832
    604.0884     4408.5483        2.1398      144.2638
    604.2408     4409.5234        2.1374      144.6722
    604.3932     4410.4985        2.1305      145.8561
    604.5457     4411.4741        2.1334      145.3547
    604.6981     4411.2080        2.1367      144.7840
    604.8504     4410.8804        2.1289      146.1340
    605.0028     4410.5518        2.1221      147.3163
    605.1552     4410.2236        2.1103      149.3628
    605.3076     4409.8955        2.0980      151.4924
    605.4600     4409.5674        2.1024      150.7225
    605.6124     4413.1787        2.1119      149.0793
    605.7648     4431.2388        2.1224      147.2684
    605.9172     4449.2993        2.1361      144.8920
    606.0696     4467.3594        2.1375      144.6452
    606.2220     4485.4194        2.1305      145.8538
    606.3745     4503.4800        2.1299      145.9613
    606.5269     4521.5396        2.1302      145.9212
    606.6793     4533.7456        2.1333      145.3764
    606.8316     4535.5615        2.1379      144.5789
    606.9840     4537.3784        2.1363      144.8550
    607.1364     4539.1948        2.1396      144.2933
    607.2888     4541.0117        2.1392      144.3567
    607.4412     4542.8286        2.1388      144.4306
    607.5936     4544.6455        2.1453      143.3018
    607.7460     4542.0210        2.1520      142.1428
    607.8984     4533.2349        2.1578      141.1384
    608.0508     4524.4487        2.1624      140.3403
    608.2032     4515.6636        2.1598      140.7873
    608.3557     4506.8774        2.1541      141.7856
    608.5081     4498.0913        2.1439      143.5598
