~Version Information Section
VERS.              2.0  : CWLS LOG ASCII STANDARD - VERSION 2.0
WRAP.              NO   : ONE LINE PER DEPTH STEP
CREA.              22-jan-2025
#
~Well Information Section
#MNEM.UNIT         VALUE/NAME          DESCRIPTION
#_________         __________          ___________
STRT.M             30.1500             : START DEPTH
STOP.M             2139.6001           : STOP DEPTH
STEP.M             0.1524              : STEP
NULL.              -999.2500           : NULL VALUE
COMP.                                  : COMPANY
WELL.              F03-2               : WELL NAME
FLD.                                   : FIELD
LOC.                                   : LOCATION
PROV.                                  : PROVINCE
CNTY.                                  : COUNTY
STAT.                                  : STATE
CTRY.                                  : COUNTRY
SRVC.                                  : SERVICE COMPANY
DATE.                                  : LOG DATE
UWI.                                   : UNIQUE WELL ID
XCOORD.M           619101.000          : SURFACE X
YCOORD.M           6089491.000         : SURFACE Y
#
~Curve Information Section
#MNEM.UNIT         API CODE            DESCRIPTION
#_________         ________            ___________
DEPT.M                                 : 0 Depth
AI.m/sxg/cc                            : 1 AI from well tie
RHOB.g/cc                              : 2 Density
DT.us/ft                               : 3 Sonic
#
~Parameter Information Section
#MNEM.UNIT           VALUE             DESCRIPTION
#_________         __________          ___________
EKB.M              30.0000             : Elevation Kelly Bushing
EGL.M              -999.25             : Elevation Ground Level
#
~Other Information Section
#
~Ascii Data Section
# ...
   1876.9332    10166.8730        2.4567       72.8335
   1877.0857    10153.3730        2.4572       73.2061
   1877.2380    10139.8818        2.4564       72.1677
   1877.3905    10126.3809        2.4359       71.1711
   1877.5428    10112.8906        2.4024       70.7741
   1877.6952    10086.7832        2.3978       70.7395
   1877.8477    10060.0068        2.4189       72.4476
   1878.0000    10033.2529        2.4285       73.4440
   1878.1525    10006.4766        2.4125       72.4404
   1878.3048     9979.7227        2.4210       72.2499
   1878.4573     9952.9463        2.4528       72.3845
   1878.6096     9926.1924        2.4594       71.6984
   1878.7621     9899.4160        2.4543       71.7817
   1878.9144     9872.6621        2.4751       71.1781
   1879.0669     9845.8857        2.4891       70.3442
   1879.2192     9819.1309        2.5367       70.1863
   1879.3717     9792.3555        2.5059       70.4805
   1879.5240     9765.6006        2.4040       70.8699
   1879.6764     9738.8457        2.2755       71.7388
   1879.8289     9725.2549        2.2572       73.0397
   1879.9812     9711.9561        2.3089       73.3888
   1880.1337     9698.6465        2.2965       73.8393
   1880.2860     9685.3457        2.2453       74.0239
   1880.4385     9672.0352        2.2002       74.2485
   1880.5908     9658.7354        2.1852       73.9622
   1880.7433     9645.4268        2.2040       73.6416
   1880.8956     9632.1260        2.2306       73.4133
   1881.0481     9618.8154        2.2195       73.3681
   1881.2004     9605.5156        2.2113       73.7841
   1881.3529     9592.2051        2.2303       74.3174
   1881.5052     9578.9062        2.2228       74.0766
   1881.6576     9565.6064        2.2527       73.4593
   1881.8101     9532.6895        2.3556       73.6403
   1881.9624     9472.6934        2.4146       74.0000
   1882.1149     9412.6494        2.4189       74.8706
   1882.2672     9352.6533        2.4264       75.8993
   1882.4197     9292.6094        2.4358       75.3389
   1882.5720     9232.6133        2.4308       73.4462
   1882.7245     9172.5693        2.4040       72.5192
   1882.8768     9112.5732        2.3805       72.9424
   1883.0293     9052.5293        2.3914       72.7011
   1883.1816     8992.5332        2.4434       72.1647
   1883.3341     8932.4893        2.4671       71.7826
   1883.4865     8872.4922        2.4634       71.2152
   1883.6388     8812.4961        2.4776       71.3877
   1883.7913     8752.4531        2.4658       73.6125
   1883.9436     8714.4658        2.4530       76.9195
   1884.0961     8683.3555        2.4537       79.1226
   1884.2484     8652.2715        2.4403       80.8896
   1884.4009     8621.1621        2.4104       83.4952
   1884.5532     8590.0781        2.3661       89.4591
   1884.7057     8558.9678        2.3401       97.4504
   1884.8580     8527.8838        2.3495      109.3578
   1885.0105     8496.7744        2.3836      112.7680
   1885.1628     8465.6904        2.4484      108.8553
   1885.3153     8434.5811        2.5006      102.4600
   1885.4677     8417.6816        2.4993       93.7096
   1885.6200     8465.2783        2.4978       86.6535
   1885.7725     8512.9131        2.5036       86.7552
   1885.9248     8560.5098        2.4540       89.3367
   1886.0773     8608.1455        2.4514       91.7808
   1886.2296     8655.7422        2.4762       90.7675
   1886.3821     8703.3770        2.4930       86.7500
   1886.5344     8750.9746        2.4766       84.1609
   1886.6869     8798.6084        2.4798       82.7553
   1886.8392     8846.2051        2.5009       81.4434
   1886.9917     8893.8408        2.4986       80.7214
   1887.1440     8941.4375        2.4792       81.4053
   1887.2964     8939.2627        2.4558       83.9420
   1887.4489     8891.2617        2.4677       85.1862
   1887.6012     8843.2998        2.5029       86.0171
   1887.7537     8795.2979        2.5338       84.7552
   1887.9060     8747.3350        2.5337       84.5020
   1888.0585     8699.3340        2.5116       84.0487
   1888.2108     8651.3701        2.5084       81.9664
   1888.3633     8603.3701        2.4683       80.7834
   1888.5156     8555.4072        2.4281       80.0675
   1888.6681     8507.4053        2.3988       79.9579
   1888.8204     8459.4424        2.3925       80.2485
   1888.9729     8411.4404        2.3859       81.1978
   1889.1252     8353.6201        2.3862       82.7709
   1889.2776     8282.1777        2.3912       86.7378
   1889.4301     8210.6797        2.4179       88.3371
   1889.5824     8139.2373        2.4493       88.1759
   1889.7349     8067.7378        2.4581       88.6214
   1889.8872     7996.2964        2.4679       88.4085
   1890.0397     7924.7969        2.4698       87.1993
   1890.1920     7853.3555        2.4715       85.6041
   1890.3445     7781.8564        2.4653       84.8382
   1890.4968     7710.4150        2.4370       86.7148
   1890.6493     7638.9155        2.4087       87.7541
   1890.8016     7567.4741        2.3875       87.1775
   1890.9541     7561.1406        2.3709       90.7051
   1891.1064     7558.7949        2.3556       96.7349
   1891.2588     7556.4497        2.3508      100.6779
   1891.4113     7554.1035        2.3689      103.9624
   1891.5636     7551.7578        2.3845      107.2948
   1891.7161     7549.4111        2.3841      109.5557
   1891.8684     7547.0664        2.3781      111.7740
   1892.0209     7544.7188        2.3835      114.3313
   1892.1732     7542.3735        2.4116      113.0573
   1892.3257     7565.8159        2.4536      107.4048
   1892.4780     7617.6543        2.4814       99.7601
   1892.6305     7669.5337        2.4698       93.9070
   1892.7828     7721.3716        2.4511       93.2074
   1892.9353     7773.2510        2.4713       94.6314
   1893.0876     7825.0894        2.5036       94.0960
   1893.2400     7876.9272        2.4962       92.3977
   1893.3925     7928.8071        2.4583       92.4148
   1893.5448     7980.6450        2.4328       95.0978
   1893.6973     8032.5244        2.4358       96.1852
   1893.8496     8084.3623        2.4495       95.7268
   1894.0021     8093.3628        2.4371       96.1131
   1894.1544     8101.0840        2.4201       94.7965
   1894.3069     8108.8110        2.4325       93.5796
   1894.4592     8116.5327        2.4359       92.1042
   1894.6117     8124.2603        2.4189       91.4721
   1894.7640     8131.9810        2.4049       93.3485
   1894.9165     8139.7085        2.4117       96.5460
   1895.0688     8147.4302        2.3983       99.9429
   1895.2212     8155.1509        2.4053      100.2581
   1895.3737     8162.8779        2.4134       97.2429
   1895.5260     8165.2666        2.3855       92.8240
   1895.6785     8162.2856        2.3822       79.4412
   1895.8308     8159.3066        2.3786       77.6837
   1895.9833     8156.3252        2.3956       77.9177
   1896.1356     8153.3467        2.3856       81.6304
   1896.2881     8150.3652        2.3837       86.3618
   1896.4404     8147.3862        2.3765       92.1526
   1896.5929     8144.4058        2.3754       92.6512
   1896.7452     8141.4258        2.4027       89.7808
   1896.8977     8138.4453        2.4215       90.5820
   1897.0500     8135.4663        2.4037       90.1601
   1897.2024     8132.4878        2.3771       87.6374
   1897.3549     8159.7935        2.3910       89.4740
   1897.5072     8190.3530        2.4220       88.0234
   1897.6597     8220.9375        2.4139       88.7925
   1897.8120     8251.4980        2.3897       91.8143
   1897.9645     8282.0820        2.3850       90.6393
   1898.1168     8312.6416        2.3789       89.3842
   1898.2693     8343.2256        2.4001       82.5458
   1898.4216     8373.7861        2.4063       80.5043
   1898.5741     8404.3711        2.3804       83.0108
   1898.7264     8434.9307        2.3640       86.3571
   1898.8789     8465.5146        2.3456       91.8027
   1899.0312     8470.2510        2.3136       95.5417
