~Version Information Section
VERS.              2.0  : CWLS LOG ASCII STANDARD - VERSION 2.0
WRAP.              NO   : ONE LINE PER DEPTH STEP
CREA.              22-jan-2025
#
~Well Information Section
#MNEM.UNIT         VALUE/NAME          DESCRIPTION
#_________         __________          ___________
STRT.M             30.1500             : START DEPTH
STOP.M             2139.6001           : STOP DEPTH
STEP.M             0.1524              : STEP
NULL.              -999.2500           : NULL VALUE
COMP.                                  : COMPANY
WELL.              F03-2               : WELL NAME
FLD.                                   : FIELD
LOC.                                   : LOCATION
PROV.                                  : PROVINCE
CNTY.                                  : COUNTY
STAT.                                  : STATE
CTRY.                                  : COUNTRY
SRVC.                                  : SERVICE COMPANY
DATE.                                  : LOG DATE
UWI.                                   : UNIQUE WELL ID
XCOORD.M           619101.000          : SURFACE X
YCOORD.M           6089491.000         : SURFACE Y
#
~Curve Information Section
#MNEM.UNIT         API CODE            DESCRIPTION
#_________         ________            ___________
DEPT.M                                 : 0 Depth
AI.m/sxg/cc                            : 1 AI from well tie
RHOB.g/cc                              : 2 Density
DT.us/ft                               : 3 Sonic
#
~Parameter Information Section
#MNEM.UNIT           VALUE             DESCRIPTION
#_________         __________          ___________
EKB.M              30.0000             : Elevation Kelly Bushing
EGL.M              -999.25             : Elevation Ground Level
#
~Other Information Section
#
~Ascii Data Section
# ...
    697.6620     4613.9067        2.1554      141.5513
    697.8145     4610.4941        2.1441      143.5008
    697.9669     4607.0820        2.1427      143.7631
    698.1193     4603.6689        2.1434      143.6316
    698.2716     4604.9648        2.1458      143.2212
    698.4240     4606.3926        2.1586      141.0003
    698.5764     4607.8198        2.1678      139.4130
    698.7288     4609.2476        2.1683      139.3189
    698.8812     4610.6758        2.1644      139.9994
    699.0336     4612.1035        2.1560      141.4479
    699.1860     4613.5312        2.1468      143.0354
    699.3384     4614.5186        2.1371      144.7265
    699.4908     4615.4512        2.1345      145.1616
    699.6432     4616.3838        2.1368      144.7659
    699.7957     4617.3159        2.1353      145.0280
    699.9481     4618.2485        2.1364      144.8350
    700.1004     4619.1807        2.1422      143.8338
    700.2528     4620.1128        2.1564      141.3819
    700.4052     4616.3599        2.1706      138.9109
    700.5576     4612.3643        2.1726      138.5762
    700.7100     4608.3677        2.1676      139.4516
    700.8624     4604.3716        2.1593      140.8925
    701.0148     4600.3755        2.1495      142.5782
    701.1672     4596.3794        2.1421      143.8646
    701.3196     4592.3838        2.1421      143.8584
    701.4720     4590.4658        2.1493      142.6095
    701.6245     4588.8560        2.1560      141.4513
    701.7769     4587.2466        2.1586      141.0049
    701.9293     4585.6372        2.1569      141.2871
    702.0816     4584.0288        2.1502      142.4555
    702.2340     4582.4194        2.1435      143.6138
    702.3864     4580.8105        2.1409      144.0620
    702.5388     4585.8481        2.1429      143.7226
    702.6912     4592.0977        2.1485      142.7529
    702.8436     4598.3472        2.1531      141.9543
    702.9960     4604.5962        2.1483      142.7718
    703.1484     4610.8462        2.1468      143.0447
    703.3008     4617.0952        2.1496      142.5620
    703.4532     4623.3447        2.1462      143.1512
    703.6057     4627.1597        2.1502      142.4645
    703.7581     4630.5327        2.1517      142.2007
    703.9105     4633.9062        2.1443      143.4673
    704.0628     4637.2778        2.1423      143.8153
    704.2152     4640.6514        2.1435      143.6081
    704.3676     4644.0249        2.1498      142.5323
    704.5200     4647.3979        2.1559      141.4601
    704.6724     4647.9370        2.1650      139.8860
    704.8248     4647.9312        2.1728      138.5405
    704.9772     4647.9253        2.1750      138.1587
    705.1296     4647.9189        2.1622      140.3828
    705.2820     4647.9126        2.1645      139.9848
    705.4344     4647.9067        2.1584      141.0301
    705.5869     4647.9004        2.1437      143.5657
    705.7393     4641.6548        2.1492      142.6252
    705.8917     4632.9395        2.1551      141.6009
    706.0440     4624.2275        2.1456      143.2592
    706.1964     4615.5122        2.1517      142.1904
    706.3488     4606.7969        2.1478      142.8595
    706.5012     4598.0815        2.1531      141.9437
    706.6536     4589.3662        2.1666      139.6260
    706.8060     4585.6099        2.1661      139.7043
    706.9584     4584.3584        2.1648      139.9218
    707.1108     4583.1074        2.1603      140.6924
    707.2632     4581.8555        2.1531      141.9618
    707.4156     4580.6040        2.1483      142.7912
    707.5681     4579.3530        2.1372      144.6993
    707.7205     4578.1016        2.1270      146.4678
    707.8728     4584.6899        2.1270      146.4678
    708.0252     4595.4028        2.1337      145.3145
    708.1776     4606.1167        2.1403      144.1680
    708.3300     4616.8301        2.1467      143.0632
    708.4824     4627.5430        2.1519      142.1624
    708.6348     4638.2568        2.1520      142.1413
    708.7872     4648.9702        2.1501      142.4708
    708.9396     4649.1387        2.1569      141.2943
    709.0920     4644.4438        2.1617      140.4684
    709.2444     4639.7500        2.1618      140.4369
    709.3969     4635.0557        2.1625      140.3141
    709.5493     4630.3613        2.1562      141.4191
    709.7017     4625.6670        2.1460      143.1729
    709.8540     4620.9746        2.1470      143.0014
    710.0064     4618.7563        2.1555      141.5414
    710.1588     4618.0811        2.1647      139.9442
    710.3112     4617.4062        2.1730      138.5045
    710.4636     4616.7314        2.1734      138.4425
    710.6160     4616.0562        2.1667      139.5983
    710.7684     4615.3813        2.1541      141.7877
    710.9208     4614.7065        2.1388      144.4196
    711.0732     4614.5542        2.1309      145.7926
    711.2256     4614.8955        2.1334      145.3580
    711.3781     4615.2373        2.1418      143.9061
    711.5305     4615.5786        2.1526      142.0451
    711.6829     4615.9199        2.1573      141.2224
    711.8352     4616.2607        2.1536      141.8664
    711.9876     4616.6021        2.1552      141.5859
    712.1400     4614.9438        2.1558      141.4862
    712.2924     4611.3901        2.1553      141.5622
    712.4448     4607.8369        2.1643      140.0134
    712.5972     4604.2837        2.1667      139.5931
    712.7496     4600.7305        2.1606      140.6460
    712.9020     4597.1772        2.1527      142.0287
    713.0544     4593.6240        2.1447      143.4032
    713.2068     4587.2002        2.1356      144.9823
    713.3593     4577.2178        2.1340      145.2547
    713.5117     4567.2354        2.1415      143.9563
    713.6641     4557.2534        2.1465      143.0806
    713.8164     4547.2749        2.1519      142.1455
    713.9688     4537.2935        2.1607      140.6269
    714.1212     4527.3110        2.1559      141.4656
    714.2736     4518.5659        2.1469      143.0298
    714.4260     4511.3452        2.1460      143.1794
    714.5784     4504.1250        2.1486      142.7311
    714.7308     4496.9053        2.1541      141.7681
    714.8832     4489.6846        2.1550      141.6178
    715.0356     4482.4644        2.1449      143.3667
    715.1880     4475.2441        2.1210      147.5002
    715.3405     4471.2280        2.1057      150.1544
    715.4929     4470.4717        2.1055      150.1907
    715.6452     4469.7153        2.1122      149.0280
    715.7976     4468.9585        2.1241      146.9715
    715.9500     4468.2012        2.1455      143.2639
    716.1024     4467.4443        2.1476      142.9090
    716.2548     4466.6875        2.1364      144.8406
    716.4072     4469.0762        2.1351      145.0793
    716.5596     4473.0073        2.1370      144.7350
    716.7120     4476.9390        2.1406      144.1150
    716.8644     4480.8701        2.1523      142.1036
    717.0168     4484.8013        2.1496      142.5494
    717.1693     4488.7334        2.1364      144.8420
    717.3217     4492.6646        2.1153      148.4827
    717.4741     4497.3652        2.1054      150.2171
    717.6264     4502.3022        2.1082      149.7253
    717.7788     4507.2407        2.1165      148.2864
    717.9312     4512.1797        2.1248      146.8518
    718.0836     4517.1182        2.1299      145.9671
    718.2360     4522.0571        2.1372      144.7038
    718.3884     4526.9966        2.1474      142.9347
    718.5408     4530.3340        2.1578      141.1469
    718.6932     4533.5830        2.1640      140.0642
    718.8456     4536.8320        2.1609      140.5965
    718.9980     4540.0806        2.1533      141.9195
    719.1505     4543.3301        2.1461      143.1626
    719.3029     4546.5791        2.1393      144.3364
    719.4553     4549.8276        2.1337      145.3115
    719.6076     4551.3418        2.1293      146.0605
    719.7600     4552.7236        2.1265      146.5571
