~Version Information Section
VERS.              2.0  : CWLS LOG ASCII STANDARD - VERSION 2.0
WRAP.              NO   : ONE LINE PER DEPTH STEP
CREA.              22-jan-2025
#
~Well Information Section
#MNEM.UNIT         VALUE/NAME          DESCRIPTION
#_________         __________          ___________
STRT.M             30.1500             : START DEPTH
STOP.M             2139.6001           : STOP DEPTH
STEP.M             0.1524              : STEP
NULL.              -999.2500           : NULL VALUE
COMP.                                  : COMPANY
WELL.              F03-2               : WELL NAME
FLD.                                   : FIELD
LOC.                                   : LOCATION
PROV.                                  : PROVINCE
CNTY.                                  : COUNTY
STAT.                                  : STATE
CTRY.                                  : COUNTRY
SRVC.                                  : SERVICE COMPANY
DATE.                                  : LOG DATE
UWI.                                   : UNIQUE WELL ID
XCOORD.M           619101.000          : SURFACE X
YCOORD.M           6089491.000         : SURFACE Y
#
~Curve Information Section
#MNEM.UNIT         API CODE            DESCRIPTION
#_________         ________            ___________
DEPT.M                                 : 0 Depth
AI.m/sxg/cc                            : 1 AI from well tie
RHOB.g/cc                              : 2 Density
DT.us/ft                               : 3 Sonic
#
~Parameter Information Section
#MNEM.UNIT           VALUE             DESCRIPTION
#_________         __________          ___________
EKB.M              30.0000             : Elevation Kelly Bushing
EGL.M              -999.25             : Elevation Ground Level
#
~Other Information Section
#
~Ascii Data Section
# ...
   1053.6685     5433.4995        2.2773      120.4531
   1053.8208     5419.0713        2.2762      120.6459
   1053.9733     5404.6313        2.2659      122.4193
   1054.1256     5390.2036        2.2504      125.0991
   1054.2781     5375.7642        2.2351      127.7541
   1054.4304     5361.3354        2.2239      129.6826
   1054.5829     5347.9922        2.2217      130.0758
   1054.7352     5349.1167        2.2283      128.9289
   1054.8877     5350.2422        2.2370      127.4193
   1055.0400     5351.3667        2.2423      126.4959
   1055.1924     5352.4912        2.2419      126.5740
   1055.3448     5353.6167        2.2343      127.9030
   1055.4972     5354.7412        2.2319      128.3074
   1055.6497     5355.8667        2.2376      127.3243
   1055.8020     5357.7505        2.2415      126.6592
   1055.9545     5362.2021        2.2354      127.7120
   1056.1068     5366.6504        2.2358      127.6362
   1056.2593     5371.1025        2.2400      126.9041
   1056.4116     5375.5508        2.2385      127.1665
   1056.5641     5380.0024        2.2335      128.0255
   1056.7164     5384.4507        2.2296      128.6943
   1056.8689     5388.9028        2.2345      127.8557
   1057.0212     5392.8105        2.2396      126.9628
   1057.1736     5395.8833        2.2466      125.7579
   1057.3260     5398.9585        2.2455      125.9538
   1057.4784     5402.0312        2.2376      127.3305
   1057.6309     5405.1069        2.2334      128.0430
   1057.7832     5408.1802        2.2361      127.5848
   1057.9357     5411.2554        2.2457      125.9127
   1058.0880     5414.3276        2.2422      126.5271
   1058.2405     5410.8198        2.2487      125.4030
   1058.3928     5400.6616        2.2495      125.2566
   1058.5453     5390.4951        2.2521      124.7985
   1058.6976     5380.3364        2.2449      126.0497
   1058.8501     5370.1699        2.2443      126.1597
   1059.0024     5360.0112        2.2511      124.9919
   1059.1548     5349.8530        2.2430      126.3784
   1059.3073     5339.6865        2.2434      126.3241
   1059.4596     5332.5693        2.2483      125.4790
   1059.6121     5328.0464        2.2381      127.2321
   1059.7644     5323.5273        2.2425      126.4850
   1059.9169     5319.0044        2.2325      128.2178
   1060.0692     5314.4849        2.2312      128.4250
   1060.2217     5309.9619        2.2297      128.6891
   1060.3740     5305.4434        2.2167      130.9354
   1060.5265     5300.9204        2.2183      130.6692
   1060.6788     5303.8623        2.2259      129.3474
   1060.8312     5309.1973        2.2309      128.4801
   1060.9836     5314.5356        2.2338      127.9800
   1061.1360     5319.8696        2.2348      127.7973
   1061.2885     5325.2085        2.2339      127.9609
   1061.4408     5330.5435        2.2273      129.1100
   1061.5933     5335.8818        2.2269      129.1643
   1061.7456     5341.2163        2.2291      128.7807
   1061.8981     5348.0156        2.2319      128.2984
   1062.0504     5354.8403        2.2441      126.1872
   1062.2029     5361.6704        2.2500      125.1683
   1062.3552     5368.4951        2.2444      126.1372
   1062.5077     5375.3257        2.2424      126.4829
   1062.6600     5382.1509        2.2436      126.2835
   1062.8124     5388.9756        2.2406      126.8120
   1062.9648     5395.4590        2.2350      127.7714
   1063.1172     5398.0029        2.2325      128.2125
   1063.2697     5400.5493        2.2288      128.8474
   1063.4220     5403.0933        2.2293      128.7538
   1063.5745     5405.6387        2.2435      126.2983
   1063.7268     5408.1826        2.2584      123.7194
   1063.8793     5410.7285        2.2629      122.9541
   1064.0316     5413.2725        2.2547      124.3598
   1064.1841     5412.9219        2.2424      126.4837
   1064.3364     5397.0210        2.2353      127.7167
   1064.4889     5381.1069        2.2335      128.0253
   1064.6412     5365.2070        2.2386      127.1471
   1064.7936     5349.3057        2.2465      125.7795
   1064.9460     5333.3926        2.2482      125.4822
   1065.0984     5317.4917        2.2485      125.4291
   1065.2509     5301.5781        2.2476      125.5813
   1065.4032     5293.3242        2.2381      127.2295
   1065.5557     5307.3516        2.2328      128.1551
   1065.7080     5321.3667        2.2318      128.3269
   1065.8605     5335.3940        2.2315      128.3748
   1066.0128     5349.4102        2.2265      129.2316
   1066.1653     5363.4370        2.2153      131.1836
   1066.3176     5377.4531        2.2097      132.1538
   1066.4701     5391.4800        2.2095      132.1861
   1066.6224     5407.4614        2.2165      130.9625
   1066.7748     5424.9980        2.2249      129.5214
   1066.9272     5442.5488        2.2337      128.0038
   1067.0796     5460.0850        2.2303      128.5954
   1067.2321     5477.6357        2.2326      128.1858
   1067.3844     5495.1719        2.2398      126.9541
   1067.5369     5512.7222        2.2513      124.9472
   1067.6892     5530.2588        2.2667      122.2907
   1067.8417     5523.8945        2.2797      120.0336
   1067.9940     5506.2358        2.2830      119.4625
   1068.1465     5488.5630        2.2745      120.9256
   1068.2988     5470.9043        2.2625      122.9990
   1068.4513     5453.2310        2.2530      124.6655
   1068.6036     5435.5723        2.2497      125.2185
   1068.7560     5417.9136        2.2517      124.8756
   1068.9084     5400.2402        2.2528      124.6760
   1069.0608     5390.6812        2.2476      125.5898
   1069.2133     5387.6289        2.2434      126.3172
   1069.3656     5384.5781        2.2481      125.5041
   1069.5181     5381.5254        2.2456      125.9297
   1069.6704     5378.4746        2.2367      127.4768
   1069.8229     5375.4219        2.2276      129.0529
   1069.9752     5372.3716        2.2211      130.1759
   1070.1277     5369.3184        2.2223      129.9653
   1070.2800     5367.9653        2.2263      129.2788
   1070.4325     5367.2612        2.2352      127.7352
   1070.5848     5366.5571        2.2467      125.7507
   1070.7372     5365.8530        2.2547      124.3663
   1070.8896     5365.1489        2.2585      123.7013
   1071.0420     5364.4448        2.2582      123.7541
   1071.1945     5363.7402        2.2537      124.5275
   1071.3468     5363.0361        2.2448      126.0791
   1071.4993     5362.0356        2.2348      127.8038
   1071.6516     5360.9438        2.2303      128.5811
   1071.8041     5359.8501        2.2318      128.3309
   1071.9564     5358.7583        2.2364      127.5218
   1072.1089     5357.6646        2.2417      126.6017
   1072.2612     5356.5723        2.2426      126.4639
   1072.4137     5355.4790        2.2358      127.6311
   1072.5660     5354.3867        2.2259      129.3426
   1072.7184     5358.4355        2.2215      130.1197
   1072.8708     5362.8594        2.2231      129.8267
   1073.0232     5367.2798        2.2291      128.7821
   1073.1757     5371.7036        2.2407      126.7812
   1073.3280     5376.1240        2.2459      125.8815
   1073.4805     5380.5474        2.2427      126.4383
   1073.6328     5384.9683        2.2428      126.4227
   1073.7853     5388.7134        2.2401      126.8952
   1073.9376     5386.5718        2.2376      127.3300
   1074.0901     5384.4287        2.2411      126.7132
   1074.2424     5382.2866        2.2445      126.1192
   1074.3949     5380.1436        2.2393      127.0314
   1074.5472     5378.0020        2.2372      127.3982
   1074.6996     5375.8604        2.2391      127.0682
   1074.8521     5373.7163        2.2401      126.8795
   1075.0044     5371.3330        2.2449      126.0500
   1075.1569     5368.0703        2.2392      127.0478
   1075.3092     5364.8101        2.2375      127.3382
   1075.4617     5361.5474        2.2388      127.1063
   1075.6140     5358.2876        2.2392      127.0453
   1075.7665     5355.0249        2.2475      125.6062
