~Version Information Section
VERS.              2.0  : CWLS LOG ASCII STANDARD - VERSION 2.0
WRAP.              NO   : ONE LINE PER DEPTH STEP
CREA.              22-jan-2025
#
~Well Information Section
#MNEM.UNIT         VALUE/NAME          DESCRIPTION
#_________         __________          ___________
STRT.M             30.1500             : START DEPTH
STOP.M             2139.6001           : STOP DEPTH
STEP.M             0.1524              : STEP
NULL.              -999.2500           : NULL VALUE
COMP.                                  : COMPANY
WELL.              F03-2               : WELL NAME
FLD.                                   : FIELD
LOC.                                   : LOCATION
PROV.                                  : PROVINCE
CNTY.                                  : COUNTY
STAT.                                  : STATE
CTRY.                                  : COUNTRY
SRVC.                                  : SERVICE COMPANY
DATE.                                  : LOG DATE
UWI.                                   : UNIQUE WELL ID
XCOORD.M           619101.000          : SURFACE X
YCOORD.M           6089491.000         : SURFACE Y
#
~Curve Information Section
#MNEM.UNIT         API CODE            DESCRIPTION
#_________         ________            ___________
DEPT.M                                 : 0 Depth
AI.m/sxg/cc                            : 1 AI from well tie
RHOB.g/cc                              : 2 Density
DT.us/ft                               : 3 Sonic
#
~Parameter Information Section
#MNEM.UNIT           VALUE             DESCRIPTION
#_________         __________          ___________
EKB.M              30.0000             : Elevation Kelly Bushing
EGL.M              -999.25             : Elevation Ground Level
#
~Other Information Section
#
~Ascii Data Section
# ...
   1298.4229     4163.8862        2.0826      154.1572
   1298.5752     4157.7480        2.0892      153.0266
   1298.7277     4151.6055        2.0807      154.4864
   1298.8800     4142.7690        2.0780      154.9418
   1299.0325     4129.5913        2.0841      153.9036
   1299.1848     4116.4233        2.0877      153.2809
   1299.3373     4103.2446        2.0875      153.3057
   1299.4896     4090.0771        2.0820      154.2617
   1299.6421     4076.8989        2.0802      154.5680
   1299.7944     4063.7312        2.0863      153.5200
   1299.9469     4054.7349        2.0956      151.9154
   1300.0992     4046.2952        2.1020      150.8088
   1300.2516     4037.8550        2.0998      151.1771
   1300.4041     4029.4087        2.0906      152.7703
   1300.5564     4020.9685        2.0781      154.9398
   1300.7089     4012.5220        2.0619      157.7463
   1300.8612     4008.3423        2.0454      160.6045
   1301.0137     4011.0278        2.0377      161.9340
   1301.1660     4013.7114        2.0398      161.5741
   1301.3185     4016.3970        2.0459      160.5104
   1301.4708     4019.0806        2.0636      157.4501
   1301.6233     4021.7661        2.0847      153.7930
   1301.7756     4023.7878        2.0862      153.5407
   1301.9281     4016.8633        2.0735      155.7355
   1302.0804     4009.9438        2.0658      157.0564
   1302.2328     4003.0247        2.0591      158.2289
   1302.3853     3996.0999        2.0526      159.3606
   1302.5376     3989.1807        2.0559      158.7849
   1302.6901     3982.2559        2.0667      156.9025
   1302.8424     3978.8604        2.0756      155.3705
   1302.9949     3976.8208        2.0777      154.9997
   1303.1472     3974.7825        2.0665      156.9329
   1303.2997     3972.7422        2.0644      157.3143
   1303.4520     3970.7041        2.0706      156.2438
   1303.6045     3968.6643        2.0725      155.9082
   1303.7568     3964.8481        2.0488      160.0126
   1303.9092     3957.5146        2.0413      161.3005
   1304.0616     3950.1753        2.0481      160.1216
   1304.2140     3942.8418        2.0385      161.7833
   1304.3665     3935.5022        2.0424      161.1199
   1304.5188     3928.1685        2.0566      158.6565
   1304.6713     3920.6702        2.0731      155.8141
   1304.8236     3911.3875        2.0756      155.3599
   1304.9761     3902.0977        2.0748      155.4926
   1305.1284     3892.8152        2.0691      156.4928
   1305.2809     3883.5251        2.0509      159.6492
   1305.4332     3874.2424        2.0508      159.6541
   1305.5857     3864.9526        2.0329      162.7632
   1305.7380     3863.2065        2.0303      163.2203
   1305.8904     3863.7732        2.0323      162.8723
   1306.0428     3864.3398        2.0437      160.8980
   1306.1952     3864.9062        2.0545      159.0216
   1306.3477     3865.4731        2.0496      159.8803
   1306.5000     3866.0396        2.0483      160.0938
   1306.6525     3878.7549        2.0398      161.5768
   1306.8048     3901.2305        2.0257      164.0153
   1306.9573     3923.7244        2.0240      164.3025
   1307.1096     3946.2004        2.0308      163.1380
   1307.2621     3968.6943        2.0373      162.0029
   1307.4144     3991.1702        2.0442      160.8122
   1307.5669     4011.2646        2.0578      158.4565
   1307.7192     4027.6543        2.0527      159.3344
   1307.8716     4044.0442        2.0510      159.6287
   1308.0240     4060.4468        2.0638      157.4198
   1308.1764     4076.8367        2.0774      155.0538
   1308.3289     4093.2397        2.0787      154.8287
   1308.4812     4109.4595        2.0823      154.2189
   1308.6337     4116.2192        2.0840      153.9255
   1308.7860     4122.9731        2.0924      152.4521
   1308.9385     4129.7324        2.1022      150.7581
   1309.0908     4136.4863        2.1021      150.7747
   1309.2433     4143.2461        2.0919      152.5430
   1309.3956     4149.9995        2.0764      155.2318
   1309.5481     4154.2490        2.0615      157.8054
   1309.7004     4155.7734        2.0605      157.9866
   1309.8528     4157.2974        2.0781      154.9351
   1310.0052     4158.8228        2.0952      151.9696
   1310.1576     4160.3472        2.1030      150.6265
   1310.3101     4161.8726        2.1032      150.5847
   1310.4624     4163.3960        2.0960      151.8334
   1310.6149     4159.0679        2.0913      152.6551
   1310.7672     4154.5190        2.0898      152.9078
   1310.9197     4149.9663        2.0907      152.7513
   1311.0720     4145.4175        2.0911      152.6875
   1311.2245     4140.8652        2.0843      153.8569
   1311.3768     4136.3164        2.0817      154.3183
   1311.5293     4137.8560        2.0844      153.8552
   1311.6816     4147.2573        2.0814      154.3780
   1311.8340     4156.6582        2.0772      155.0927
   1311.9865     4166.0674        2.0790      154.7878
   1312.1388     4175.4683        2.0769      155.1496
   1312.2913     4184.8774        2.0793      154.7252
   1312.4436     4194.2788        2.0894      152.9701
   1312.5961     4207.0391        2.0953      151.9480
   1312.7484     4219.9150        2.0936      152.2550
   1312.9009     4232.8008        2.0987      151.3704
   1313.0532     4245.6763        2.0916      152.6097
   1313.2057     4258.5620        2.0903      152.8249
   1313.3580     4271.4375        2.1007      151.0210
   1313.5105     4280.7036        2.1000      151.1383
   1313.6628     4284.0884        2.1051      150.2568
   1313.8152     4287.4731        2.1109      149.2587
   1313.9677     4290.8599        2.1030      150.6323
   1314.1200     4294.2446        2.1046      150.3398
   1314.2725     4297.6318        2.1125      148.9868
   1314.4248     4301.0166        2.1092      149.5445
   1314.5773     4306.8779        2.1221      147.3179
   1314.7296     4313.7666        2.1242      146.9540
   1314.8821     4320.6611        2.1110      149.2373
   1315.0344     4327.5498        2.1025      150.7181
   1315.1869     4334.4443        2.1020      150.8037
   1315.3392     4341.3330        2.1085      149.6794
   1315.4917     4348.2280        2.1168      148.2392
   1315.6440     4355.5195        2.1173      148.1450
   1315.7964     4362.8120        2.1019      150.8087
   1315.9489     4370.1099        2.0994      151.2548
   1316.1012     4377.4023        2.1034      150.5633
   1316.2537     4384.7007        2.1197      147.7377
   1316.4060     4391.9927        2.1385      144.4898
   1316.5585     4403.0854        2.1419      143.8947
   1316.7108     4425.1763        2.1328      145.4695
   1316.8633     4447.2842        2.1237      147.0524
   1317.0156     4469.3750        2.1156      148.4564
   1317.1681     4491.4829        2.1159      148.3804
   1317.3204     4513.5737        2.1127      148.9452
   1317.4729     4535.6821        2.1152      148.5114
   1317.6252     4555.7402        2.1186      147.9205
   1317.7776     4573.6177        2.1231      147.1467
   1317.9301     4591.5088        2.1285      146.2110
   1318.0824     4609.3862        2.1381      144.5573
   1318.2349     4627.2778        2.1565      141.3739
   1318.3872     4645.1553        2.1701      139.0128
   1318.5397     4663.0464        2.1716      138.7476
   1318.6920     4667.4648        2.1724      138.6084
   1318.8445     4657.5254        2.1681      139.3487
   1318.9968     4647.5942        2.1595      140.8408
   1319.1493     4637.6548        2.1543      141.7380
   1319.3016     4627.7231        2.1530      141.9725
   1319.4540     4617.7920        2.1522      142.1042
   1319.6064     4607.8521        2.1544      141.7304
   1319.7588     4602.4976        2.1561      141.4354
   1319.9113     4604.2231        2.1530      141.9649
   1320.0636     4605.9473        2.1534      141.8974
   1320.2161     4607.6729        2.1561      141.4379
   1320.3684     4609.3970        2.1547      141.6717
   1320.5209     4611.1230        2.1482      142.7882
