~Version Information Section
VERS.              2.0  : CWLS LOG ASCII STANDARD - VERSION 2.0
WRAP.              NO   : ONE LINE PER DEPTH STEP
CREA.              22-jan-2025
#
~Well Information Section
#MNEM.UNIT         VALUE/NAME          DESCRIPTION
#_________         __________          ___________
STRT.M             30.1500             : START DEPTH
STOP.M             2139.6001           : STOP DEPTH
STEP.M             0.1524              : STEP
NULL.              -999.2500           : NULL VALUE
COMP.                                  : COMPANY
WELL.              F03-2               : WELL NAME
FLD.                                   : FIELD
LOC.                                   : LOCATION
PROV.                                  : PROVINCE
CNTY.                                  : COUNTY
STAT.                                  : STATE
CTRY.                                  : COUNTRY
SRVC.                                  : SERVICE COMPANY
DATE.                                  : LOG DATE
UWI.                                   : UNIQUE WELL ID
XCOORD.M           619101.000          : SURFACE X
YCOORD.M           6089491.000         : SURFACE Y
#
~Curve Information Section
#MNEM.UNIT         API CODE            DESCRIPTION
#_________         ________            ___________
DEPT.M                                 : 0 Depth
AI.m/sxg/cc                            : 1 AI from well tie
RHOB.g/cc                              : 2 Density
DT.us/ft                               : 3 Sonic
#
~Parameter Information Section
#MNEM.UNIT           VALUE             DESCRIPTION
#_________         __________          ___________
EKB.M              30.0000             : Elevation Kelly Bushing
EGL.M              -999.25             : Elevation Ground Level
#
~Other Information Section
#
~Ascii Data Section
# ...
   1164.9204     4933.2988        2.1932      135.0142
   1165.0729     4923.1094        2.1929      135.0519
   1165.2252     4912.9282        2.1967      134.3910
   1165.3777     4902.7388        2.2037      133.1917
   1165.5300     4892.5581        2.2020      133.4901
   1165.6825     4882.3682        2.1898      135.6013
   1165.8348     4872.1875        2.1824      136.8734
   1165.9872     4865.8477        2.1803      137.2344
   1166.1396     4860.3901        2.1774      137.7304
   1166.2920     4854.9370        2.1739      138.3480
   1166.4445     4849.4795        2.1690      139.1850
   1166.5968     4844.0264        2.1635      140.1400
   1166.7493     4838.5688        2.1649      139.9010
   1166.9016     4833.1157        2.1752      138.1214
   1167.0541     4840.9683        2.1860      136.2416
   1167.2064     4857.8730        2.1941      134.8596
   1167.3589     4874.7905        2.1966      134.4196
   1167.5112     4891.6948        2.1907      135.4458
   1167.6637     4908.6128        2.1815      137.0435
   1167.8160     4925.5166        2.1727      138.5612
   1167.9684     4942.4209        2.1680      139.3734
   1168.1208     4958.2964        2.1702      138.9810
   1168.2732     4971.5249        2.1774      137.7319
   1168.4257     4984.7646        2.1844      136.5225
   1168.5780     4997.9941        2.1895      135.6527
   1168.7305     5011.2334        2.1967      134.4129
   1168.8828     5024.4624        2.2001      133.8086
   1169.0353     5037.7021        2.1979      134.1972
   1169.1876     5050.9316        2.2029      133.3431
   1169.3401     5044.2148        2.2199      130.3860
   1169.4924     5034.9248        2.2261      129.3222
   1169.6449     5025.6279        2.2155      131.1461
   1169.7972     5016.3384        2.2069      132.6399
   1169.9496     5007.0488        2.2093      132.2310
   1170.1021     4997.7515        2.2157      131.1234
   1170.2544     4988.4619        2.2156      131.1408
   1170.4069     4977.1001        2.2048      133.0005
   1170.5592     4960.2559        2.1902      135.5213
   1170.7117     4943.3975        2.1840      136.6007
   1170.8640     4926.5527        2.1923      135.1556
   1171.0165     4909.6943        2.1980      134.1877
   1171.1688     4892.8496        2.1891      135.7146
   1171.3213     4875.9912        2.1846      136.5000
   1171.4736     4859.1460        2.1848      136.4599
   1171.6261     4857.5000        2.1907      135.4445
   1171.7784     4857.5459        2.1992      133.9760
   1171.9308     4857.5918        2.1894      135.6602
   1172.0833     4857.6372        2.1774      137.7421
   1172.2356     4857.6836        2.1706      138.9118
   1172.3881     4857.7295        2.1758      138.0314
   1172.5404     4857.7749        2.1716      138.7513
   1172.6929     4872.5938        2.1728      138.5399
   1172.8452     4897.0586        2.1769      137.8285
   1172.9977     4921.5435        2.1828      136.8108
   1173.1500     4946.0088        2.1697      139.0696
   1173.3025     4970.4937        2.1678      139.4042
   1173.4548     4994.9595        2.1721      138.6651
   1173.6072     5019.4243        2.1852      136.3908
   1173.7596     5043.4526        2.1917      135.2654
   1173.9120     5066.5933        2.1988      134.0326
   1174.0645     5089.7524        2.2071      132.5933
   1174.2168     5112.8931        2.2132      131.5549
   1174.3693     5136.0527        2.2118      131.7948
   1174.5216     5159.1934        2.2155      131.1502
   1174.6741     5182.3525        2.2165      130.9686
   1174.8264     5205.4937        2.2123      131.7020
   1174.9789     5213.5220        2.2126      131.6465
   1175.1312     5217.1758        2.2187      130.5965
   1175.2837     5220.8325        2.2245      129.5862
   1175.4360     5224.4868        2.2289      128.8230
   1175.5884     5228.1401        2.2322      128.2522
   1175.7408     5231.7969        2.2339      127.9566
   1175.8932     5235.4502        2.2306      128.5339
   1176.0457     5238.8613        2.2231      129.8377
   1176.1980     5237.1265        2.2203      130.3134
   1176.3505     5235.3906        2.2229      129.8727
   1176.5028     5233.6558        2.2259      129.3405
   1176.6553     5231.9199        2.2292      128.7673
   1176.8076     5230.1855        2.2310      128.4651
   1176.9601     5228.4492        2.2272      129.1187
   1177.1124     5226.7148        2.2217      130.0703
   1177.2649     5217.3750        2.2211      130.1689
   1177.4172     5192.2666        2.2196      130.4292
   1177.5696     5167.1582        2.2185      130.6333
   1177.7220     5142.0298        2.2210      130.1980
   1177.8744     5116.9219        2.2189      130.5600
   1178.0269     5091.7939        2.2182      130.6734
   1178.1792     5066.6855        2.2246      129.5779
   1178.3317     5041.5566        2.2292      128.7723
   1178.4840     5017.5410        2.2289      128.8307
   1178.6365     4994.1484        2.2266      129.2243
   1178.7888     4970.7744        2.2238      129.7016
   1178.9413     4947.3813        2.2200      130.3604
   1179.0936     4924.0078        2.2147      131.2768
   1179.2461     4900.6152        2.2070      132.6212
   1179.3984     4877.2407        2.1962      134.4881
   1179.5508     4854.8105        2.1803      137.2446
   1179.7032     4852.1001        2.1627      140.2871
   1179.8556     4849.3906        2.1485      142.7457
   1180.0081     4846.6792        2.1490      142.6599
   1180.1604     4843.9702        2.1603      140.7107
   1180.3129     4841.2588        2.1761      137.9802
   1180.4652     4838.5493        2.1888      135.7665
   1180.6177     4835.8384        2.1953      134.6462
   1180.7700     4848.6953        2.1894      135.6515
   1180.9225     4864.0693        2.1803      137.2448
   1181.0748     4879.4316        2.1706      138.9292
   1181.2273     4894.8057        2.1627      140.2846
   1181.3796     4910.1675        2.1648      139.9181
   1181.5320     4925.5298        2.1794      137.3907
   1181.6844     4940.9043        2.1840      136.5967
   1181.8368     4953.5767        2.1864      136.1931
   1181.9893     4964.5479        2.1883      135.8625
   1182.1416     4975.5107        2.1775      137.7214
   1182.2941     4986.4824        2.1754      138.0967
   1182.4464     4997.4448        2.1862      136.2232
   1182.5989     5008.4160        2.1997      133.8702
   1182.7512     5019.3794        2.2102      132.0632
   1182.9037     5027.6460        2.2175      130.7987
   1183.0560     5025.9658        2.2183      130.6562
   1183.2085     5024.2837        2.2170      130.8770
   1183.3608     5022.6035        2.2153      131.1879
   1183.5132     5020.9229        2.2096      132.1685
   1183.6656     5019.2412        2.2044      133.0641
   1183.8180     5017.5605        2.2005      133.7390
   1183.9705     5015.8789        2.1948      134.7345
   1184.1228     5017.4258        2.1913      135.3394
   1184.2753     5020.6289        2.1894      135.6625
   1184.4276     5023.8296        2.1953      134.6461
   1184.5801     5027.0332        2.2056      132.8492
   1184.7324     5030.2339        2.2133      131.5269
   1184.8849     5033.4375        2.2174      130.8245
   1185.0372     5036.6382        2.2186      130.6142
   1185.1897     5040.2607        2.2099      132.1170
   1185.3420     5046.6118        2.1933      134.9971
   1185.4944     5052.9629        2.1800      137.2923
   1185.6469     5059.3198        2.1728      138.5408
   1185.7992     5065.6704        2.1760      137.9900
   1185.9517     5072.0269        2.1897      135.6191
   1186.1040     5078.3784        2.2037      133.1961
   1186.2565     5084.7344        2.2154      131.1656
   1186.4088     5089.1270        2.2217      130.0630
   1186.5613     5092.8613        2.2161      131.0387
   1186.7136     5096.5923        2.2092      132.2373
   1186.8661     5100.3267        2.2115      131.8335
   1187.0184     5104.0576        2.2172      130.8508
