~Version Information Section
VERS.              2.0  : CWLS LOG ASCII STANDARD - VERSION 2.0
WRAP.              NO   : ONE LINE PER DEPTH STEP
CREA.              22-jan-2025
#
~Well Information Section
#MNEM.UNIT         VALUE/NAME          DESCRIPTION
#_________         __________          ___________
STRT.M             30.1500             : START DEPTH
STOP.M             2139.6001           : STOP DEPTH
STEP.M             0.1524              : STEP
NULL.              -999.2500           : NULL VALUE
COMP.                                  : COMPANY
WELL.              F03-2               : WELL NAME
FLD.                                   : FIELD
LOC.                                   : LOCATION
PROV.                                  : PROVINCE
CNTY.                                  : COUNTY
STAT.                                  : STATE
CTRY.                                  : COUNTRY
SRVC.                                  : SERVICE COMPANY
DATE.                                  : LOG DATE
UWI.                                   : UNIQUE WELL ID
XCOORD.M           619101.000          : SURFACE X
YCOORD.M           6089491.000         : SURFACE Y
#
~Curve Information Section
#MNEM.UNIT         API CODE            DESCRIPTION
#_________         ________            ___________
DEPT.M                                 : 0 Depth
AI.m/sxg/cc                            : 1 AI from well tie
RHOB.g/cc                              : 2 Density
DT.us/ft                               : 3 Sonic
#
~Parameter Information Section
#MNEM.UNIT           VALUE             DESCRIPTION
#_________         __________          ___________
EKB.M              30.0000             : Elevation Kelly Bushing
EGL.M              -999.25             : Elevation Ground Level
#
~Other Information Section
#
~Ascii Data Section
# ...
   1654.4292     6806.5781        2.1912      100.0220
   1654.5817     6818.8179        2.2196       96.2431
   1654.7340     6825.9619        2.2437       94.0212
   1654.8865     6833.1118        2.2690       92.7184
   1655.0388     6840.2563        2.2972       90.0413
   1655.1913     6847.4062        2.2956       91.6406
   1655.3436     6854.5508        2.2594       93.9583
   1655.4961     6861.7007        2.2058       98.8506
   1655.6484     6868.8452        2.1860      100.7668
   1655.8009     6875.9951        2.1776      103.1082
   1655.9532     6883.1392        2.1743       99.8887
   1656.1056     6890.2837        2.1626       99.9082
   1656.2581     6884.0234        2.1700       97.5991
   1656.4104     6872.7563        2.1672       95.0157
   1656.5629     6861.4800        2.1688       97.1295
   1656.7152     6850.2134        2.1954      100.0578
   1656.8677     6838.9370        2.2076       99.9608
   1657.0200     6827.6694        2.2054       96.5310
   1657.1725     6816.3936        2.2220       93.9743
   1657.3248     6805.1265        2.2217       94.0817
   1657.4773     6793.8506        2.2394       93.7260
   1657.6296     6782.5830        2.2416       93.6883
   1657.7821     6765.1182        2.2249       94.4959
   1657.9344     6733.5801        2.2138       95.7987
   1658.0868     6702.0410        2.1968       94.7687
   1658.2393     6670.4771        2.1773       99.5331
   1658.3916     6638.9390        2.1812       99.3430
   1658.5441     6607.3750        2.1778       95.8970
   1658.6964     6575.8359        2.1870       97.3940
   1658.8489     6544.2725        2.1941       94.4040
   1659.0012     6512.7339        2.1839       99.9331
   1659.1537     6481.1694        2.1897      101.7826
   1659.3060     6452.4741        2.1648      102.3409
   1659.4585     6450.2554        2.1425      102.3975
   1659.6108     6448.0400        2.1199      107.0884
   1659.7632     6445.8237        2.1242      107.9115
   1659.9156     6443.6060        2.1275      102.4154
   1660.0680     6441.3896        2.1405      100.7515
   1660.2205     6439.1714        2.1546      100.0907
   1660.3728     6436.9551        2.1489      101.1766
   1660.5253     6434.7363        2.1456      105.4993
   1660.6776     6432.5210        2.1593      106.5017
   1660.8301     6432.1616        2.1951      104.3217
   1660.9824     6433.9517        2.2039      103.5151
   1661.1349     6435.7441        2.1933      103.2974
   1661.2872     6437.5342        2.1935      102.6693
   1661.4397     6439.3271        2.1867      101.8640
   1661.5920     6441.1172        2.1770      101.1515
   1661.7444     6442.9087        2.1722       99.7454
   1661.8969     6444.6997        2.1610       99.1617
   1662.0492     6446.4912        2.1549      100.3056
   1662.2017     6448.2827        2.1457      101.5317
   1662.3540     6452.4917        2.1270      102.6178
   1662.5065     6458.1445        2.1243      103.5439
   1662.6588     6463.7944        2.1320      103.8297
   1662.8113     6469.4482        2.1255      103.0967
   1662.9636     6475.0977        2.1107      102.2991
   1663.1161     6480.7515        2.1060      102.4400
   1663.2684     6486.4004        2.1137      103.2359
   1663.4209     6492.0542        2.1295      104.2841
   1663.5732     6497.7031        2.1598      104.0793
   1663.7256     6503.3525        2.1918      101.7722
   1663.8781     6537.3213        2.1875       99.2840
   1664.0304     6573.4590        2.1678       98.0565
   1664.1829     6609.6265        2.1655       98.5091
   1664.3352     6645.7651        2.1559      100.7251
   1664.4877     6681.9321        2.1485      102.8183
   1664.6400     6718.0708        2.1478      103.5163
   1664.7925     6754.2383        2.1504      104.5668
   1664.9448     6790.3760        2.1509      104.6038
   1665.0973     6826.5439        2.1604      102.1560
   1665.2496     6861.9561        2.1723      101.5412
   1665.4021     6889.3154        2.1867      101.5242
   1665.5544     6916.6533        2.1998       99.6407
   1665.7068     6943.9907        2.2073       98.5795
   1665.8593     6971.3501        2.2200       97.3314
   1666.0116     6998.6875        2.2454       94.9915
   1666.1641     7026.0474        2.2338       95.0866
   1666.3164     7053.3853        2.2279       96.4655
   1666.4689     7080.7437        2.2288       95.4398
   1666.6212     7108.0820        2.2437       95.0149
   1666.7737     7135.4419        2.2444       94.8917
   1666.9260     7168.0762        2.2270       93.1694
   1667.0785     7202.3989        2.2060       93.7698
   1667.2308     7236.6953        2.2045       93.4036
   1667.3833     7271.0181        2.1982       95.2521
   1667.5356     7305.3135        2.2009       95.3053
   1667.6880     7339.6099        2.1913       97.4711
   1667.8405     7373.9326        2.1930       95.7961
   1667.9928     7408.2295        2.1848       96.2895
   1668.1453     7442.5522        2.2069       96.2349
   1668.2976     7476.8481        2.2090       92.9035
   1668.4501     7509.4575        2.2220       92.9135
   1668.6024     7535.8008        2.2428       92.6509
   1668.7549     7562.1646        2.2534       94.2840
   1668.9072     7588.5078        2.2452       96.2857
   1669.0597     7614.8721        2.2138       95.6883
   1669.2120     7641.2153        2.2085       91.4076
   1669.3645     7667.5791        2.2039       90.5271
   1669.5168     7693.9224        2.1841       91.8187
   1669.6692     7720.2656        2.1846       92.7406
   1669.8217     7746.6294        2.1858       87.6907
   1669.9740     7772.9736        2.1890       78.4711
   1670.1265     7793.3604        2.1986       75.4437
   1670.2788     7755.9458        2.2134       77.8093
   1670.4313     7718.5020        2.2311       84.3919
   1670.5836     7681.0874        2.2530       90.3283
   1670.7361     7643.6431        2.2762       90.8880
   1670.8884     7606.2295        2.2877       88.6990
   1671.0409     7568.7856        2.2990       87.2586
   1671.1932     7531.3711        2.3010       86.7624
   1671.3457     7493.9268        2.2957       86.9972
   1671.4980     7456.5132        2.2830       87.7490
   1671.6504     7419.0986        2.2622       87.9851
   1671.8029     7381.6548        2.2466       88.6995
   1671.9552     7356.9634        2.2378       89.9127
   1672.1077     7340.4849        2.2352       89.9598
   1672.2600     7324.0176        2.2274       89.8421
   1672.4125     7307.5381        2.2145       90.4995
   1672.5648     7291.0718        2.2102       91.9316
   1672.7173     7274.5923        2.2060       94.2262
   1672.8696     7258.1265        2.2009       95.9790
   1673.0221     7241.6470        2.1946       95.6573
   1673.1744     7225.1802        2.1858       95.2847
   1673.3269     7208.7012        2.1878       95.8986
   1673.4792     7192.2344        2.2053       95.8030
   1673.6316     7204.4878        2.2245       95.9556
   1673.7841     7220.2651        2.2323       96.3950
   1673.9364     7236.0303        2.2286       95.7499
   1674.0889     7251.8086        2.2202       94.9862
   1674.2412     7267.5732        2.2180       94.8243
   1674.3937     7283.3516        2.2310       95.0753
   1674.5460     7299.1162        2.2433       95.2490
   1674.6985     7314.8945        2.2405       94.6297
   1674.8508     7330.6602        2.2403       94.4976
   1675.0033     7346.4370        2.2551       93.8251
   1675.1556     7356.6230        2.2699       93.4600
   1675.3081     7357.3823        2.2658       93.2525
   1675.4604     7358.1411        2.2677       92.9027
   1675.6128     7358.8994        2.2667       92.2220
   1675.7653     7359.6587        2.2653       91.2702
   1675.9176     7360.4175        2.2666       90.7303
   1676.0701     7361.1763        2.2603       90.8468
   1676.2224     7361.9351        2.2575       90.3036
   1676.3749     7362.6943        2.2511       90.8950
   1676.5272     7363.4521        2.2311       92.5851
