~Version Information Section
VERS.              2.0  : CWLS LOG ASCII STANDARD - VERSION 2.0
WRAP.              NO   : ONE LINE PER DEPTH STEP
CREA.              22-jan-2025
#
~Well Information Section
#MNEM.UNIT         VALUE/NAME          DESCRIPTION
#_________         __________          ___________
STRT.M             30.1500             : START DEPTH
STOP.M             2139.6001           : STOP DEPTH
STEP.M             0.1524              : STEP
NULL.              -999.2500           : NULL VALUE
COMP.                                  : COMPANY
WELL.              F03-2               : WELL NAME
FLD.                                   : FIELD
LOC.                                   : LOCATION
PROV.                                  : PROVINCE
CNTY.                                  : COUNTY
STAT.                                  : STATE
CTRY.                                  : COUNTRY
SRVC.                                  : SERVICE COMPANY
DATE.                                  : LOG DATE
UWI.                                   : UNIQUE WELL ID
XCOORD.M           619101.000          : SURFACE X
YCOORD.M           6089491.000         : SURFACE Y
#
~Curve Information Section
#MNEM.UNIT         API CODE            DESCRIPTION
#_________         ________            ___________
DEPT.M                                 : 0 Depth
AI.m/sxg/cc                            : 1 AI from well tie
RHOB.g/cc                              : 2 Density
DT.us/ft                               : 3 Sonic
#
~Parameter Information Section
#MNEM.UNIT           VALUE             DESCRIPTION
#_________         __________          ___________
EKB.M              30.0000             : Elevation Kelly Bushing
EGL.M              -999.25             : Elevation Ground Level
#
~Other Information Section
#
~Ascii Data Section
# ...
   1520.9269     4062.5872        2.0683      156.6349
   1521.0792     4066.9985        2.0718      156.0351
   1521.2317     4071.4133        2.0759      155.3211
   1521.3840     4075.8245        2.0793      154.7150
   1521.5365     4080.2395        2.0806      154.4966
   1521.6888     4084.6509        2.0791      154.7704
   1521.8412     4088.7676        2.0762      155.2639
   1521.9937     4085.3501        2.0758      155.3402
   1522.1460     4081.9358        2.0766      155.1928
   1522.2985     4078.5181        2.0808      154.4623
   1522.4508     4075.1042        2.0786      154.8403
   1522.6033     4071.6868        2.0807      154.4829
   1522.7556     4068.2725        2.0758      155.3294
   1522.9081     4065.3894        2.0766      155.2009
   1523.0604     4062.8857        2.0818      154.3037
   1523.2129     4060.3804        2.0756      155.3723
   1523.3652     4057.8772        2.0767      155.1791
   1523.5177     4055.3716        2.0716      156.0570
   1523.6700     4052.8682        2.0673      156.8013
   1523.8224     4050.8210        2.0731      155.8034
   1523.9749     4051.1792        2.0677      156.7357
   1524.1272     4051.5369        2.0677      156.7389
   1524.2797     4051.8953        2.0722      155.9487
   1524.4320     4052.2532        2.0759      155.3211
   1524.5845     4052.6111        2.0796      154.6647
   1524.7368     4052.9692        2.0814      154.3548
   1524.8893     4058.9473        2.0749      155.4931
   1525.0416     4066.9702        2.0682      156.6492
   1525.1941     4075.0000        2.0641      157.3699
   1525.3464     4083.0234        2.0606      157.9731
   1525.4989     4091.0530        2.0607      157.9464
   1525.6512     4099.0762        2.0662      157.0011
   1525.8036     4101.6929        2.0715      156.0846
   1525.9561     4094.8157        2.0817      154.3246
   1526.1084     4087.9438        2.0876      153.2918
   1526.2609     4081.0671        2.0898      152.9082
   1526.4132     4074.1951        2.0914      152.6409
   1526.5657     4067.3184        2.0918      152.5591
   1526.7180     4060.4465        2.0864      153.5043
   1526.8705     4040.5291        2.0890      153.0461
   1527.0228     4018.2314        2.0891      153.0221
   1527.1753     3995.9160        2.0792      154.7390
   1527.3276     3973.6182        2.0796      154.6772
   1527.4801     3951.3027        2.0776      155.0185
   1527.6324     3929.0054        2.0664      156.9663
   1527.7848     3917.6335        2.0628      157.5847
   1527.9373     3923.6306        2.0592      158.2098
   1528.0896     3929.6228        2.0432      160.9862
   1528.2421     3935.6199        1.9848      171.0993
   1528.3944     3941.6121        1.9676      174.0640
   1528.5469     3947.6091        2.0265      163.8641
   1528.6992     3959.6511        2.0697      156.3976
   1528.8517     3986.0710        2.0732      155.7914
   1529.0040     4012.4695        2.0701      156.3207
   1529.1565     4038.8892        2.0710      156.1623
   1529.3088     4065.2876        2.0740      155.6585
   1529.4613     4091.7078        2.0777      155.0012
   1529.6136     4118.1060        2.0817      154.3067
   1529.7660     4125.4272        2.0844      153.8463
   1529.9185     4129.7227        2.0854      153.6584
   1530.0708     4134.0146        2.0849      153.7468
   1530.2233     4138.3101        2.0828      154.1134
   1530.3756     4142.6021        2.0838      153.9537
   1530.5281     4146.8970        2.0871      153.3717
   1530.6804     4162.5981        2.0853      153.6985
   1530.8329     4198.6997        2.0851      153.7319
   1530.9852     4234.7734        2.0878      153.2537
   1531.1377     4270.8755        2.0858      153.6058
   1531.2900     4306.9492        2.0861      153.5437
   1531.4424     4343.0225        2.0903      152.8250
   1531.5948     4379.1245        2.0931      152.3368
   1531.7472     4385.8784        2.0913      152.6467
   1531.8997     4386.8032        2.0895      152.9639
   1532.0520     4387.7271        2.0893      153.0057
   1532.2045     4388.6519        2.0893      152.9974
   1532.3568     4389.5757        2.0916      152.5889
   1532.5093     4390.5005        2.1163      148.3215
   1532.6616     4381.3936        2.1672      139.5170
   1532.8141     4332.0015        2.2078      132.4868
   1532.9664     4282.6489        2.2183      130.6658
   1533.1189     4233.2563        2.1909      135.4021
   1533.2712     4183.9038        2.1352      145.0440
   1533.4236     4134.5513        2.1296      146.0224
   1533.5760     4085.1592        2.1231      147.1495
   1533.7284     4040.6970        2.1085      149.6778
   1533.8809     4045.3616        2.0090      166.9126
   1534.0332     4050.0225        2.0385      161.7965
   1534.1857     4054.6868        2.0676      156.7570
   1534.3380     4059.3477        1.9551      176.2361
   1534.4905     4064.0120        1.9461      177.7867
   1534.6428     4069.2266        2.0995      151.2376
   1534.7953     4095.5166        2.0988      151.3541
   1534.9476     4121.7852        2.0993      151.2529
   1535.1001     4148.0747        2.0946      152.0783
   1535.2524     4174.3433        2.0829      154.1154
   1535.4048     4200.6118        2.0909      152.7298
   1535.5573     4226.9019        2.0856      153.6285
   1535.7096     4237.0757        2.0912      152.6621
   1535.8621     4229.0610        2.1069      149.9376
   1536.0144     4221.0532        2.1327      145.4865
   1536.1669     4213.0391        2.1346      145.1534
   1536.3192     4205.0303        2.1089      149.6109
   1536.4717     4197.0161        2.1034      150.5589
   1536.6240     4189.0078        2.1079      149.7770
   1536.7765     4182.9736        2.0921      152.5012
   1536.9288     4177.6021        2.0862      153.5277
   1537.0813     4172.2271        2.0829      154.1037
   1537.2336     4166.8560        2.0940      152.1922
   1537.3860     4161.4849        2.0962      151.7930
   1537.5385     4156.1099        2.0860      153.5648
   1537.6908     4153.8799        2.0859      153.5854
   1537.8433     4163.1445        2.0855      153.6618
   1537.9956     4172.4014        2.0858      153.6042
   1538.1481     4181.6665        2.0877      153.2781
   1538.3004     4190.9233        2.0796      154.6705
   1538.4529     4200.1880        2.0768      155.1664
   1538.6052     4209.4453        2.0835      153.9952
   1538.7577     4214.2832        2.0871      153.3776
   1538.9100     4217.4624        2.0948      152.0347
   1539.0625     4220.6445        2.1034      150.5566
   1539.2148     4223.8237        2.1045      150.3647
   1539.3672     4227.0029        2.1029      150.6376
   1539.5197     4230.1851        2.1064      150.0322
   1539.6720     4232.7534        2.1067      149.9827
   1539.8245     4229.7817        2.1046      150.3605
   1539.9768     4226.8130        2.1076      149.8317
   1540.1293     4223.8418        2.1005      151.0577
   1540.2816     4220.8726        2.0958      151.8729
   1540.4341     4217.9014        2.0947      152.0650
   1540.5864     4214.9321        2.0972      151.6348
   1540.7389     4220.7603        2.1003      151.1049
   1540.8912     4236.0029        2.0993      151.2713
   1541.0437     4251.2573        2.0861      153.5576
   1541.1960     4266.4995        2.0848      153.7820
   1541.3484     4281.7422        2.0872      153.3707
   1541.5009     4296.9966        2.0950      152.0165
   1541.6532     4312.2388        2.0969      151.6710
   1541.8057     4329.6128        2.1013      150.9128
   1541.9580     4347.1479        2.1026      150.7030
   1542.1105     4364.6968        2.1135      148.8176
   1542.2628     4382.2310        2.1122      149.0317
   1542.4153     4399.7798        2.1121      149.0548
   1542.5676     4417.3145        2.1272      146.4341
   1542.7201     4427.5181        2.1334      145.3583
   1542.8724     4408.8198        2.1383      144.5113
   1543.0249     4390.1069        2.1340      145.2682
