~Version Information Section
VERS.              2.0  : CWLS LOG ASCII STANDARD - VERSION 2.0
WRAP.              NO   : ONE LINE PER DEPTH STEP
CREA.              22-jan-2025
#
~Well Information Section
#MNEM.UNIT         VALUE/NAME          DESCRIPTION
#_________         __________          ___________
STRT.M             30.1500             : START DEPTH
STOP.M             2139.6001           : STOP DEPTH
STEP.M             0.1524              : STEP
NULL.              -999.2500           : NULL VALUE
COMP.                                  : COMPANY
WELL.              F03-2               : WELL NAME
FLD.                                   : FIELD
LOC.                                   : LOCATION
PROV.                                  : PROVINCE
CNTY.                                  : COUNTY
STAT.                                  : STATE
CTRY.                                  : COUNTRY
SRVC.                                  : SERVICE COMPANY
DATE.                                  : LOG DATE
UWI.                                   : UNIQUE WELL ID
XCOORD.M           619101.000          : SURFACE X
YCOORD.M           6089491.000         : SURFACE Y
#
~Curve Information Section
#MNEM.UNIT         API CODE            DESCRIPTION
#_________         ________            ___________
DEPT.M                                 : 0 Depth
AI.m/sxg/cc                            : 1 AI from well tie
RHOB.g/cc                              : 2 Density
DT.us/ft                               : 3 Sonic
#
~Parameter Information Section
#MNEM.UNIT           VALUE             DESCRIPTION
#_________         __________          ___________
EKB.M              30.0000             : Elevation Kelly Bushing
EGL.M              -999.25             : Elevation Ground Level
#
~Other Information Section
#
~Ascii Data Section
# ...
    808.9141     4839.6997        2.1927      135.0971
    809.0664     4838.3281        2.1889      135.7639
    809.2188     4834.6084        2.1879      135.9337
    809.3712     4829.8394        2.1864      136.1859
    809.5236     4825.0708        2.1807      137.1603
    809.6760     4820.3022        2.1716      138.7414
    809.8284     4815.5342        2.1611      140.5559
    809.9808     4810.7651        2.1618      140.4457
    810.1332     4805.9966        2.1567      141.3205
    810.2856     4797.7793        2.1680      139.3608
    810.4380     4785.9282        2.1782      137.6055
    810.5905     4774.0767        2.1834      136.6997
    810.7429     4762.2251        2.1912      135.3564
    810.8953     4750.3745        2.1871      136.0654
    811.0476     4738.5283        2.1770      137.8065
    811.2000     4726.6772        2.1823      136.8936
    811.3524     4716.2700        2.1769      137.8402
    811.5048     4712.0249        2.1810      137.1084
    811.6572     4707.7803        2.1821      136.9350
    811.8096     4703.5347        2.1746      138.2330
    811.9620     4699.2900        2.1642      140.0337
    812.1144     4695.0449        2.1487      142.7062
    812.2668     4690.7998        2.1349      145.0991
    812.4193     4687.0786        2.1356      144.9760
    812.5717     4689.6069        2.1417      143.9315
    812.7241     4692.1357        2.1533      141.9139
    812.8764     4694.6636        2.1687      139.2466
    813.0288     4697.1924        2.1723      138.6263
    813.1812     4699.7217        2.1749      138.1803
    813.3336     4702.2505        2.1834      136.6989
    813.4860     4704.7793        2.1818      136.9822
    813.6384     4696.5825        2.1738      138.3679
    813.7908     4687.2402        2.1642      140.0415
    813.9432     4677.8975        2.1499      142.5069
    814.0956     4668.5557        2.1402      144.1849
    814.2480     4659.2129        2.1410      144.0428
    814.4005     4649.8701        2.1485      142.7380
    814.5529     4640.5283        2.1593      140.8663
    814.7053     4644.8745        2.1678      139.4050
    814.8576     4651.6133        2.1694      139.1306
    815.0100     4658.3555        2.1626      140.2982
    815.1624     4665.0977        2.1549      141.6334
    815.3148     4671.8394        2.1566      141.3462
    815.4672     4678.5820        2.1583      141.0489
    815.6196     4685.3242        2.1555      141.5338
    815.7720     4686.0752        2.1568      141.3141
    815.9244     4684.7354        2.1538      141.8297
    816.0768     4683.3960        2.1511      142.2913
    816.2292     4682.0562        2.1600      140.7633
    816.3817     4680.7163        2.1668      139.5760
    816.5341     4679.3765        2.1650      139.8860
    816.6865     4678.0371        2.1643      140.0134
    816.8388     4660.8491        2.1621      140.3959
    816.9912     4634.7295        2.1636      140.1270
    817.1436     4608.6094        2.1765      137.9051
    817.2960     4582.4893        2.1858      136.2922
    817.4484     4556.3691        2.1801      137.2838
    817.6008     4530.2490        2.1551      141.6025
    817.7532     4504.1294        2.1563      141.3934
    817.9056     4488.4380        2.1371      144.7221
    818.0580     4484.5542        2.1329      145.4405
    818.2104     4480.6714        2.1344      145.2001
    818.3629     4476.7886        2.1331      145.4157
    818.5153     4472.9058        2.1288      146.1598
    818.6677     4469.0229        2.0805      154.5140
    818.8200     4465.1411        2.0719      156.0090
    818.9724     4480.9946        2.0909      152.7113
    819.1248     4503.4077        2.1470      143.0038
    819.2772     4525.8218        2.1644      140.0003
    819.4296     4548.2358        2.1634      140.1763
    819.5820     4570.6494        2.1512      142.2873
    819.7344     4593.0640        2.1394      144.3195
    819.8868     4615.4775        2.1376      144.6423
    820.0392     4628.2197        2.1417      143.9150
    820.1917     4638.2607        2.1483      142.7827
    820.3441     4648.3027        2.1420      143.8684
    820.4965     4658.3447        2.1366      144.8212
    820.6488     4668.3818        2.1404      144.1514
    820.8012     4678.4233        2.1450      143.3447
    820.9536     4688.4648        2.1609      140.5997
    821.1060     4685.5615        2.1766      137.8911
    821.2584     4679.3999        2.1745      138.2426
    821.4108     4673.2383        2.1811      137.1007
    821.5632     4667.0767        2.1736      138.4010
    821.7156     4660.9155        2.1726      138.5799
    821.8680     4654.7539        2.1766      137.8888
    822.0204     4648.5933        2.1699      139.0346
    822.1729     4641.1611        2.1645      139.9716
    822.3253     4632.7725        2.1598      140.7825
    822.4777     4624.3833        2.1472      142.9793
    822.6300     4615.9971        2.1375      144.6594
    822.7824     4607.6084        2.1401      144.1909
    822.9348     4599.2192        2.1391      144.3745
    823.0872     4590.8306        2.1433      143.6391
    823.2396     4586.2373        2.1500      142.4965
    823.3920     4584.3848        2.1497      142.5437
    823.5444     4582.5317        2.1609      140.6130
    823.6968     4580.6797        2.1787      137.5249
    823.8492     4578.8271        2.1872      136.0599
    824.0016     4576.9746        2.1870      136.0843
    824.1541     4575.1216        2.1685      139.2905
    824.3065     4576.9038        2.1285      146.2162
    824.4589     4584.0264        2.1048      150.3118
    824.6112     4591.1460        2.1068      149.9694
    824.7636     4598.2690        2.1161      148.3545
    824.9160     4605.3916        2.1189      147.8699
    825.0684     4612.5142        2.1152      148.5172
    825.2208     4619.6372        2.1280      146.2926
    825.3732     4620.3062        2.1520      142.1418
    825.5256     4617.7622        2.1707      138.8978
    825.6780     4615.2178        2.1809      137.1357
    825.8304     4612.6738        2.1833      136.7188
    825.9828     4610.1299        2.1783      137.5761
    826.1353     4607.5854        2.1782      137.5971
    826.2877     4605.0420        2.1737      138.3797
    826.4401     4603.5024        2.1497      142.5281
    826.5924     4603.2510        2.1230      147.1650
    826.7448     4603.0000        2.1397      144.2679
    826.8972     4602.7490        2.1510      142.3142
    827.0496     4602.4976        2.1447      143.4106
    827.2020     4602.2461        2.1299      145.9658
    827.3544     4601.9956        2.1326      145.4965
    827.5068     4602.2510        2.1359      144.9378
    827.6592     4602.9580        2.1339      145.2701
    827.8116     4603.6660        2.1603      140.7030
    827.9641     4604.3730        2.1787      137.5245
    828.1165     4605.0801        2.1802      137.2670
    828.2689     4605.7871        2.1738      138.3650
    828.4213     4606.4946        2.1522      142.1056
    828.5736     4598.1372        2.1496      142.5618
    828.7260     4577.4922        2.1598      140.7954
    828.8784     4556.8467        2.1534      141.9002
    829.0308     4536.2012        2.1200      147.6788
    829.1832     4515.5557        2.1516      142.2082
    829.3356     4494.9102        2.1471      142.9916
    829.4880     4474.2646        2.1381      144.5374
    829.6404     4454.5054        2.1273      146.4151
    829.7928     4435.8018        2.1316      145.6746
    829.9453     4417.0981        2.1467      143.0602
    830.0977     4398.3940        2.1553      141.5748
    830.2501     4379.6909        2.1543      141.7516
    830.4024     4360.9946        2.1573      141.2245
    830.5548     4342.2910        2.1147      148.5945
    830.7072     4331.6240        2.0858      153.6007
    830.8596     4327.9067        2.1016      150.8746
    831.0120     4324.1904        2.1243      146.9352
