~Version Information Section
VERS.              2.0  : CWLS LOG ASCII STANDARD - VERSION 2.0
WRAP.              NO   : ONE LINE PER DEPTH STEP
CREA.              22-jan-2025
#
~Well Information Section
#MNEM.UNIT         VALUE/NAME          DESCRIPTION
#_________         __________          ___________
STRT.M             30.1500             : START DEPTH
STOP.M             2139.6001           : STOP DEPTH
STEP.M             0.1524              : STEP
NULL.              -999.2500           : NULL VALUE
COMP.                                  : COMPANY
WELL.              F03-2               : WELL NAME
FLD.                                   : FIELD
LOC.                                   : LOCATION
PROV.                                  : PROVINCE
CNTY.                                  : COUNTY
STAT.                                  : STATE
CTRY.                                  : COUNTRY
SRVC.                                  : SERVICE COMPANY
DATE.                                  : LOG DATE
UWI.                                   : UNIQUE WELL ID
XCOORD.M           619101.000          : SURFACE X
YCOORD.M           6089491.000         : SURFACE Y
#
~Curve Information Section
#MNEM.UNIT         API CODE            DESCRIPTION
#_________         ________            ___________
DEPT.M                                 : 0 Depth
AI.m/sxg/cc                            : 1 AI from well tie
RHOB.g/cc                              : 2 Density
DT.us/ft                               : 3 Sonic
#
~Parameter Information Section
#MNEM.UNIT           VALUE             DESCRIPTION
#_________         __________          ___________
EKB.M              30.0000             : Elevation Kelly Bushing
EGL.M              -999.25             : Elevation Ground Level
#
~Other Information Section
#
~Ascii Data Section
# ...
   1409.6748     4279.8462        2.1087      149.6386
   1409.8273     4286.1465        2.1128      148.9409
   1409.9796     4292.4414        2.1125      148.9855
   1410.1321     4298.7417        2.1020      150.7936
   1410.2844     4303.4580        2.1085      149.6661
   1410.4369     4304.5415        2.1062      150.0747
   1410.5892     4305.6240        2.1063      150.0440
   1410.7417     4306.7075        2.1148      148.5820
   1410.8940     4307.7900        2.1139      148.7344
   1411.0464     4308.8726        2.1077      149.8049
   1411.1989     4309.9561        2.1045      150.3597
   1411.3512     4305.6558        2.1090      149.5864
   1411.5037     4298.0078        2.1140      148.7279
   1411.6560     4290.3657        2.1154      148.4868
   1411.8085     4282.7178        2.1159      148.3922
   1411.9608     4275.0757        2.1168      148.2334
   1412.1133     4267.4277        2.1179      148.0495
   1412.2656     4259.7861        2.1159      148.3997
   1412.4181     4251.9658        2.1072      149.8855
   1412.5704     4244.1294        2.0990      151.3158
   1412.7229     4236.2866        2.0978      151.5253
   1412.8752     4228.4502        2.1027      150.6737
   1413.0276     4220.6138        2.1041      150.4403
   1413.1801     4212.7710        2.0969      151.6833
   1413.3324     4207.5005        2.0954      151.9371
   1413.4849     4209.3989        2.0916      152.5957
   1413.6372     4211.2949        2.0898      152.9113
   1413.7897     4213.1934        2.0935      152.2766
   1413.9420     4215.0898        2.0937      152.2441
   1414.0945     4216.9873        2.0939      152.1959
   1414.2468     4218.8838        2.0934      152.2819
   1414.3993     4220.5049        2.0937      152.2302
   1414.5516     4222.0063        2.0979      151.5003
   1414.7041     4223.5103        2.1022      150.7616
   1414.8564     4225.0122        2.1054      150.2150
   1415.0088     4226.5146        2.1059      150.1159
   1415.1613     4228.0181        2.1014      150.8980
   1415.3136     4229.7134        2.0959      151.8571
   1415.4661     4233.5762        2.0958      151.8686
   1415.6184     4237.4365        2.0962      151.8076
   1415.7709     4241.2993        2.0925      152.4489
   1415.9232     4245.1597        2.0893      152.9904
   1416.0757     4249.0225        2.0894      152.9799
   1416.2280     4252.8828        2.0930      152.3535
   1416.3805     4254.7808        2.1010      150.9756
   1416.5328     4254.8628        2.1099      149.4243
   1416.6852     4254.9448        2.1118      149.1054
   1416.8376     4255.0273        2.1081      149.7471
   1416.9900     4255.1089        2.1068      149.9624
   1417.1425     4255.1909        2.1099      149.4239
   1417.2948     4255.2729        2.1132      148.8589
   1417.4473     4215.5850        2.1060      150.1046
   1417.5996     4167.5732        2.1021      150.7836
   1417.7521     4119.5229        2.1023      150.7465
   1417.9044     4071.5107        2.0954      151.9524
   1418.0569     4023.4604        2.0955      151.9218
   1418.2092     3975.4485        2.1022      150.7724
   1418.3617     3938.5586        2.1021      150.7829
   1418.5140     3944.5334        2.0993      151.2652
   1418.6664     3950.5078        2.0992      151.2782
   1418.8188     3956.4873        2.0826      154.1586
   1418.9712     3962.4617        2.0038      167.8099
   1419.1237     3968.4414        1.9720      173.3032
   1419.2760     3974.5234        1.9734      173.0717
   1419.4285     3991.7007        1.9831      171.3786
   1419.5808     4008.8645        2.0347      162.4524
   1419.7333     4026.0422        2.0956      151.9031
   1419.8856     4043.2056        2.1139      148.7296
   1420.0381     4060.3831        2.1047      150.3167
   1420.1904     4077.5466        2.1018      150.8201
   1420.3429     4076.4636        2.1026      150.6915
   1420.4952     4062.5374        2.0929      152.3692
   1420.6476     4048.6108        2.1022      150.7762
   1420.8000     4034.6733        2.0818      154.2952
   1420.9524     4020.7468        2.0842      153.8887
   1421.1049     4006.8091        2.0801      154.5833
   1421.2572     3994.0901        2.0938      152.2207
   1421.4097     4010.9333        2.0703      156.2780
   1421.5620     4027.7629        1.9887      170.4081
   1421.7145     4044.6060        1.9665      174.2595
   1421.8668     4061.4355        1.9865      170.7891
   1422.0193     4078.2786        2.0609      157.9228
   1422.1716     4095.1084        2.0974      151.5952
   1422.3241     4109.0815        2.1026      150.6984
   1422.4764     4122.8018        2.0973      151.6191
   1422.6288     4136.5229        2.1009      150.9857
   1422.7812     4150.2539        2.1037      150.4978
   1422.9336     4163.9746        2.1011      150.9454
   1423.0861     4177.7065        2.0992      151.2808
   1423.2384     4185.4121        2.0959      151.8463
   1423.3909     4178.9507        2.0978      151.5182
   1423.5432     4172.4951        2.0992      151.2891
   1423.6957     4166.0342        2.0947      152.0601
   1423.8480     4159.5781        2.0889      153.0689
   1424.0005     4153.1167        2.0835      154.0112
   1424.1528     4146.6606        2.0817      154.3172
   1424.3053     4154.5352        2.0839      153.9257
   1424.4576     4167.0923        2.0868      153.4261
   1424.6100     4179.6494        2.0863      153.5210
   1424.7625     4192.2163        2.0815      154.3540
   1424.9148     4204.7725        2.0783      154.9107
   1425.0673     4217.3398        2.0807      154.4944
   1425.2196     4231.0283        2.0884      153.1607
   1425.3721     4247.9575        2.0937      152.2295
   1425.5244     4264.8745        2.0979      151.5006
   1425.6769     4281.8042        2.1060      150.1081
   1425.8292     4298.7197        2.1111      149.2311
   1425.9817     4315.6494        2.1168      148.2488
   1426.1340     4332.5654        2.1201      147.6704
   1426.2865     4337.0537        2.1173      148.1477
   1426.4388     4332.7866        2.1070      149.9275
   1426.5912     4328.5200        2.0934      152.2905
   1426.7437     4324.2495        2.0919      152.5564
   1426.8960     4319.9829        2.1101      149.3910
   1427.0485     4315.7124        2.1302      145.9147
   1427.2008     4311.4453        2.1384      144.4994
   1427.3533     4300.2188        2.1227      147.2133
   1427.5056     4287.9653        2.1167      148.2607
   1427.6581     4275.7026        2.1188      147.9010
   1427.8104     4263.4492        2.0951      151.9963
   1427.9629     4251.1860        2.0928      152.3931
   1428.1152     4238.9326        2.1063      150.0577
   1428.2677     4231.4155        2.1079      149.7805
   1428.4200     4243.4385        2.1033      150.5810
   1428.5724     4255.4609        2.0992      151.2805
   1428.7249     4267.4941        2.0965      151.7490
   1428.8772     4279.5166        2.0969      151.6791
   1429.0297     4291.5493        2.0978      151.5335
   1429.1820     4303.5723        2.0977      151.5350
   1429.3345     4329.3394        2.0992      151.2770
   1429.4868     4364.8750        2.1005      151.0557
   1429.6393     4400.4395        2.1007      151.0183
   1429.7916     4435.9746        2.1007      151.0157
   1429.9441     4471.5391        2.1043      150.3923
   1430.0964     4507.0752        2.1178      148.0564
   1430.2489     4542.6387        2.1291      146.1037
   1430.4012     4562.4502        2.1347      145.1416
   1430.5536     4580.6953        2.1372      144.6974
   1430.7061     4598.9556        2.1314      145.7062
   1430.8584     4617.2007        2.1289      146.1524
   1431.0109     4635.4609        2.1466      143.0817
   1431.1632     4653.7065        2.1633      140.1843
   1431.3157     4671.9668        2.1766      137.8844
   1431.4680     4646.2129        2.1823      136.8945
   1431.6205     4616.5610        2.1736      138.3903
   1431.7728     4586.9336        2.1698      139.0616
