~Version Information Section
VERS.              2.0  : CWLS LOG ASCII STANDARD - VERSION 2.0
WRAP.              NO   : ONE LINE PER DEPTH STEP
CREA.              21-jan-2025
#
~Well Information Section
#MNEM.UNIT         VALUE/NAME          DESCRIPTION
#_________         __________          ___________
STRT.M             305.1000            : START DEPTH
STOP.M             1424.1700           : STOP DEPTH
STEP.M             0.1524              : STEP
NULL.              -999.2500           : NULL VALUE
COMP.                                  : COMPANY
WELL.              F02-1               : WELL NAME
FLD.                                   : FIELD
LOC.                                   : LOCATION
PROV.                                  : PROVINCE
CNTY.                                  : COUNTY
STAT.                                  : STATE
CTRY.                                  : COUNTRY
SRVC.                                  : SERVICE COMPANY
DATE.                                  : LOG DATE
UWI.                                   : UNIQUE WELL ID
XCOORD.M           606554.000          : SURFACE X
YCOORD.M           6080126.000         : SURFACE Y
#
~Curve Information Section
#MNEM.UNIT         API CODE            DESCRIPTION
#_________         ________            ___________
DEPT.M                                 : 0 Depth
AI.m/sxg/cc                            : 1 AI from well tie
RHOB.g/cc                              : 2 Density
DT.us/ft                               : 3 Sonic
#
~Parameter Information Section
#MNEM.UNIT           VALUE             DESCRIPTION
#_________         __________          ___________
EKB.M              30.0000             : Elevation Kelly Bushing
EGL.M              -999.25             : Elevation Ground Level
#
~Other Information Section
#
~Ascii Data Section
# ...
    527.6040     3810.0840        2.0383      163.0640
    527.7564     3810.0869        2.0383      163.0639
    527.9088     3810.0901        2.0383      163.0638
    528.0612     3810.0930        2.0383      163.0636
    528.2136     3810.0957        2.0383      163.0635
    528.3660     3810.0989        2.0383      163.0634
    528.5184     3810.1018        2.0383      163.0632
    528.6708     3810.1050        2.0383      163.0631
    528.8232     3810.1079        2.0383      163.0630
    528.9756     3810.1106        2.0383      163.0629
    529.1280     3810.1138        2.0383      163.0627
    529.2804     3810.1167        2.0383      163.0626
    529.4328     3810.1204        2.0383      163.0625
    529.5852     3810.1248        2.0383      163.0623
    529.7376     3810.1289        2.0383      163.0622
    529.8900     3810.1338        2.0383      163.0621
    530.0424     3810.1382        2.0383      163.0620
    530.1948     3810.1423        2.0383      163.0618
    530.3472     3810.1470        2.0383      163.0617
    530.4996     3810.1514        2.0383      163.0616
    530.6520     3810.1558        2.0383      163.0614
    530.8044     3810.1606        2.0383      163.0613
    530.9568     3810.1653        2.0383      163.0612
    531.1092     3810.1697        2.0383      163.0611
    531.2616     3810.1738        2.0383      163.0609
    531.4140     3810.1770        2.0383      163.0608
    531.5664     3810.1799        2.0383      163.0607
    531.7188     3810.1831        2.0383      163.0605
    531.8712     3810.1858        2.0383      163.0604
    532.0236     3810.1890        2.0383      163.0603
    532.1760     3810.1917        2.0383      163.0602
    532.3284     3810.1948        2.0383      163.0600
    532.4808     3810.1978        2.0383      163.0599
    532.6332     3810.2009        2.0383      163.0598
    532.7856     3810.2039        2.0383      163.0597
    532.9380     3810.2068        2.0383      163.0595
    533.0904     3810.2100        2.0383      163.0594
    533.2428     3810.2144        2.0383      163.0593
    533.3952     3810.2192        2.0383      163.0591
    533.5476     3810.2239        2.0383      163.0590
    533.7000     3810.2283        2.0383      163.0589
    533.8524     3810.2329        2.0383      163.0588
    534.0048     3810.2378        2.0383      163.0586
    534.1572     3810.2422        2.0383      163.0585
    534.3096     3810.2468        2.0383      163.0584
    534.4620     3810.2512        2.0383      163.0583
    534.6144     3810.2559        2.0384      163.0581
    534.7668     3810.2603        2.0384      163.0580
    534.9192     3810.2649        2.0384      163.0579
    535.0716     3810.2683        2.0384      163.0577
    535.2240     3810.2715        2.0384      163.0576
    535.3764     3810.2744        2.0384      163.0575
    535.5288     3810.2776        2.0384      163.0574
    535.6812     3810.2803        2.0384      163.0572
    535.8336     3810.2834        2.0384      163.0571
    535.9860     3810.2864        2.0384      163.0570
    536.1384     3810.2896        2.0384      163.0568
    536.2908     3810.2927        2.0384      163.0567
    536.4432     3810.2957        2.0384      163.0566
    536.5956     3810.2986        2.0384      163.0565
    536.7480     3810.3018        2.0384      163.0563
    536.9004     3810.3052        2.0384      163.0562
    537.0528     3810.3096        2.0384      163.0561
    537.2052     3810.3132        2.0384      163.0559
    537.3576     3810.3174        2.0384      163.0558
    537.5100     3810.3218        2.0384      163.0557
    537.6624     3810.3259        2.0384      163.0556
    537.8148     3810.3301        2.0384      163.0554
    537.9672     3810.3342        2.0384      163.0553
    538.1196     3810.3389        2.0384      163.0552
    538.2720     3810.3430        2.0384      163.0550
    538.4244     3810.3472        2.0384      163.0549
    538.5768     3810.3518        2.0384      163.0548
    538.7292     3810.3562        2.0384      163.0547
    538.8816     3810.3596        2.0384      163.0545
    539.0340     3810.3633        2.0384      163.0544
    539.1864     3810.3667        2.0384      163.0543
    539.3388     3810.3699        2.0384      163.0541
    539.4912     3810.3733        2.0384      163.0540
    539.6436     3810.3770        2.0384      163.0539
    539.7960     3810.3801        2.0384      163.0538
    539.9484     3810.3831        2.0384      163.0536
    540.1008     3810.3862        2.0384      163.0535
    540.2532     3810.3887        2.0384      163.0534
    540.4056     3810.3918        2.0384      163.0533
    540.5580     3810.3948        2.0384      163.0531
    540.7104     3810.3984        2.0384      163.0530
    540.8628     3810.4026        2.0384      163.0529
    541.0152     3810.4065        2.0384      163.0527
    541.1676     3810.4104        2.0384      163.0526
    541.3200     3810.4146        2.0384      163.0525
    541.4724     3810.4185        2.0384      163.0524
    541.6248     3810.4229        2.0384      163.0522
    541.7772     3810.4275        2.0384      163.0521
    541.9296     3810.4319        2.0384      163.0520
    542.0820     3810.4363        2.0384      163.0518
    542.2344     3810.4409        2.0384      163.0517
    542.3868     3810.4453        2.0384      163.0516
    542.5392     3810.4495        2.0384      163.0515
    542.6916     3810.4531        2.0384      163.0513
    542.8440     3810.4568        2.0384      163.0512
    542.9964     3810.4600        2.0384      163.0511
    543.1488     3810.4636        2.0384      163.0509
    543.3012     3810.4673        2.0384      163.0508
    543.4536     3810.4705        2.0384      163.0507
    543.6060     3810.4734        2.0384      163.0506
    543.7584     3810.4768        2.0384      163.0504
    543.9108     3810.4797        2.0384      163.0503
    544.0632     3810.4827        2.0384      163.0502
    544.2156     3810.4856        2.0384      163.0500
    544.3680     3810.4890        2.0384      163.0499
    544.5204     3810.4929        2.0384      163.0498
    544.6728     3810.4968        2.0384      163.0497
    544.8252     3810.5010        2.0384      163.0495
    544.9776     3810.5051        2.0384      163.0494
    545.1300     3810.5093        2.0384      163.0493
    545.2824     3810.5134        2.0384      163.0491
    545.4348     3810.5176        2.0384      163.0490
    545.5872     3810.5220        2.0384      163.0489
    545.7396     3810.5264        2.0384      163.0488
    545.8920     3810.5308        2.0384      163.0486
    546.0444     3810.5352        2.0384      163.0485
    546.1968     3810.5398        2.0384      163.0484
    546.3492     3810.5432        2.0384      163.0482
    546.5016     3810.5466        2.0384      163.0481
    546.6540     3810.5503        2.0384      163.0480
    546.8064     3810.5540        2.0384      163.0479
    546.9588     3810.5576        2.0384      163.0477
    547.1112     3810.5610        2.0384      163.0476
    547.2636     3810.5637        2.0384      163.0475
    547.4160     3810.5669        2.0384      163.0473
    547.5684     3810.5696        2.0384      163.0472
    547.7208     3810.5728        2.0384      163.0471
    547.8732     3810.5759        2.0384      163.0470
    548.0256     3810.5786        2.0384      163.0468
    548.1780     3810.5825        2.0384      163.0467
    548.3304     3810.5867        2.0384      163.0466
    548.4828     3810.5906        2.0384      163.0464
    548.6352     3810.5947        2.0384      163.0463
    548.7876     3810.5989        2.0384      163.0462
    548.9400     3810.6030        2.0384      163.0461
    549.0924     3810.6077        2.0384      163.0459
    549.2448     3810.6123        2.0384      163.0458
    549.3972     3810.6167        2.0384      163.0457
    549.5496     3810.6211        2.0384      163.0455
    549.7020     3810.6257        2.0384      163.0454
