~Version Information Section
VERS.              2.0  : CWLS LOG ASCII STANDARD - VERSION 2.0
WRAP.              NO   : ONE LINE PER DEPTH STEP
CREA.              21-jan-2025
#
~Well Information Section
#MNEM.UNIT         VALUE/NAME          DESCRIPTION
#_________         __________          ___________
STRT.M             305.1000            : START DEPTH
STOP.M             1424.1700           : STOP DEPTH
STEP.M             0.1524              : STEP
NULL.              -999.2500           : NULL VALUE
COMP.                                  : COMPANY
WELL.              F02-1               : WELL NAME
FLD.                                   : FIELD
LOC.                                   : LOCATION
PROV.                                  : PROVINCE
CNTY.                                  : COUNTY
STAT.                                  : STATE
CTRY.                                  : COUNTRY
SRVC.                                  : SERVICE COMPANY
DATE.                                  : LOG DATE
UWI.                                   : UNIQUE WELL ID
XCOORD.M           606554.000          : SURFACE X
YCOORD.M           6080126.000         : SURFACE Y
#
~Curve Information Section
#MNEM.UNIT         API CODE            DESCRIPTION
#_________         ________            ___________
DEPT.M                                 : 0 Depth
AI.m/sxg/cc                            : 1 AI from well tie
RHOB.g/cc                              : 2 Density
DT.us/ft                               : 3 Sonic
#
~Parameter Information Section
#MNEM.UNIT           VALUE             DESCRIPTION
#_________         __________          ___________
EKB.M              30.0000             : Elevation Kelly Bushing
EGL.M              -999.25             : Elevation Ground Level
#
~Other Information Section
#
~Ascii Data Section
# ...
    594.3552     3811.7200        2.0385      163.0078
    594.5076     3811.7246        2.0385      163.0077
    594.6600     3811.7292        2.0385      163.0076
    594.8124     3811.7339        2.0385      163.0075
    594.9648     3811.7388        2.0385      163.0073
    595.1172     3811.7429        2.0385      163.0072
    595.2697     3811.7476        2.0385      163.0071
    595.4220     3811.7520        2.0385      163.0069
    595.5744     3811.7563        2.0385      163.0068
    595.7268     3811.7607        2.0385      163.0067
    595.8792     3811.7642        2.0385      163.0066
    596.0316     3811.7673        2.0385      163.0064
    596.1840     3811.7703        2.0385      163.0063
    596.3364     3811.7734        2.0385      163.0062
    596.4888     3811.7761        2.0385      163.0061
    596.6412     3811.7793        2.0385      163.0059
    596.7936     3811.7825        2.0385      163.0058
    596.9460     3811.7854        2.0385      163.0057
    597.0984     3811.7883        2.0385      163.0055
    597.2509     3811.7915        2.0385      163.0054
    597.4032     3811.7942        2.0385      163.0053
    597.5556     3811.7974        2.0385      163.0051
    597.7080     3811.8008        2.0385      163.0050
    597.8604     3811.8044        2.0385      163.0049
    598.0128     3811.8086        2.0385      163.0048
    598.1652     3811.8123        2.0385      163.0046
    598.3176     3811.8162        2.0385      163.0045
    598.4700     3811.8203        2.0385      163.0044
    598.6224     3811.8245        2.0385      163.0043
    598.7748     3811.8291        2.0385      163.0041
    598.9272     3811.8340        2.0385      163.0040
    599.0796     3811.8381        2.0385      163.0039
    599.2320     3811.8428        2.0385      163.0037
    599.3844     3811.8474        2.0385      163.0036
    599.5368     3811.8521        2.0385      163.0035
    599.6892     3811.8555        2.0385      163.0034
    599.8416     3811.8584        2.0385      163.0032
    599.9940     3811.8621        2.0385      163.0031
    600.1464     3811.8655        2.0385      163.0030
    600.2988     3811.8689        2.0385      163.0028
    600.4512     3811.8723        2.0385      163.0027
    600.6036     3811.8755        2.0385      163.0026
    600.7560     3811.8784        2.0385      163.0025
    600.9084     3811.8813        2.0385      163.0023
    601.0608     3811.8845        2.0385      163.0022
    601.2132     3811.8877        2.0385      163.0021
    601.3656     3811.8909        2.0385      163.0019
    601.5180     3811.8948        2.0385      163.0018
    601.6704     3811.8987        2.0385      163.0017
    601.8228     3811.9026        2.0385      163.0016
    601.9752     3811.9065        2.0385      163.0014
    602.1276     3811.9104        2.0385      163.0013
    602.2800     3811.9143        2.0385      163.0012
    602.4324     3811.9187        2.0385      163.0011
    602.5848     3811.9233        2.0385      163.0009
    602.7372     3811.9277        2.0385      163.0008
    602.8896     3811.9319        2.0385      163.0007
    603.0420     3811.9363        2.0385      163.0005
    603.1944     3811.9407        2.0385      163.0004
    603.3468     3811.9446        2.0385      163.0003
    603.4992     3811.9482        2.0385      163.0001
    603.6516     3811.9519        2.0385      163.0000
    603.8040     3811.9556        2.0385      162.9999
    603.9564     3811.9590        2.0385      162.9998
    604.1088     3811.9624        2.0385      162.9996
    604.2612     3811.9661        2.0385      162.9995
    604.4136     3811.9690        2.0385      162.9994
    604.5660     3811.9719        2.0385      162.9993
    604.7184     3811.9749        2.0385      162.9991
    604.8708     3811.9783        2.0385      162.9990
    605.0232     3811.9812        2.0385      162.9989
    605.1756     3811.9844        2.0385      162.9987
    605.3280     3811.9883        2.0385      162.9986
    605.4804     3811.9917        2.0385      162.9985
    605.6328     3811.9958        2.0385      162.9984
    605.7852     3811.9995        2.0385      162.9982
    605.9376     3812.0032        2.0385      162.9981
    606.0900     3812.0071        2.0385      162.9980
    606.2424     3812.0115        2.0385      162.9978
    606.3948     3812.0159        2.0385      162.9977
    606.5472     3812.0205        2.0385      162.9976
    606.6996     3812.0251        2.0385      162.9975
    606.8521     3812.0295        2.0385      162.9973
    607.0044     3812.0339        2.0386      162.9972
    607.1568     3812.0378        2.0386      162.9971
    607.3092     3812.0415        2.0386      162.9969
    607.4616     3812.0452        2.0386      162.9968
    607.6140     3812.0488        2.0386      162.9967
    607.7664     3812.0525        2.0386      162.9966
    607.9188     3812.0564        2.0386      162.9964
    608.0712     3812.0593        2.0386      162.9963
    608.2236     3812.0623        2.0386      162.9962
    608.3760     3812.0652        2.0386      162.9960
    608.5284     3812.0684        2.0386      162.9959
    608.6808     3812.0710        2.0386      162.9958
    608.8333     3812.0742        2.0386      162.9957
    608.9856     3812.0784        2.0386      162.9955
    609.1380     3812.0825        2.0386      162.9954
    609.2904     3812.0867        2.0386      162.9953
    609.4428     3812.0908        2.0386      162.9951
    609.5952     3812.0950        2.0386      162.9950
    609.7476     3812.0991        2.0386      162.9949
    609.9000     3812.1038        2.0386      162.9948
    610.0524     3812.1082        2.0386      162.9946
    610.2048     3812.1128        2.0386      162.9945
    610.3572     3812.1169        2.0386      162.9944
    610.5096     3812.1216        2.0386      162.9942
    610.6620     3812.1257        2.0386      162.9941
    610.8145     3812.1301        2.0386      162.9940
    610.9668     3812.1333        2.0386      162.9939
    611.1192     3812.1370        2.0386      162.9937
    611.2716     3812.1404        2.0386      162.9936
    611.4240     3812.1440        2.0386      162.9935
    611.5764     3812.1475        2.0386      162.9933
    611.7288     3812.1509        2.0386      162.9932
    611.8812     3812.1541        2.0386      162.9931
    612.0336     3812.1570        2.0386      162.9930
    612.1860     3812.1602        2.0386      162.9928
    612.3384     3812.1626        2.0386      162.9927
    612.4908     3812.1658        2.0386      162.9926
    612.6432     3812.1692        2.0386      162.9924
    612.7957     3812.1729        2.0386      162.9923
    612.9480     3812.1768        2.0386      162.9922
    613.1004     3812.1807        2.0386      162.9921
    613.2528     3812.1843        2.0386      162.9919
    613.4052     3812.1882        2.0386      162.9918
    613.5576     3812.1921        2.0386      162.9917
    613.7100     3812.1968        2.0386      162.9916
    613.8624     3812.2009        2.0386      162.9914
    614.0148     3812.2058        2.0386      162.9913
    614.1672     3812.2100        2.0386      162.9912
    614.3196     3812.2144        2.0386      162.9910
    614.4720     3812.2188        2.0386      162.9909
    614.6244     3812.2224        2.0386      162.9908
    614.7769     3812.2261        2.0386      162.9907
    614.9292     3812.2297        2.0386      162.9905
    615.0816     3812.2336        2.0386      162.9904
    615.2340     3812.2371        2.0386      162.9903
    615.3864     3812.2410        2.0386      162.9901
    615.5388     3812.2441        2.0386      162.9900
    615.6912     3812.2473        2.0386      162.9899
    615.8436     3812.2505        2.0386      162.9897
    615.9960     3812.2529        2.0386      162.9896
    616.1484     3812.2561        2.0386      162.9895
    616.3008     3812.2593        2.0386      162.9894
    616.4532     3812.2629        2.0386      162.9892
