~Version Information Section
VERS.              2.0  : CWLS LOG ASCII STANDARD - VERSION 2.0
WRAP.              NO   : ONE LINE PER DEPTH STEP
CREA.              21-jan-2025
#
~Well Information Section
#MNEM.UNIT         VALUE/NAME          DESCRIPTION
#_________         __________          ___________
STRT.M             305.1000            : START DEPTH
STOP.M             1424.1700           : STOP DEPTH
STEP.M             0.1524              : STEP
NULL.              -999.2500           : NULL VALUE
COMP.                                  : COMPANY
WELL.              F02-1               : WELL NAME
FLD.                                   : FIELD
LOC.                                   : LOCATION
PROV.                                  : PROVINCE
CNTY.                                  : COUNTY
STAT.                                  : STATE
CTRY.                                  : COUNTRY
SRVC.                                  : SERVICE COMPANY
DATE.                                  : LOG DATE
UWI.                                   : UNIQUE WELL ID
XCOORD.M           606554.000          : SURFACE X
YCOORD.M           6080126.000         : SURFACE Y
#
~Curve Information Section
#MNEM.UNIT         API CODE            DESCRIPTION
#_________         ________            ___________
DEPT.M                                 : 0 Depth
AI.m/sxg/cc                            : 1 AI from well tie
RHOB.g/cc                              : 2 Density
DT.us/ft                               : 3 Sonic
#
~Parameter Information Section
#MNEM.UNIT           VALUE             DESCRIPTION
#_________         __________          ___________
EKB.M              30.0000             : Elevation Kelly Bushing
EGL.M              -999.25             : Elevation Ground Level
#
~Other Information Section
#
~Ascii Data Section
# ...
    460.8528     3944.6189        2.0584      156.8024
    461.0052     3936.2588        2.0570      157.2360
    461.1576     3925.5134        2.0557      157.6398
    461.3100     3908.4241        2.0545      157.9796
    461.4624     3891.3347        2.0534      158.3381
    461.6148     3874.2454        2.0517      158.8650
    461.7672     3857.1562        2.0496      159.5144
    461.9196     3840.0669        2.0470      160.3252
    462.0720     3822.9773        2.0440      161.2707
    462.2244     3812.6135        2.0416      162.0084
    462.3768     3802.2761        2.0407      162.2995
    462.5292     3791.9363        2.0407      162.2980
    462.6816     3781.5967        2.0403      162.4318
    462.8340     3771.2571        2.0385      163.0043
    462.9864     3760.9194        2.0345      164.2904
    463.1388     3760.2961        2.0299      165.7824
    463.2912     3761.3552        2.0287      166.2025
    463.4436     3762.4138        2.0296      165.8788
    463.5960     3763.4729        2.0304      165.6423
    463.7484     3764.5312        2.0306      165.5677
    463.9008     3765.5903        2.0309      165.4591
    464.0532     3768.5615        2.0318      165.1885
    464.2056     3771.9521        2.0328      164.8396
    464.3580     3775.3423        2.0338      164.5236
    464.5104     3778.7332        2.0346      164.2762
    464.6628     3782.1238        2.0348      164.1894
    464.8152     3785.5139        2.0350      164.1428
    464.9676     3789.0737        2.0353      164.0261
    465.1200     3792.6934        2.0362      163.7573
    465.2724     3796.3125        2.0378      163.2233
    465.4248     3799.9319        2.0382      163.1163
    465.5772     3803.5515        2.0382      163.1162
    465.7296     3807.1707        2.0382      163.1161
    465.8820     3808.5642        2.0382      163.1160
    466.0344     3808.5681        2.0382      163.1158
    466.1868     3808.5725        2.0382      163.1157
    466.3392     3808.5769        2.0382      163.1156
    466.4916     3808.5808        2.0382      163.1154
    466.6440     3808.5850        2.0382      163.1153
    466.7964     3808.5891        2.0382      163.1152
    466.9488     3808.5918        2.0382      163.1151
    467.1012     3808.5952        2.0382      163.1149
    467.2536     3808.5979        2.0382      163.1148
    467.4060     3808.6011        2.0382      163.1147
    467.5584     3808.6045        2.0382      163.1145
    467.7108     3808.6072        2.0382      163.1144
    467.8632     3808.6099        2.0382      163.1143
    468.0156     3808.6130        2.0382      163.1142
    468.1680     3808.6160        2.0382      163.1140
    468.3204     3808.6189        2.0382      163.1139
    468.4728     3808.6218        2.0382      163.1138
    468.6252     3808.6250        2.0382      163.1136
    468.7776     3808.6296        2.0382      163.1135
    468.9300     3808.6343        2.0382      163.1134
    469.0824     3808.6389        2.0382      163.1133
    469.2348     3808.6436        2.0382      163.1131
    469.3872     3808.6479        2.0382      163.1130
    469.5396     3808.6526        2.0382      163.1129
    469.6920     3808.6570        2.0382      163.1128
    469.8444     3808.6616        2.0382      163.1126
    469.9968     3808.6658        2.0382      163.1125
    470.1492     3808.6699        2.0382      163.1124
    470.3016     3808.6743        2.0382      163.1122
    470.4540     3808.6787        2.0382      163.1121
    470.6064     3808.6819        2.0382      163.1120
    470.7588     3808.6848        2.0382      163.1119
    470.9112     3808.6877        2.0382      163.1117
    471.0636     3808.6909        2.0382      163.1116
    471.2160     3808.6938        2.0382      163.1115
    471.3684     3808.6970        2.0382      163.1113
    471.5208     3808.7000        2.0382      163.1112
    471.6732     3808.7031        2.0382      163.1111
    471.8256     3808.7061        2.0382      163.1110
    471.9780     3808.7090        2.0382      163.1108
    472.1304     3808.7122        2.0382      163.1107
    472.2828     3808.7153        2.0382      163.1106
    472.4352     3808.7192        2.0382      163.1104
    472.5876     3808.7239        2.0382      163.1103
    472.7400     3808.7288        2.0382      163.1102
    472.8924     3808.7334        2.0382      163.1101
    473.0448     3808.7383        2.0382      163.1099
    473.1972     3808.7432        2.0382      163.1098
    473.3496     3808.7476        2.0382      163.1097
    473.5020     3808.7520        2.0382      163.1095
    473.6544     3808.7566        2.0382      163.1094
    473.8068     3808.7607        2.0382      163.1093
    473.9592     3808.7656        2.0382      163.1092
    474.1116     3808.7700        2.0382      163.1090
    474.2640     3808.7739        2.0382      163.1089
    474.4164     3808.7771        2.0382      163.1088
    474.5688     3808.7795        2.0382      163.1087
    474.7212     3808.7827        2.0382      163.1085
    474.8736     3808.7856        2.0382      163.1084
    475.0260     3808.7886        2.0382      163.1083
    475.1784     3808.7915        2.0382      163.1081
    475.3308     3808.7944        2.0382      163.1080
    475.4832     3808.7979        2.0382      163.1079
    475.6356     3808.8008        2.0382      163.1078
    475.7880     3808.8037        2.0382      163.1076
    475.9404     3808.8069        2.0382      163.1075
    476.0928     3808.8101        2.0382      163.1074
    476.2452     3808.8142        2.0382      163.1073
    476.3976     3808.8186        2.0382      163.1071
    476.5500     3808.8230        2.0382      163.1070
    476.7024     3808.8271        2.0382      163.1069
    476.8548     3808.8315        2.0382      163.1067
    477.0072     3808.8359        2.0382      163.1066
    477.1596     3808.8408        2.0382      163.1065
    477.3120     3808.8452        2.0382      163.1064
    477.4644     3808.8496        2.0382      163.1062
    477.6168     3808.8542        2.0382      163.1061
    477.7692     3808.8589        2.0382      163.1060
    477.9216     3808.8638        2.0382      163.1058
    478.0740     3808.8667        2.0382      163.1057
    478.2264     3808.8699        2.0382      163.1056
    478.3788     3808.8730        2.0382      163.1055
    478.5312     3808.8762        2.0382      163.1053
    478.6836     3808.8792        2.0382      163.1052
    478.8360     3808.8823        2.0382      163.1051
    478.9884     3808.8850        2.0382      163.1049
    479.1408     3808.8882        2.0382      163.1048
    479.2932     3808.8914        2.0382      163.1047
    479.4456     3808.8940        2.0382      163.1045
    479.5980     3808.8970        2.0382      163.1044
    479.7504     3808.9001        2.0382      163.1043
    479.9028     3808.9038        2.0382      163.1042
    480.0552     3808.9080        2.0382      163.1040
    480.2076     3808.9121        2.0382      163.1039
    480.3600     3808.9165        2.0382      163.1038
    480.5124     3808.9207        2.0382      163.1037
    480.6648     3808.9246        2.0382      163.1035
    480.8172     3808.9290        2.0382      163.1034
    480.9696     3808.9333        2.0382      163.1033
    481.1220     3808.9382        2.0382      163.1031
    481.2744     3808.9426        2.0382      163.1030
    481.4268     3808.9470        2.0382      163.1029
    481.5792     3808.9517        2.0382      163.1028
    481.7316     3808.9558        2.0382      163.1026
    481.8840     3808.9592        2.0382      163.1025
    482.0364     3808.9624        2.0382      163.1024
    482.1888     3808.9656        2.0382      163.1022
    482.3412     3808.9688        2.0382      163.1021
    482.4936     3808.9722        2.0382      163.1020
    482.6460     3808.9751        2.0382      163.1019
    482.7984     3808.9783        2.0382      163.1017
    482.9508     3808.9812        2.0382      163.1016
