~Version Information Section
VERS.              2.0  : CWLS LOG ASCII STANDARD - VERSION 2.0
WRAP.              NO   : ONE LINE PER DEPTH STEP
CREA.              21-jan-2025
#
~Well Information Section
#MNEM.UNIT         VALUE/NAME          DESCRIPTION
#_________         __________          ___________
STRT.M             305.1000            : START DEPTH
STOP.M             1424.1700           : STOP DEPTH
STEP.M             0.1524              : STEP
NULL.              -999.2500           : NULL VALUE
COMP.                                  : COMPANY
WELL.              F02-1               : WELL NAME
FLD.                                   : FIELD
LOC.                                   : LOCATION
PROV.                                  : PROVINCE
CNTY.                                  : COUNTY
STAT.                                  : STATE
CTRY.                                  : COUNTRY
SRVC.                                  : SERVICE COMPANY
DATE.                                  : LOG DATE
UWI.                                   : UNIQUE WELL ID
XCOORD.M           606554.000          : SURFACE X
YCOORD.M           6080126.000         : SURFACE Y
#
~Curve Information Section
#MNEM.UNIT         API CODE            DESCRIPTION
#_________         ________            ___________
DEPT.M                                 : 0 Depth
AI.m/sxg/cc                            : 1 AI from well tie
RHOB.g/cc                              : 2 Density
DT.us/ft                               : 3 Sonic
#
~Parameter Information Section
#MNEM.UNIT           VALUE             DESCRIPTION
#_________         __________          ___________
EKB.M              30.0000             : Elevation Kelly Bushing
EGL.M              -999.25             : Elevation Ground Level
#
~Other Information Section
#
~Ascii Data Section
    305.1000     -999.2500        2.0548      157.9093
    305.2524     -999.2500        2.0449      160.9788
    305.4048     -999.2500        2.0396      162.6520
    305.5572     3842.1851        2.0310      165.4481
    305.7096     3843.7671        2.0352      164.0514
    305.8620     3845.3489        2.0456      160.7608
    306.0144     3846.9307        2.0540      158.1336
    306.1668     3848.5127        2.0534      158.3255
    306.3192     3850.0947        2.0474      160.1856
    306.4716     3851.6765        2.0403      162.4469
    306.6240     3857.9436        2.0297      165.8436
    306.7764     3864.5046        2.0306      165.5672
    306.9288     3871.0654        2.0351      164.0916
    307.0812     3877.6262        2.0410      162.2309
    307.2336     3884.1870        2.0458      160.6953
    307.3860     3890.7478        2.0469      160.3444
    307.5384     3886.9255        2.0468      160.3705
    307.6908     3880.6182        2.0469      160.3544
    307.8432     3874.3113        2.0470      160.3283
    307.9956     3868.0037        2.0475      160.1531
    308.1480     3861.6965        2.0491      159.6576
    308.3004     3855.3894        2.0509      159.1126
    308.4528     3849.7795        2.0504      159.2472
    308.6052     3844.7336        2.0476      160.1402
    308.7576     3839.6863        2.0436      161.4025
    308.9100     3834.6396        2.0393      162.7487
    309.0624     3829.5925        2.0368      163.5592
    309.2148     3824.5454        2.0366      163.6189
    309.3672     3817.9219        2.0369      163.5160
    309.5196     3808.7983        2.0375      163.3258
    309.6720     3799.6731        2.0384      163.0325
    309.8244     3790.5483        2.0395      162.6899
    309.9768     3781.4229        2.0409      162.2521
    310.1292     3772.2981        2.0429      161.6017
    310.2816     3766.3079        2.0443      161.1564
    310.4340     3770.7263        2.0429      161.6156
    310.5864     3775.1445        2.0389      162.8917
    310.7388     3779.5632        2.0322      165.0383
    310.8912     3783.9817        2.0243      167.6356
    311.0436     3788.4009        2.0194      169.2644
    311.1960     3795.5847        2.0200      169.0606
    311.3484     3814.2686        2.0249      167.4412
    311.5008     3832.9487        2.0329      164.8017
    311.6532     3851.6323        2.0436      161.4039
    311.8056     3870.3167        2.0507      159.1493
    311.9580     3889.0002        2.0517      158.8519
    312.1104     3907.2544        2.0494      159.5726
    312.2628     3908.9023        2.0444      161.1491
    312.4152     3910.5508        2.0410      162.2264
    312.5676     3912.1990        2.0395      162.7035
    312.7200     3913.8472        2.0419      161.9150
    312.8724     3915.4951        2.0488      159.7501
    313.0248     3917.1436        2.0544      158.0355
    313.1772     3914.1973        2.0570      157.2095
    313.3296     3910.1650        2.0551      157.8108
    313.4820     3906.1331        2.0510      159.0718
    313.6344     3902.1006        2.0494      159.5882
    313.7868     3898.0681        2.0498      159.4572
    313.9392     3894.0356        2.0495      159.5251
    314.0916     3886.7300        2.0481      159.9731
    314.2440     3876.3450        2.0484      159.8717
    314.3964     3865.9617        2.0492      159.6281
    314.5488     3855.5764        2.0505      159.2297
    314.7012     3845.1912        2.0488      159.7502
    314.8536     3834.8059        2.0449      160.9713
    315.0060     3828.4062        2.0392      162.7896
    315.1584     3832.5281        2.0401      162.5231
    315.3108     3836.6494        2.0472      160.2579
    315.4632     3840.7712        2.0544      158.0288
    315.6156     3844.8931        2.0493      159.6125
    315.7680     3849.0154        2.0351      164.0977
    315.9204     3853.5349        2.0267      166.8210
    316.0728     3861.8567        2.0211      168.7121
    316.2252     3870.1785        2.0262      167.0222
    316.3776     3878.4988        2.0389      162.8787
    316.5300     3886.8206        2.0495      159.5519
    316.6824     3895.1421        2.0583      156.8360
    316.8348     3903.4641        2.0578      156.9906
    316.9872     3903.7903        2.0516      158.8823
    317.1396     3903.4639        2.0451      160.9190
    317.2920     3903.1370        2.0412      162.1680
    317.4444     3902.8105        2.0417      161.9987
    317.5968     3902.4836        2.0440      161.2718
    317.7492     3902.1570        2.0446      161.0641
    317.9016     3913.6724        2.0473      160.2214
    318.0540     3929.8887        2.0502      159.3118
    318.2064     3946.1045        2.0504      159.2602
    318.3588     3962.3176        2.0490      159.6891
    318.5112     3978.5337        2.0473      160.2400
    318.6636     3994.7498        2.0458      160.6974
    318.8160     4002.6404        2.0457      160.7299
    318.9684     4000.9124        2.0492      159.6423
    319.1208     3999.1843        2.0573      157.1216
    319.2732     3997.4565        2.0668      154.2809
    319.4256     3995.7283        2.0736      152.2359
    319.5780     3994.0000        2.0761      151.5123
    319.7304     3992.1086        2.0735      152.2667
    319.8828     3975.0051        2.0665      154.3426
    320.0352     3957.9011        2.0574      157.0882
    320.1876     3940.8008        2.0504      159.2528
    320.3400     3923.6970        2.0463      160.5383
    320.4924     3906.5933        2.0460      160.6378
    320.6448     3889.4897        2.0486      159.8083
    320.7972     3890.3801        2.0506      159.2089
    320.9496     3898.7407        2.0491      159.6733
    321.1020     3907.1011        2.0461      160.6112
    321.2544     3915.4600        2.0420      161.8797
    321.4068     3923.8203        2.0389      162.8851
    321.5592     3932.1809        2.0396      162.6613
    321.7116     3937.1409        2.0430      161.5728
    321.8640     3938.7896        2.0476      160.1301
    322.0164     3940.4377        2.0543      158.0518
    322.1688     3942.0859        2.0619      155.7226
    322.3212     3943.7346        2.0662      154.4491
    322.4736     3945.3828        2.0648      154.8653
    322.6260     3946.1484        2.0609      156.0317
    322.7784     3941.2283        2.0557      157.6107
    322.9308     3936.3086        2.0493      159.5899
    323.0832     3931.3894        2.0452      160.8869
    323.2356     3926.4695        2.0432      161.5136
    323.3880     3921.5496        2.0434      161.4628
    323.5404     3916.6292        2.0462      160.5701
    323.6928     3922.0591        2.0514      158.9603
    323.8452     3928.7563        2.0484      159.8792
    323.9976     3935.4536        2.0492      159.6289
    324.1500     3942.1494        2.0470      160.3169
    324.3024     3948.8467        2.0481      159.9886
    324.4548     3955.5439        2.0504      159.2500
    324.6072     3954.7070        2.0552      157.7938
    324.7596     3949.3257        2.0585      156.7688
    324.9120     3943.9443        2.0582      156.8732
    325.0644     3938.5637        2.0547      157.9218
    325.2168     3933.1824        2.0491      159.6579
    325.3692     3927.8013        2.0461      160.5982
    325.5216     3919.4678        2.0477      160.0943
    325.6740     3904.7266        2.0547      157.9185
    325.8264     3889.9851        2.0660      154.5023
    325.9788     3875.2444        2.0699      153.3278
    326.1312     3860.5063        2.0632      155.3319
    326.2836     3845.7649        2.0528      158.5329
    326.4360     3831.0237        2.0433      161.4929
    326.5884     3822.9172        2.0376      163.2793
    326.7408     3815.1824        2.0333      164.6770
    326.8932     3807.4473        2.0305      165.6122
    327.0456     3799.7141        2.0314      165.2992
    327.1980     3791.9790        2.0353      164.0341
