~Version Information Section
VERS.              2.0  : CWLS LOG ASCII STANDARD - VERSION 2.0
WRAP.              NO   : ONE LINE PER DEPTH STEP
CREA.              21-jan-2025
#
~Well Information Section
#MNEM.UNIT         VALUE/NAME          DESCRIPTION
#_________         __________          ___________
STRT.M             305.1000            : START DEPTH
STOP.M             1424.1700           : STOP DEPTH
STEP.M             0.1524              : STEP
NULL.              -999.2500           : NULL VALUE
COMP.                                  : COMPANY
WELL.              F02-1               : WELL NAME
FLD.                                   : FIELD
LOC.                                   : LOCATION
PROV.                                  : PROVINCE
CNTY.                                  : COUNTY
STAT.                                  : STATE
CTRY.                                  : COUNTRY
SRVC.                                  : SERVICE COMPANY
DATE.                                  : LOG DATE
UWI.                                   : UNIQUE WELL ID
XCOORD.M           606554.000          : SURFACE X
YCOORD.M           6080126.000         : SURFACE Y
#
~Curve Information Section
#MNEM.UNIT         API CODE            DESCRIPTION
#_________         ________            ___________
DEPT.M                                 : 0 Depth
AI.m/sxg/cc                            : 1 AI from well tie
RHOB.g/cc                              : 2 Density
DT.us/ft                               : 3 Sonic
#
~Parameter Information Section
#MNEM.UNIT           VALUE             DESCRIPTION
#_________         __________          ___________
EKB.M              30.0000             : Elevation Kelly Bushing
EGL.M              -999.25             : Elevation Ground Level
#
~Other Information Section
#
~Ascii Data Section
# ...
    950.3616     5010.8848        2.1610      129.0733
    950.5140     5005.8018        2.1597      129.3789
    950.6664     5000.7236        2.1549      130.5502
    950.8188     4995.6401        2.1518      131.2910
    950.9712     4990.5620        2.1524      131.1578
    951.1237     4987.2217        2.1521      131.2158
    951.2760     4991.3599        2.1514      131.3960
    951.4285     4995.5020        2.1521      131.2164
    951.5808     4999.6401        2.1519      131.2715
    951.7332     5003.7783        2.1497      131.8020
    951.8856     5007.9194        2.1495      131.8567
    952.0380     5012.0576        2.1477      132.2963
    952.1904     5016.1997        2.1428      133.5123
    952.3428     5021.1548        2.1442      133.1615
    952.4952     5026.6367        2.1478      132.2868
    952.6476     5032.1147        2.1512      131.4301
    952.8000     5037.5972        2.1609      129.0871
    952.9524     5043.0747        2.1607      129.1456
    953.1049     5048.5566        2.1586      129.6626
    953.2572     5054.0347        2.1556      130.3754
    953.4097     5059.5171        2.1561      130.2634
    953.5620     5055.9243        2.1584      129.7024
    953.7144     5051.8613        2.1585      129.6809
    953.8668     5047.7954        2.1599      129.3364
    954.0192     5043.7334        2.1592      129.5031
    954.1716     5039.6675        2.1569      130.0521
    954.3240     5035.6050        2.1551      130.4941
    954.4764     5031.5391        2.1548      130.5707
    954.6288     5026.7373        2.1561      130.2536
    954.7812     5019.7671        2.1582      129.7377
    954.9336     5012.8022        2.1568      130.0900
    955.0861     5005.8320        2.1540      130.7650
    955.2384     4998.8677        2.1511      131.4747
    955.3909     4991.8979        2.1492      131.9227
    955.5432     4984.9331        2.1510      131.4979
    955.6956     4977.9688        2.1552      130.4715
    955.8480     4973.2949        2.1580      129.7960
    956.0004     4970.1055        2.1572      129.9786
    956.1528     4966.9146        2.1537      130.8277
    956.3052     4963.7256        2.1483      132.1469
    956.4576     4960.5337        2.1442      133.1579
    956.6100     4957.3447        2.1438      133.2648
    956.7625     4954.1533        2.1470      132.4739
    956.9148     4951.0444        2.1507      131.5748
    957.0673     4952.4062        2.1509      131.5276
    957.2196     4953.7671        2.1477      132.3039
    957.3721     4955.1289        2.1448      133.0259
    957.5244     4956.4897        2.1464      132.6170
    957.6768     4957.8511        2.1518      131.3077
    957.8292     4959.2124        2.1569      130.0585
    957.9816     4960.5737        2.1581      129.7766
    958.1340     4960.9536        2.1540      130.7565
    958.2864     4959.9131        2.1476      132.3255
    958.4388     4958.8716        2.1415      133.8438
    958.5912     4957.8311        2.1380      134.7280
    958.7437     4956.7900        2.1388      134.5198
    958.8960     4955.7495        2.1423      133.6538
    959.0485     4954.7090        2.1473      132.4142
    959.2008     4953.6685        2.1523      131.1690
    959.3533     4960.1060        2.1551      130.4812
    959.5056     4967.4102        2.1530      130.9935
    959.6580     4974.7144        2.1481      132.1959
    959.8104     4982.0249        2.1450      132.9783
    959.9628     4989.3291        2.1431      133.4377
    960.1152     4996.6392        2.1450      132.9611
    960.2676     5003.9434        2.1489      131.9977
    960.4200     5008.6699        2.1486      132.0913
    960.5724     5008.1299        2.1493      131.9147
    960.7249     5007.5884        2.1525      131.1272
    960.8772     5007.0483        2.1575      129.9261
    961.0297     5006.5068        2.1619      128.8571
    961.1820     5005.9663        2.1635      128.4923
    961.3345     5005.4253        2.1587      129.6163
    961.4868     5004.8843        2.1553      130.4353
    961.6392     5000.9639        2.1528      131.0532
    961.7916     4995.1997        2.1548      130.5624
    961.9440     4989.4409        2.1549      130.5505
    962.0964     4983.6772        2.1540      130.7599
    962.2488     4977.9180        2.1503      131.6568
    962.4012     4972.1548        2.1500      131.7480
    962.5536     4966.3955        2.1493      131.9006
    962.7061     4960.7778        2.1487      132.0438
    962.8584     4959.6040        2.1475      132.3565
    963.0109     4958.4307        2.1451      132.9514
    963.1632     4957.2578        2.1418      133.7717
    963.3157     4956.0840        2.1418      133.7670
    963.4680     4954.9116        2.1437      133.2809
    963.6204     4953.7383        2.1474      132.3819
    963.7728     4952.5645        2.1512      131.4407
    963.9252     4950.3481        2.1545      130.6297
    964.0776     4947.0669        2.1558      130.3349
    964.2300     4943.7886        2.1545      130.6338
    964.3824     4940.5073        2.1500      131.7301
    964.5348     4937.2285        2.1450      132.9644
    964.6873     4933.9473        2.1415      133.8316
    964.8396     4930.6685        2.1411      133.9350
    964.9921     4927.3872        2.1424      133.6183
    965.1444     4929.1182        2.1457      132.7972
    965.2969     4931.1802        2.1504      131.6375
    965.4492     4933.2402        2.1531      130.9775
    965.6016     4935.3003        2.1524      131.1507
    965.7540     4937.3623        2.1499      131.7636
    965.9064     4939.4224        2.1465      132.5909
    966.0588     4941.4844        2.1428      133.5210
    966.2112     4942.4897        2.1422      133.6652
    966.3636     4941.7256        2.1437      133.2982
    966.5160     4940.9609        2.1453      132.8877
    966.6685     4940.1958        2.1468      132.5314
    966.8208     4939.4321        2.1486      132.0746
    966.9733     4938.6670        2.1514      131.3858
    967.1256     4937.9033        2.1528      131.0444
    967.2780     4937.1392        2.1513      131.4278
    967.4304     4930.1650        2.1489      132.0077
    967.5828     4921.7051        2.1464      132.6160
    967.7352     4913.2383        2.1441      133.1893
    967.8876     4904.7788        2.1439      133.2346
    968.0400     4896.3120        2.1455      132.8549
    968.1924     4887.8525        2.1466      132.5763
    968.3448     4879.3862        2.1466      132.5761
    968.4972     4868.5034        2.1459      132.7449
    968.6497     4851.1621        2.1444      133.1251
    968.8020     4833.8354        2.1432      133.4267
    968.9545     4816.4941        2.1424      133.6268
    969.1068     4799.1670        2.1416      133.8290
    969.2592     4781.8403        2.1408      134.0105
    969.4116     4764.4995        2.1398      134.2754
    969.5640     4747.1724        2.1380      134.7303
    969.7164     4737.9126        2.1360      135.2174
    969.8688     4730.6567        2.1342      135.6896
    970.0212     4723.3955        2.1310      136.4871
    970.1736     4716.1392        2.1262      137.7309
    970.3260     4708.8774        2.1207      139.1592
    970.4784     4701.6211        2.1163      140.3232
    970.6309     4694.3594        2.1185      139.7366
    970.7832     4693.6079        2.1214      138.9888
    970.9357     4698.1562        2.1239      138.3297
    971.0880     4702.6997        2.1293      136.9304
    971.2404     4707.2437        2.1297      136.8429
    971.3928     4711.7910        2.1288      137.0659
    971.5452     4716.3350        2.1256      137.8892
    971.6976     4720.8823        2.1216      138.9262
    971.8500     4724.7266        2.1242      138.2591
    972.0024     4726.9009        2.1286      137.1052
    972.1548     4729.0747        2.1304      136.6564
    972.3073     4731.2495        2.1292      136.9543
    972.4596     4733.4233        2.1261      137.7656
