~Version Information Section
VERS.              2.0  : CWLS LOG ASCII STANDARD - VERSION 2.0
WRAP.              NO   : ONE LINE PER DEPTH STEP
CREA.              21-jan-2025
#
~Well Information Section
#MNEM.UNIT         VALUE/NAME          DESCRIPTION
#_________         __________          ___________
STRT.M             305.1000            : START DEPTH
STOP.M             1424.1700           : STOP DEPTH
STEP.M             0.1524              : STEP
NULL.              -999.2500           : NULL VALUE
COMP.                                  : COMPANY
WELL.              F02-1               : WELL NAME
FLD.                                   : FIELD
LOC.                                   : LOCATION
PROV.                                  : PROVINCE
CNTY.                                  : COUNTY
STAT.                                  : STATE
CTRY.                                  : COUNTRY
SRVC.                                  : SERVICE COMPANY
DATE.                                  : LOG DATE
UWI.                                   : UNIQUE WELL ID
XCOORD.M           606554.000          : SURFACE X
YCOORD.M           6080126.000         : SURFACE Y
#
~Curve Information Section
#MNEM.UNIT         API CODE            DESCRIPTION
#_________         ________            ___________
DEPT.M                                 : 0 Depth
AI.m/sxg/cc                            : 1 AI from well tie
RHOB.g/cc                              : 2 Density
DT.us/ft                               : 3 Sonic
#
~Parameter Information Section
#MNEM.UNIT           VALUE             DESCRIPTION
#_________         __________          ___________
EKB.M              30.0000             : Elevation Kelly Bushing
EGL.M              -999.25             : Elevation Ground Level
#
~Other Information Section
#
~Ascii Data Section
# ...
   1395.3696     4499.8291        2.1062      143.0445
   1395.5220     4501.6772        2.1089      142.3204
   1395.6744     4503.1128        2.1113      141.6749
   1395.8268     4504.4932        2.1121      141.4369
   1395.9792     4505.8740        2.1112      141.6835
   1396.1316     4507.2544        2.1089      142.3086
   1396.2839     4508.6348        2.1062      143.0152
   1396.4364     4510.0156        2.1040      143.6544
   1396.5887     4511.3960        2.1027      144.0092
   1396.7412     4519.7231        2.1040      143.6416
   1396.8936     4529.0698        2.1075      142.7121
   1397.0460     4538.4243        2.1110      141.7191
   1397.1984     4547.7710        2.1133      141.1215
   1397.3508     4557.1255        2.1143      140.8543
   1397.5032     4566.4722        2.1139      140.9695
   1397.6556     4575.8267        2.1124      141.3864
   1397.8080     4589.7212        2.1094      142.1839
   1397.9604     4604.6655        2.1053      143.2858
   1398.1128     4619.5986        2.1058      143.1500
   1398.2651     4634.5312        2.1085      142.3978
   1398.4176     4649.4761        2.1117      141.5448
   1398.5699     4664.4092        2.1148      140.7401
   1398.7224     4679.3535        2.1178      139.9474
   1398.8748     4681.0752        2.1213      139.0404
   1399.0272     4678.7051        2.1246      138.1428
   1399.1796     4676.3369        2.1282      137.2155
   1399.3320     4673.9673        2.1265      137.6468
   1399.4844     4671.5996        2.1247      138.1060
   1399.6368     4669.2295        2.1240      138.3208
   1399.7892     4666.8613        2.1245      138.1715
   1399.9415     4650.6265        2.1276      137.3778
   1400.0940     4621.4443        2.1326      136.1104
   1400.2463     4592.2856        2.1360      135.1947
   1400.3988     4563.1040        2.1361      135.1915
   1400.5511     4533.9458        2.1333      135.8904
   1400.7036     4504.7637        2.1273      137.4028
   1400.8560     4475.6050        2.1213      139.0456
   1401.0084     4448.3110        2.1141      140.9295
   1401.1608     4427.8135        2.1079      142.5629
   1401.3132     4407.2998        2.1024      144.0514
   1401.4656     4386.8027        2.0982      145.2646
   1401.6180     4366.2886        2.0955      145.9971
   1401.7704     4345.7915        2.0933      146.6103
   1401.9227     4325.2939        2.0907      147.3118
   1402.0752     4310.7515        2.0879      148.1399
   1402.2275     4307.6650        2.0877      148.1734
   1402.3800     4304.5767        2.0882      148.0457
   1402.5323     4301.4902        2.0883      147.9966
   1402.6848     4298.4019        2.0883      148.0219
   1402.8372     4295.3159        2.0881      148.0724
   1402.9896     4292.2271        2.0881      148.0582
   1403.1420     4288.0244        2.0883      148.0026
   1403.2944     4283.0415        2.0886      147.9342
   1403.4468     4278.0630        2.0888      147.8547
   1403.5992     4273.0801        2.0890      147.7984
   1403.7516     4268.1011        2.0888      147.8727
   1403.9039     4263.1221        2.0881      148.0587
   1404.0564     4258.1387        2.0870      148.3787
   1404.2087     4258.1289        2.0853      148.8770
   1404.3612     4259.1304        2.0833      149.4284
   1404.5135     4260.1313        2.0817      149.8893
   1404.6660     4261.1333        2.0807      150.1957
   1404.8184     4262.1338        2.0806      150.2018
   1404.9708     4263.1357        2.0814      149.9944
   1405.1232     4264.0815        2.0822      149.7486
   1405.2756     4264.7285        2.0831      149.4975
   1405.4280     4265.3755        2.0841      149.1966
   1405.5804     4266.0225        2.0854      148.8253
   1405.7328     4266.6689        2.0867      148.4720
   1405.8851     4267.3164        2.0874      148.2547
   1406.0376     4267.9634        2.0877      148.1686
   1406.1899     4264.8364        2.0879      148.1221
   1406.3424     4256.7412        2.0878      148.1445
   1406.4948     4248.6509        2.0872      148.3239
   1406.6472     4240.5552        2.0863      148.5818
   1406.7996     4232.4658        2.0854      148.8235
   1406.9520     4224.3696        2.0846      149.0498
   1407.1044     4216.2803        2.0837      149.3097
   1407.2568     4210.6182        2.0825      149.6764
   1407.4092     4206.0039        2.0810      150.0992
   1407.5616     4201.3857        2.0795      150.5215
   1407.7140     4196.7710        2.0786      150.7884
   1407.8663     4192.1572        2.0781      150.9427
   1408.0188     4187.5391        2.0775      151.1044
   1408.1711     4183.1372        2.0767      151.3459
   1408.3236     4181.6001        2.0755      151.6998
   1408.4760     4180.0649        2.0744      152.0154
   1408.6284     4178.5283        2.0758      151.6058
   1408.7808     4176.9927        2.0776      151.0874
   1408.9332     4175.4561        2.0786      150.7943
   1409.0856     4173.9199        2.0783      150.8731
   1409.2380     4171.5962        2.0770      151.2469
   1409.3904     4168.3613        2.0754      151.7292
   1409.5428     4165.1240        2.0752      151.7823
   1409.6952     4161.8892        2.0751      151.8117
   1409.8475     4158.6543        2.0750      151.8396
   1410.0000     4155.4170        2.0748      151.8882
   1410.1523     4152.1821        2.0747      151.9375
   1410.3048     4153.0151        2.0746      151.9458
   1410.4572     4154.4282        2.0746      151.9616
   1410.6096     4155.8418        2.0741      152.1189
   1410.7620     4157.2544        2.0736      152.2519
   1410.9144     4158.6685        2.0732      152.3745
   1411.0668     4160.0815        2.0726      152.5525
   1411.2192     4163.5112        2.0719      152.7538
   1411.3716     4171.4912        2.0720      152.7364
   1411.5240     4179.4780        2.0722      152.6574
   1411.6764     4187.4580        2.0726      152.5426
   1411.8287     4195.4385        2.0736      152.2417
   1411.9812     4203.4248        2.0751      151.8080
   1412.1335     4211.4053        2.0767      151.3527
   1412.2860     4216.2148        2.0781      150.9276
   1412.4384     4219.8857        2.0792      150.6184
   1412.5908     4223.5591        2.0801      150.3564
   1412.7432     4227.2295        2.0811      150.0854
   1412.8956     4230.9028        2.0820      149.7933
   1413.0480     4234.5732        2.0829      149.5425
   1413.2004     4237.3066        2.0829      149.5356
   1413.3528     4228.4966        2.0826      149.6409
   1413.5052     4219.6797        2.0828      149.5860
   1413.6576     4210.8701        2.0835      149.3775
   1413.8099     4202.0601        2.0841      149.1933
   1413.9624     4193.2432        2.0841      149.1913
   1414.1147     4184.4336        2.0835      149.3543
   1414.2672     4174.9106        2.0823      149.7413
   1414.4196     4164.2461        2.0803      150.3030
   1414.5720     4153.5723        2.0784      150.8495
   1414.7244     4142.9072        2.0766      151.3625
   1414.8768     4132.2339        2.0747      151.9267
   1415.0292     4121.5688        2.0723      152.6286
   1415.1816     4110.8960        2.0698      153.3776
   1415.3340     4108.0117        2.0685      153.7538
   1415.4865     4107.2046        2.0688      153.6642
   1415.6388     4106.3984        2.0689      153.6501
   1415.7911     4105.5918        2.0684      153.7892
   1415.9436     4104.7847        2.0679      153.9244
   1416.0959     4103.9780        2.0673      154.1169
   1416.2484     4106.0151        2.0668      154.2620
   1416.4008     4115.0137        2.0671      154.1908
   1416.5532     4124.0195        2.0677      153.9991
   1416.7056     4133.0186        2.0683      153.8092
   1416.8580     4142.0239        2.0688      153.6658
   1417.0104     4151.0234        2.0691      153.5882
   1417.1628     4160.0293        2.0694      153.4871
   1417.3152     4167.7485        2.0702      153.2531
   1417.4675     4175.1240        2.0711      152.9875
