~Version Information Section
VERS.              2.0  : CWLS LOG ASCII STANDARD - VERSION 2.0
WRAP.              NO   : ONE LINE PER DEPTH STEP
CREA.              21-jan-2025
#
~Well Information Section
#MNEM.UNIT         VALUE/NAME          DESCRIPTION
#_________         __________          ___________
STRT.M             305.1000            : START DEPTH
STOP.M             1424.1700           : STOP DEPTH
STEP.M             0.1524              : STEP
NULL.              -999.2500           : NULL VALUE
COMP.                                  : COMPANY
WELL.              F02-1               : WELL NAME
FLD.                                   : FIELD
LOC.                                   : LOCATION
PROV.                                  : PROVINCE
CNTY.                                  : COUNTY
STAT.                                  : STATE
CTRY.                                  : COUNTRY
SRVC.                                  : SERVICE COMPANY
DATE.                                  : LOG DATE
UWI.                                   : UNIQUE WELL ID
XCOORD.M           606554.000          : SURFACE X
YCOORD.M           6080126.000         : SURFACE Y
#
~Curve Information Section
#MNEM.UNIT         API CODE            DESCRIPTION
#_________         ________            ___________
DEPT.M                                 : 0 Depth
AI.m/sxg/cc                            : 1 AI from well tie
RHOB.g/cc                              : 2 Density
DT.us/ft                               : 3 Sonic
#
~Parameter Information Section
#MNEM.UNIT           VALUE             DESCRIPTION
#_________         __________          ___________
EKB.M              30.0000             : Elevation Kelly Bushing
EGL.M              -999.25             : Elevation Ground Level
#
~Other Information Section
#
~Ascii Data Section
# ...
    371.8512     3868.3684        2.0407      162.2938
    372.0036     3870.4919        2.0365      163.6469
    372.1560     3872.6155        2.0341      164.4197
    372.3084     3874.7390        2.0381      163.1517
    372.4608     3876.8623        2.0428      161.6281
    372.6132     3878.9858        2.0484      159.8966
    372.7656     3878.4270        2.0551      157.7941
    372.9180     3876.4082        2.0546      157.9739
    373.0704     3874.3887        2.0517      158.8412
    373.2228     3872.3691        2.0478      160.0631
    373.3752     3870.3494        2.0493      159.6145
    373.5276     3868.3306        2.0480      160.0069
    373.6800     3867.3298        2.0437      161.3628
    373.8324     3868.0610        2.0393      162.7363
    373.9848     3868.7920        2.0354      164.0012
    374.1372     3869.5232        2.0374      163.3668
    374.2896     3870.2544        2.0415      162.0575
    374.4420     3870.9854        2.0464      160.5015
    374.5944     3872.4885        2.0503      159.2968
    374.7468     3877.0732        2.0489      159.7439
    374.8992     3881.6592        2.0455      160.8028
    375.0516     3886.2451        2.0414      162.1072
    375.2040     3890.8308        2.0397      162.6322
    375.3564     3895.4167        2.0396      162.6603
    375.5088     3899.9321        2.0419      161.9415
    375.6612     3898.3284        2.0464      160.5170
    375.8136     3896.7249        2.0528      158.5274
    375.9660     3895.1208        2.0590      156.6061
    376.1184     3893.5173        2.0610      155.9943
    376.2708     3891.9136        2.0584      156.7932
    376.4232     3890.3098        2.0535      158.2976
    376.5756     3884.7512        2.0478      160.0668
    376.7280     3877.3059        2.0425      161.7273
    376.8804     3869.8591        2.0385      163.0072
    377.0328     3862.4119        2.0370      163.4993
    377.1852     3854.9651        2.0387      162.9374
    377.3376     3847.5183        2.0421      161.8640
    377.4900     3847.6492        2.0454      160.8070
    377.6424     3855.1157        2.0470      160.3102
    377.7948     3862.5825        2.0448      161.0285
    377.9472     3870.0493        2.0395      162.6880
    378.0996     3877.5159        2.0364      163.6958
    378.2520     3884.9824        2.0378      163.2503
    378.4044     3887.9243        2.0417      162.0075
    378.5568     3881.9722        2.0463      160.5408
    378.7092     3876.0215        2.0475      160.1751
    378.8616     3870.0693        2.0439      161.3032
    379.0140     3864.1172        2.0451      160.9088
    379.1664     3858.1653        2.0510      159.0741
    379.3188     3851.9458        2.0569      157.2487
    379.4712     3842.9470        2.0588      156.6836
    379.6236     3833.9470        2.0544      158.0426
    379.7760     3824.9463        2.0487      159.7985
    379.9284     3815.9463        2.0432      161.5042
    380.0808     3806.9458        2.0391      162.8157
    380.2332     3797.9456        2.0335      164.6303
    380.3856     3801.9690        2.0288      166.1424
    380.5380     3808.0837        2.0259      167.1131
    380.6904     3814.1970        2.0288      166.1714
    380.8428     3820.3120        2.0358      163.8848
    380.9952     3826.4270        2.0434      161.4544
    381.1476     3832.5417        2.0419      161.9349
    381.3000     3835.3059        2.0383      163.0733
    381.4524     3837.1162        2.0362      163.7601
    381.6048     3838.9270        2.0407      162.3134
    381.7572     3840.7375        2.0429      161.6002
    381.9096     3842.5488        2.0422      161.8284
    382.0620     3844.3594        2.0448      161.0219
    382.2144     3838.5176        2.0463      160.5299
    382.3668     3827.7849        2.0415      162.0414
    382.5192     3817.0527        2.0354      164.0000
    382.6716     3806.3228        2.0364      163.6798
    382.8240     3795.5903        2.0410      162.2309
    382.9764     3784.8582        2.0456      160.7437
    383.1288     3778.7144        2.0454      160.8148
    383.2812     3778.3145        2.0426      161.7108
    383.4336     3777.9143        2.0397      162.6164
    383.5860     3777.5139        2.0381      163.1306
    383.7384     3777.1140        2.0372      163.4178
    383.8908     3776.7136        2.0340      164.4670
    384.0432     3777.4224        2.0261      167.0211
    384.1956     3780.5142        2.0167      170.1920
    384.3480     3783.6060        2.0194      169.2634
    384.5004     3786.6973        2.0326      164.9107
    384.6528     3789.7891        2.0416      162.0261
    384.8052     3792.8809        2.0437      161.3604
    384.9576     3795.8918        2.0423      161.8154
    385.1100     3798.6824        2.0403      162.4405
    385.2624     3801.4719        2.0404      162.3943
    385.4148     3804.2622        2.0422      161.8211
    385.5672     3807.0522        2.0421      161.8737
    385.7196     3809.8423        2.0363      163.7186
    385.8720     3813.1587        2.0283      166.3130
    386.0244     3819.9609        2.0249      167.4487
    386.1768     3826.7632        2.0291      166.0376
    386.3292     3833.5652        2.0396      162.6647
    386.4816     3840.3660        2.0514      158.9237
    386.6340     3847.1682        2.0582      156.8706
    386.7864     3853.9702        2.0547      157.9299
    386.9388     3852.0247        2.0416      162.0296
    387.0912     3849.6101        2.0248      167.4781
    387.2436     3847.1956        2.0156      170.5639
    387.3960     3844.7810        2.0218      168.4514
    387.5484     3842.3662        2.0358      163.8957
    387.7008     3839.9512        2.0498      159.4574
    387.8532     3846.2305        2.0586      156.7223
    388.0056     3853.5007        2.0555      157.6751
    388.1580     3860.7708        2.0451      160.9169
    388.3104     3868.0410        2.0410      162.2038
    388.4628     3875.3093        2.0428      161.6440
    388.6152     3882.5796        2.0453      160.8581
    388.7676     3888.2849        2.0441      161.2449
    388.9200     3893.1509        2.0398      162.5935
    389.0724     3898.0168        2.0368      163.5553
    389.2248     3902.8816        2.0319      165.1557
    389.3772     3907.7476        2.0331      164.7698
    389.5296     3912.6133        2.0432      161.5037
    389.6820     3916.4700        2.0573      157.1435
    389.8344     3919.3562        2.0653      154.7305
    389.9868     3922.2424        2.0717      152.8205
    390.1392     3925.1282        2.0656      154.6060
    390.2916     3928.0144        2.0479      160.0541
    390.4440     3930.8999        2.0428      161.6560
    390.5964     3933.5229        2.0349      164.1780
    390.7488     3934.8557        2.0417      161.9899
    390.9012     3936.1887        2.0501      159.3450
    391.0536     3937.5215        2.0559      157.5460
    391.2060     3938.8545        2.0595      156.4579
    391.3584     3940.1873        2.0604      156.1842
    391.5108     3941.5205        2.0604      156.1894
    391.6632     3940.1301        2.0561      157.5056
    391.8156     3938.2383        2.0500      159.4024
    391.9680     3936.3462        2.0411      162.1860
    392.1204     3934.4539        2.0338      164.5320
    392.2728     3932.5625        2.0364      163.6870
    392.4252     3930.6704        2.0487      159.7903
    392.5776     3931.6499        2.0572      157.1713
    392.7300     3934.2754        2.0619      155.7248
    392.8824     3936.9011        2.0614      155.8838
    393.0348     3939.5261        2.0559      157.5503
    393.1872     3942.1516        2.0491      159.6657
    393.3396     3944.7776        2.0473      160.2216
    393.4920     3946.8792        2.0506      159.2007
    393.6444     3947.7803        2.0547      157.9364
    393.7968     3948.6814        2.0549      157.8826
    393.9492     3949.5825        2.0521      158.7244
