~Version Information Section
VERS.              2.0  : CWLS LOG ASCII STANDARD - VERSION 2.0
WRAP.              NO   : ONE LINE PER DEPTH STEP
CREA.              21-jan-2025
#
~Well Information Section
#MNEM.UNIT         VALUE/NAME          DESCRIPTION
#_________         __________          ___________
STRT.M             305.1000            : START DEPTH
STOP.M             1424.1700           : STOP DEPTH
STEP.M             0.1524              : STEP
NULL.              -999.2500           : NULL VALUE
COMP.                                  : COMPANY
WELL.              F02-1               : WELL NAME
FLD.                                   : FIELD
LOC.                                   : LOCATION
PROV.                                  : PROVINCE
CNTY.                                  : COUNTY
STAT.                                  : STATE
CTRY.                                  : COUNTRY
SRVC.                                  : SERVICE COMPANY
DATE.                                  : LOG DATE
UWI.                                   : UNIQUE WELL ID
XCOORD.M           606554.000          : SURFACE X
YCOORD.M           6080126.000         : SURFACE Y
#
~Curve Information Section
#MNEM.UNIT         API CODE            DESCRIPTION
#_________         ________            ___________
DEPT.M                                 : 0 Depth
AI.m/sxg/cc                            : 1 AI from well tie
RHOB.g/cc                              : 2 Density
DT.us/ft                               : 3 Sonic
#
~Parameter Information Section
#MNEM.UNIT           VALUE             DESCRIPTION
#_________         __________          ___________
EKB.M              30.0000             : Elevation Kelly Bushing
EGL.M              -999.25             : Elevation Ground Level
#
~Other Information Section
#
~Ascii Data Section
# ...
   1328.6184     4310.7534        2.1042      143.5805
   1328.7709     4300.0425        2.1012      144.4081
   1328.9232     4289.3408        2.0944      146.2373
   1329.0756     4278.6387        2.0855      148.8660
   1329.2280     4267.9282        2.0774      151.1693
   1329.3804     4257.2256        2.0736      152.2477
   1329.5328     4246.5151        2.0734      152.3330
   1329.6852     4238.4502        2.0752      151.7715
   1329.8376     4234.1479        2.0784      150.8311
   1329.9900     4229.8496        2.0818      149.8789
   1330.1423     4225.5508        2.0842      149.1777
   1330.2948     4221.2485        2.0859      148.6995
   1330.4471     4216.9497        2.0873      148.2888
   1330.5996     4212.6475        2.0890      147.8173
   1330.7520     4200.0298        2.0904      147.3987
   1330.9044     4183.2686        2.0894      147.6691
   1331.0568     4166.5200        2.0856      148.8128
   1331.2092     4149.7588        2.0798      150.4586
   1331.3616     4133.0107        2.0744      152.0185
   1331.5140     4116.2495        2.0712      152.9504
   1331.6664     4100.5933        2.0692      153.5617
   1331.8188     4101.0957        2.0698      153.3754
   1331.9712     4101.5981        2.0705      153.1516
   1332.1235     4102.1001        2.0698      153.3678
   1332.2760     4102.6030        2.0681      153.8972
   1332.4283     4103.1055        2.0649      154.8324
   1332.5808     4103.6084        2.0618      155.7738
   1332.7332     4111.3018        2.0609      156.0613
   1332.8856     4124.2451        2.0646      154.9050
   1333.0380     4137.1787        2.0689      153.6250
   1333.1904     4150.1216        2.0689      153.6448
   1333.3428     4163.0547        2.0668      154.2635
   1333.4952     4175.9985        2.0648      154.8893
   1333.6476     4188.7051        2.0686      153.7172
   1333.8000     4199.3857        2.0759      151.5712
   1333.9524     4210.0576        2.0816      149.9164
   1334.1047     4220.7295        2.0794      150.5756
   1334.2572     4231.4102        2.0795      150.5305
   1334.4095     4242.0820        2.0796      150.5061
   1334.5620     4252.7627        2.0795      150.5372
   1334.7144     4254.2793        2.0832      149.4682
   1334.8668     4245.0049        2.0851      148.9177
   1335.0192     4235.7378        2.0851      148.9230
   1335.1716     4226.4629        2.0852      148.9072
   1335.3240     4217.1953        2.0867      148.4696
   1335.4764     4207.9204        2.0877      148.1842
   1335.6288     4198.6533        2.0878      148.1367
   1335.7811     4186.7788        2.0872      148.3231
   1335.9336     4173.9331        2.0853      148.8318
   1336.0859     4161.0981        2.0822      149.7820
   1336.2384     4148.2529        2.0788      150.7453
   1336.3907     4135.4180        2.0730      152.4290
   1336.5432     4122.5723        2.0691      153.5753
   1336.6956     4111.9761        2.0684      153.7975
   1336.8480     4118.6841        2.0678      153.9632
   1337.0004     4125.3872        2.0675      154.0583
   1337.1528     4132.0952        2.0676      154.0360
   1337.3052     4138.7988        2.0679      153.9219
   1337.4576     4145.5068        2.0685      153.7653
   1337.6100     4152.2095        2.0681      153.8652
   1337.7623     4160.5498        2.0674      154.0796
   1337.9148     4169.9111        2.0679      153.9418
   1338.0671     4179.2642        2.0698      153.3703
   1338.2196     4188.6255        2.0731      152.3984
   1338.3719     4197.9790        2.0771      151.2370
   1338.5244     4207.3398        2.0795      150.5310
   1338.6768     4216.4878        2.0805      150.2265
   1338.8292     4221.3525        2.0816      149.9346
   1338.9816     4226.2129        2.0826      149.6495
   1339.1340     4231.0771        2.0826      149.6350
   1339.2864     4235.9375        2.0819      149.8344
   1339.4388     4240.8022        2.0817      149.8979
   1339.5912     4245.6621        2.0810      150.0825
   1339.7435     4243.9624        2.0799      150.4181
   1339.8960     4231.2808        2.0787      150.7680
   1340.0483     4218.6099        2.0775      151.1238
   1340.2008     4205.9277        2.0772      151.2072
   1340.3531     4193.2563        2.0793      150.6170
   1340.5056     4180.5747        2.0829      149.5115
   1340.6580     4167.9033        2.0884      147.9627
   1340.8104     4151.6431        2.0927      146.7708
   1340.9628     4134.0312        2.0927      146.7503
   1341.1152     4116.4048        2.0880      148.1497
   1341.2676     4098.7935        2.0794      150.5986
   1341.4200     4081.1675        2.0700      153.3220
   1341.5724     4063.5554        2.0618      155.7352
   1341.7247     4047.5835        2.0570      157.2457
   1341.8772     4046.0872        2.0578      156.9859
   1342.0295     4044.5920        2.0600      156.3072
   1342.1820     4043.0957        2.0619      155.7245
   1342.3344     4041.6006        2.0623      155.6209
   1342.4868     4040.1042        2.0626      155.5284
   1342.6392     4038.6091        2.0630      155.3932
   1342.7916     4037.7544        2.0616      155.8330
   1342.9440     4037.1895        2.0627      155.5268
   1343.0964     4036.6240        2.0648      154.8374
   1343.2488     4036.0593        2.0673      154.1063
   1343.4012     4035.4939        2.0659      154.5371
   1343.5536     4034.9290        2.0612      155.9193
   1343.7059     4035.1086        2.0577      157.0389
   1343.8584     4037.5044        2.0583      156.8325
   1344.0107     4039.8984        2.0608      156.0704
   1344.1632     4042.2942        2.0592      156.5423
   1344.3156     4044.6885        2.0593      156.5371
   1344.4680     4047.0840        2.0599      156.3420
   1344.6204     4049.4780        2.0611      155.9690
   1344.7728     4050.8745        2.0632      155.3439
   1344.9252     4052.1033        2.0651      154.7567
   1345.0776     4053.3325        2.0645      154.9500
   1345.2300     4054.5613        2.0627      155.4833
   1345.3824     4055.7905        2.0622      155.6473
   1345.5348     4057.0190        2.0627      155.5105
   1345.6871     4057.2493        2.0640      155.0865
   1345.8396     4056.0806        2.0658      154.5750
   1345.9919     4054.9128        2.0677      153.9978
   1346.1444     4053.7444        2.0691      153.5844
   1346.2968     4052.5764        2.0687      153.6913
   1346.4492     4051.4082        2.0666      154.3205
   1346.6016     4050.2402        2.0636      155.2040
   1346.7540     4055.4517        2.0605      156.1552
   1346.9064     4061.0952        2.0592      156.5605
   1347.0588     4066.7432        2.0610      156.0043
   1347.2112     4072.3862        2.0631      155.3830
   1347.3636     4078.0342        2.0629      155.4272
   1347.5160     4083.6777        2.0618      155.7906
   1347.6683     4089.2476        2.0615      155.8726
   1347.8208     4094.7539        2.0627      155.4957
   1347.9731     4100.2559        2.0653      154.7311
   1348.1256     4105.7627        2.0686      153.6982
   1348.2780     4111.2646        2.0720      152.7186
   1348.4304     4116.7710        2.0743      152.0545
   1348.5828     4122.2500        2.0744      152.0040
   1348.7352     4125.8086        2.0723      152.6537
   1348.8876     4129.3652        2.0682      153.8639
   1349.0400     4132.9248        2.0644      154.9812
   1349.1924     4136.4810        2.0648      154.8905
   1349.3448     4140.0405        2.0683      153.8326
   1349.4972     4143.5972        2.0709      153.0322
   1349.6495     4148.4761        2.0723      152.6412
   1349.8020     4154.6333        2.0731      152.3967
   1349.9543     4160.7856        2.0733      152.3513
   1350.1068     4166.9429        2.0732      152.3652
   1350.2592     4173.0952        2.0741      152.1074
   1350.4116     4179.2524        2.0753      151.7586
   1350.5640     4185.4048        2.0761      151.5192
   1350.7164     4187.2549        2.0766      151.3742
