~Version Information Section
VERS.              2.0  : CWLS LOG ASCII STANDARD - VERSION 2.0
WRAP.              NO   : ONE LINE PER DEPTH STEP
CREA.              21-jan-2025
#
~Well Information Section
#MNEM.UNIT         VALUE/NAME          DESCRIPTION
#_________         __________          ___________
STRT.M             305.1000            : START DEPTH
STOP.M             1424.1700           : STOP DEPTH
STEP.M             0.1524              : STEP
NULL.              -999.2500           : NULL VALUE
COMP.                                  : COMPANY
WELL.              F02-1               : WELL NAME
FLD.                                   : FIELD
LOC.                                   : LOCATION
PROV.                                  : PROVINCE
CNTY.                                  : COUNTY
STAT.                                  : STATE
CTRY.                                  : COUNTRY
SRVC.                                  : SERVICE COMPANY
DATE.                                  : LOG DATE
UWI.                                   : UNIQUE WELL ID
XCOORD.M           606554.000          : SURFACE X
YCOORD.M           6080126.000         : SURFACE Y
#
~Curve Information Section
#MNEM.UNIT         API CODE            DESCRIPTION
#_________         ________            ___________
DEPT.M                                 : 0 Depth
AI.m/sxg/cc                            : 1 AI from well tie
RHOB.g/cc                              : 2 Density
DT.us/ft                               : 3 Sonic
#
~Parameter Information Section
#MNEM.UNIT           VALUE             DESCRIPTION
#_________         __________          ___________
EKB.M              30.0000             : Elevation Kelly Bushing
EGL.M              -999.25             : Elevation Ground Level
#
~Other Information Section
#
~Ascii Data Section
# ...
    661.1064     3876.0737        2.0505      159.2363
    661.2588     3873.1426        2.0518      158.8372
    661.4113     3870.2092        2.0507      159.1515
    661.5636     3867.2776        2.0473      160.2314
    661.7160     3864.3452        2.0435      161.4353
    661.8684     3869.8081        2.0413      162.1089
    662.0208     3882.0891        2.0414      162.0804
    662.1732     3894.3699        2.0422      161.8164
    662.3256     3906.6501        2.0417      161.9782
    662.4780     3918.9309        2.0409      162.2527
    662.6304     3931.2068        2.0414      162.0767
    662.7828     3946.3159        2.0424      161.7742
    662.9352     3966.0110        2.0441      161.2410
    663.0876     3985.7212        2.0468      160.3795
    663.2400     4005.4165        2.0495      159.5286
    663.3925     4025.1267        2.0536      158.2680
    663.5448     4044.8218        2.0596      156.4366
    663.6972     4063.3342        2.0649      154.8278
    663.8496     4068.0283        2.0676      154.0186
    664.0020     4072.7227        2.0674      154.0881
    664.1544     4077.4167        2.0637      155.1847
    664.3068     4082.1111        2.0646      154.9080
    664.4592     4086.8052        2.0685      153.7522
    664.6116     4091.4978        2.0695      153.4685
    664.7640     4092.7876        2.0690      153.6122
    664.9164     4091.7466        2.0689      153.6518
    665.0688     4090.7056        2.0681      153.8686
    665.2212     4089.6646        2.0673      154.1243
    665.3736     4088.6235        2.0684      153.7800
    665.5260     4087.5823        2.0652      154.7302
    665.6784     4086.0637        2.0666      154.3124
    665.8308     4080.3279        2.0672      154.1537
    665.9832     4074.5920        2.0690      153.6231
    666.1356     4068.8560        2.0716      152.8343
    666.2880     4063.1201        2.0743      152.0513
    666.4404     4057.3840        2.0715      152.8663
    666.5928     4051.6504        2.0673      154.1152
    666.7452     4053.7891        2.0633      155.3226
    666.8976     4061.5400        2.0595      156.4798
    667.0500     4069.2971        2.0611      155.9656
    667.2024     4077.0481        2.0583      156.8341
    667.3548     4084.8020        2.0518      158.8140
    667.5072     4092.5559        2.0514      158.9434
    667.6596     4096.0542        2.0536      158.2778
    667.8120     4085.1321        2.0594      156.4903
    667.9644     4074.2102        2.0717      152.8204
    668.1168     4063.2881        2.0875      148.2424
    668.2692     4052.3704        2.0940      146.4138
    668.4216     4041.4441        2.0899      147.5509
    668.5740     4030.5266        2.0786      150.7918
    668.7264     4007.5703        2.0674      154.0924
    668.8788     3976.5684        2.0611      155.9739
    669.0312     3945.5415        2.0602      156.2446
    669.1836     3914.5398        2.0589      156.6610
    669.3360     3883.5249        2.0550      157.8285
    669.4884     3852.5105        2.0504      159.2668
    669.6408     3824.8335        2.0437      161.3710
    669.7932     3807.4805        2.0395      162.6917
    669.9456     3790.1272        2.0391      162.8357
    670.0980     3772.7739        2.0386      162.9657
    670.2504     3755.4275        2.0372      163.4214
    670.4028     3738.0676        2.0350      164.1223
    670.5552     3722.4993        2.0314      165.3046
    670.7076     3719.2383        2.0288      166.1510
    670.8600     3715.9802        2.0283      166.3024
    671.0125     3712.7195        2.0287      166.1798
    671.1648     3709.4612        2.0285      166.2679
    671.3172     3706.2019        2.0267      166.8355
    671.4696     3705.5559        2.0250      167.3880
    671.6220     3723.9758        2.0238      167.7841
    671.7744     3742.3958        2.0228      168.1337
    671.9268     3760.8154        2.0236      167.8500
    672.0792     3779.2358        2.0261      167.0477
    672.2316     3797.6482        2.0280      166.4171
    672.3840     3816.2878        2.0291      166.0605
    672.5364     3836.1997        2.0295      165.9403
    672.6888     3856.1272        2.0295      165.9157
    672.8412     3876.0388        2.0321      165.0908
    672.9937     3895.9666        2.0377      163.2519
    673.1460     3915.8784        2.0453      160.8544
    673.2984     3935.3870        2.0533      158.3556
    673.4508     3932.9871        2.0576      157.0298
    673.6032     3930.5874        2.0574      157.0993
    673.7556     3928.1877        2.0560      157.5352
    673.9080     3925.7878        2.0560      157.5290
    674.0604     3923.3884        2.0573      157.1230
    674.2128     3920.9895        2.0576      157.0490
    674.3652     3911.3784        2.0549      157.8583
    674.5176     3898.0398        2.0508      159.1431
    674.6700     3884.6904        2.0477      160.1107
    674.8224     3871.3518        2.0460      160.6290
    674.9749     3858.0022        2.0459      160.6751
    675.1272     3844.6636        2.0447      161.0340
    675.2796     3834.5110        2.0436      161.3988
    675.4320     3828.8513        2.0445      161.1127
    675.5844     3823.1917        2.0476      160.1238
    675.7368     3817.5325        2.0465      160.4677
    675.8892     3811.8730        2.0434      161.4368
    676.0416     3806.2134        2.0383      163.0910
    676.1940     3801.4163        2.0323      165.0074
    676.3464     3799.4714        2.0302      165.6917
    676.4988     3797.5281        2.0318      165.1601
    676.6512     3795.5830        2.0347      164.2344
    676.8036     3793.6399        2.0370      163.4917
    676.9561     3791.6951        2.0405      162.3697
    677.1084     3790.3425        2.0394      162.7110
    677.2608     3792.7910        2.0398      162.6088
    677.4132     3795.2393        2.0391      162.8239
    677.5656     3797.6877        2.0330      164.7747
    677.7180     3800.1357        2.0322      165.0504
    677.8704     3802.5845        2.0309      165.4641
    678.0228     3805.0854        2.0319      165.1510
    678.1752     3808.6409        2.0350      164.1424
    678.3276     3812.1987        2.0381      163.1257
    678.4800     3815.7539        2.0409      162.2497
    678.6324     3819.3123        2.0437      161.3486
    678.7848     3822.8677        2.0437      161.3734
    678.9373     3826.4258        2.0424      161.7687
    679.0896     3831.9673        2.0411      162.1832
    679.2420     3837.7612        2.0398      162.5908
    679.3944     3843.5554        2.0387      162.9475
    679.5468     3849.3496        2.0374      163.3523
    679.6992     3855.1438        2.0361      163.7905
    679.8516     3860.9377        2.0360      163.8074
    680.0040     3866.7668        2.0382      163.1193
    680.1564     3872.6570        2.0403      162.4532
    680.3088     3878.5518        2.0420      161.9102
    680.4612     3884.4421        2.0445      161.1168
    680.6136     3890.3369        2.0483      159.9213
    680.7660     3896.2271        2.0524      158.6243
    680.9184     3899.2463        2.0541      158.1086
    681.0708     3899.8396        2.0527      158.5410
    681.2232     3900.4326        2.0513      158.9640
    681.3756     3901.0261        2.0495      159.5339
    681.5280     3901.6191        2.0475      160.1534
    681.6804     3902.2122        2.0472      160.2717
    681.8328     3902.3770        2.0451      160.9341
    681.9852     3901.4033        2.0415      162.0598
    682.1376     3900.4304        2.0417      161.9773
    682.2900     3899.4565        2.0446      161.0611
    682.4424     3898.4836        2.0476      160.1339
    682.5948     3897.5095        2.0513      158.9710
    682.7472     3896.3684        2.0548      157.9091
    682.8996     3891.1572        2.0548      157.8998
    683.0520     3885.9460        2.0522      158.6960
    683.2044     3880.7346        2.0486      159.8056
