~Version Information Section
VERS.              2.0  : CWLS LOG ASCII STANDARD - VERSION 2.0
WRAP.              NO   : ONE LINE PER DEPTH STEP
CREA.              21-jan-2025
#
~Well Information Section
#MNEM.UNIT         VALUE/NAME          DESCRIPTION
#_________         __________          ___________
STRT.M             305.1000            : START DEPTH
STOP.M             1424.1700           : STOP DEPTH
STEP.M             0.1524              : STEP
NULL.              -999.2500           : NULL VALUE
COMP.                                  : COMPANY
WELL.              F02-1               : WELL NAME
FLD.                                   : FIELD
LOC.                                   : LOCATION
PROV.                                  : PROVINCE
CNTY.                                  : COUNTY
STAT.                                  : STATE
CTRY.                                  : COUNTRY
SRVC.                                  : SERVICE COMPANY
DATE.                                  : LOG DATE
UWI.                                   : UNIQUE WELL ID
XCOORD.M           606554.000          : SURFACE X
YCOORD.M           6080126.000         : SURFACE Y
#
~Curve Information Section
#MNEM.UNIT         API CODE            DESCRIPTION
#_________         ________            ___________
DEPT.M                                 : 0 Depth
AI.m/sxg/cc                            : 1 AI from well tie
RHOB.g/cc                              : 2 Density
DT.us/ft                               : 3 Sonic
#
~Parameter Information Section
#MNEM.UNIT           VALUE             DESCRIPTION
#_________         __________          ___________
EKB.M              30.0000             : Elevation Kelly Bushing
EGL.M              -999.25             : Elevation Ground Level
#
~Other Information Section
#
~Ascii Data Section
# ...
    750.1080     4328.0093        2.0910      147.2565
    750.2604     4328.0088        2.0910      147.2565
    750.4128     4328.0093        2.0910      147.2565
    750.5652     4328.0093        2.0910      147.2565
    750.7177     4328.0093        2.0910      147.2565
    750.8700     4328.0093        2.0910      147.2565
    751.0224     4328.0093        2.0910      147.2565
    751.1748     4328.0093        2.0910      147.2565
    751.3272     4328.0093        2.0910      147.2565
    751.4796     4328.0093        2.0910      147.2565
    751.6320     4328.0093        2.0910      147.2565
    751.7844     4328.0093        2.0910      147.2565
    751.9368     4328.0093        2.0910      147.2565
    752.0892     4328.0093        2.0910      147.2565
    752.2416     4328.0093        2.0910      147.2565
    752.3940     4328.0093        2.0910      147.2565
    752.5464     4328.0093        2.0910      147.2565
    752.6989     4328.0093        2.0910      147.2565
    752.8512     4328.0088        2.0910      147.2565
    753.0036     4328.0093        2.0910      147.2565
    753.1560     4328.0093        2.0910      147.2565
    753.3084     4328.0093        2.0910      147.2565
    753.4608     4328.0093        2.0910      147.2565
    753.6132     4328.0088        2.0910      147.2565
    753.7656     4328.0093        2.0910      147.2565
    753.9180     4328.0093        2.0910      147.2565
    754.0704     4328.0093        2.0910      147.2565
    754.2228     4328.0093        2.0910      147.2565
    754.3752     4328.0093        2.0910      147.2565
    754.5276     4328.0093        2.0910      147.2565
    754.6801     4328.0093        2.0910      147.2565
    754.8324     4328.0093        2.0910      147.2565
    754.9848     4328.0088        2.0910      147.2565
    755.1372     4328.0093        2.0910      147.2565
    755.2896     4328.0093        2.0910      147.2565
    755.4420     4328.0093        2.0910      147.2565
    755.5944     4328.0093        2.0910      147.2565
    755.7468     4328.0093        2.0910      147.2565
    755.8992     4328.0093        2.0910      147.2565
    756.0516     4328.0093        2.0910      147.2565
    756.2040     4328.0093        2.0910      147.2565
    756.3564     4328.0093        2.0910      147.2565
    756.5088     4328.0093        2.0910      147.2565
    756.6613     4328.0093        2.0910      147.2565
    756.8136     4328.0093        2.0910      147.2565
    756.9660     4328.0093        2.0910      147.2565
    757.1184     4328.0088        2.0910      147.2565
    757.2708     4328.0093        2.0910      147.2565
    757.4232     4328.0093        2.0910      147.2565
    757.5756     4328.0088        2.0910      147.2565
    757.7280     4328.0093        2.0910      147.2565
    757.8804     4328.0093        2.0910      147.2565
    758.0328     4328.0093        2.0910      147.2565
    758.1852     4328.0088        2.0910      147.2565
    758.3376     4328.0093        2.0910      147.2565
    758.4900     4328.0093        2.0910      147.2565
    758.6425     4328.0088        2.0910      147.2565
    758.7948     4328.0093        2.0910      147.2565
    758.9472     4353.9751        2.0910      147.2565
    759.0996     4381.4136        2.0910      147.2565
    759.2520     4408.8516        2.0910      147.2565
    759.4044     4436.2900        2.0910      147.2565
    759.5568     4463.7285        2.0910      147.2565
    759.7092     4491.1670        2.0910      147.2565
    759.8616     4520.4702        2.0910      147.2565
    760.0140     4564.2510        2.0910      147.2565
    760.1664     4607.9961        2.0910      147.2565
    760.3188     4651.7769        2.0910      147.2565
    760.4712     4695.5225        2.0910      147.2565
    760.6237     4739.3027        2.0935      146.5332
    760.7760     4783.0479        2.1089      142.3125
    760.9284     4820.6240        2.1300      136.7514
    761.0808     4834.2710        2.1436      133.3189
    761.2332     4847.9180        2.1511      131.4708
    761.3856     4861.5649        2.1555      130.3982
    761.5380     4875.2114        2.1569      130.0699
    761.6904     4888.8589        2.1551      130.4939
    761.8428     4902.5000        2.1524      131.1597
    761.9952     4916.1523        2.1495      131.8684
    762.1476     4912.8965        2.1476      132.3335
    762.3000     4898.2764        2.1476      132.3243
    762.4524     4883.6689        2.1482      132.1785
    762.6048     4869.0552        2.1467      132.5592
    762.7572     4854.4414        2.1455      132.8553
    762.9096     4839.8276        2.1438      133.2568
    763.0620     4825.2134        2.1409      133.9995
    763.2144     4810.7754        2.1408      134.0224
    763.3668     4798.4341        2.1395      134.3431
    763.5192     4786.0928        2.1331      135.9614
    763.6716     4773.7515        2.1327      136.0775
    763.8240     4761.4150        2.1323      136.1650
    763.9764     4749.0688        2.1326      136.0848
    764.1288     4736.7324        2.1348      135.5285
    764.2812     4724.3862        2.1340      135.7325
    764.4336     4708.8809        2.1323      136.1659
    764.5860     4692.0581        2.1313      136.4270
    764.7384     4675.2354        2.1305      136.6379
    764.8908     4658.4126        2.1280      137.2674
    765.0432     4641.5903        2.1250      138.0401
    765.1956     4624.7676        2.1225      138.7107
    765.3480     4607.9448        2.1207      139.1684
    765.5004     4597.1011        2.1210      139.0963
    765.6528     4593.7251        2.1223      138.7493
    765.8052     4590.3516        2.1225      138.6883
    765.9576     4586.9746        2.1211      139.0732
    766.1100     4583.6006        2.1179      139.9187
    766.2625     4580.2246        2.1141      140.9149
    766.4148     4576.8506        2.1106      141.8500
    766.5672     4573.3511        2.1071      142.7929
    766.7196     4569.5659        2.1049      143.4059
    766.8720     4565.7812        2.1056      143.2180
    767.0244     4561.9961        2.1082      142.4986
    767.1768     4558.2114        2.1114      141.6400
    767.3292     4554.4268        2.1149      140.6975
    767.4816     4550.6436        2.1183      139.7911
    767.6340     4546.3345        2.1211      139.0576
    767.7864     4540.4204        2.1230      138.5656
    767.9388     4534.5020        2.1227      138.6510
    768.0912     4528.5874        2.1204      139.2519
    768.2437     4522.6689        2.1173      140.0779
    768.3960     4516.7549        2.1134      141.1000
    768.5484     4510.8389        2.1085      142.4196
    768.7008     4506.7739        2.1037      143.7258
    768.8532     4515.8691        2.0995      144.8821
    769.0056     4524.9648        2.0966      145.6681
    769.1580     4534.0605        2.0972      145.5233
    769.3104     4543.1562        2.1002      144.6921
    769.4628     4552.2480        2.1036      143.7470
    769.6152     4561.3472        2.1060      143.1105
    769.7676     4566.5029        2.1090      142.2924
    769.9200     4555.3706        2.1137      141.0368
    770.0724     4544.2466        2.1184      139.7831
    770.2249     4533.1143        2.1239      138.3270
    770.3772     4521.9912        2.1289      137.0279
    770.5296     4510.8633        2.1286      137.1262
    770.6820     4499.7354        2.1245      138.1685
    770.8344     4488.6074        2.1204      139.2489
    770.9868     4501.3467        2.1133      141.1272
    771.1392     4514.3467        2.1078      142.6118
    771.2916     4527.3467        2.1026      144.0310
    771.4440     4540.3418        2.0986      145.1113
    771.5964     4553.3472        2.0985      145.1439
    771.7488     4566.3418        2.0986      145.1288
    771.9012     4579.4473        2.0972      145.5081
    772.0536     4594.5034        2.0949      146.1519
    772.2061     4609.5713        2.0860      148.6537
