~Version Information Section
VERS.              2.0  : CWLS LOG ASCII STANDARD - VERSION 2.0
WRAP.              NO   : ONE LINE PER DEPTH STEP
CREA.              21-jan-2025
#
~Well Information Section
#MNEM.UNIT         VALUE/NAME          DESCRIPTION
#_________         __________          ___________
STRT.M             305.1000            : START DEPTH
STOP.M             1424.1700           : STOP DEPTH
STEP.M             0.1524              : STEP
NULL.              -999.2500           : NULL VALUE
COMP.                                  : COMPANY
WELL.              F02-1               : WELL NAME
FLD.                                   : FIELD
LOC.                                   : LOCATION
PROV.                                  : PROVINCE
CNTY.                                  : COUNTY
STAT.                                  : STATE
CTRY.                                  : COUNTRY
SRVC.                                  : SERVICE COMPANY
DATE.                                  : LOG DATE
UWI.                                   : UNIQUE WELL ID
XCOORD.M           606554.000          : SURFACE X
YCOORD.M           6080126.000         : SURFACE Y
#
~Curve Information Section
#MNEM.UNIT         API CODE            DESCRIPTION
#_________         ________            ___________
DEPT.M                                 : 0 Depth
AI.m/sxg/cc                            : 1 AI from well tie
RHOB.g/cc                              : 2 Density
DT.us/ft                               : 3 Sonic
#
~Parameter Information Section
#MNEM.UNIT           VALUE             DESCRIPTION
#_________         __________          ___________
EKB.M              30.0000             : Elevation Kelly Bushing
EGL.M              -999.25             : Elevation Ground Level
#
~Other Information Section
#
~Ascii Data Section
# ...
   1172.8656     5318.8481        2.1728      126.3243
   1173.0181     5310.4429        2.1722      126.4411
   1173.1704     5302.0439        2.1775      125.2176
   1173.3229     5293.6382        2.1871      123.0311
   1173.4752     5285.2397        2.1870      123.0538
   1173.6276     5276.8408        2.1827      124.0420
   1173.7800     5268.4204        2.1802      124.5850
   1173.9324     5256.7866        2.1770      125.3016
   1174.0848     5245.1436        2.1742      125.9679
   1174.2372     5233.5098        2.1733      126.1733
   1174.3896     5221.8667        2.1723      126.4045
   1174.5420     5210.2329        2.1739      126.0612
   1174.6945     5198.5903        2.1786      124.9877
   1174.8468     5186.9565        2.1820      124.1662
   1174.9993     5175.3877        2.1812      124.3522
   1175.1516     5166.0791        2.1744      125.8921
   1175.3041     5156.7632        2.1608      129.0485
   1175.4564     5147.4546        2.1496      131.9053
   1175.6088     5138.1460        2.1454      132.8723
   1175.7612     5128.8296        2.1485      132.1173
   1175.9136     5119.5210        2.1578      129.9045
   1176.0660     5110.2051        2.1681      127.3383
   1176.2184     5103.9219        2.1755      125.6623
   1176.3708     5104.3945        2.1772      125.2645
   1176.5232     5104.8667        2.1722      126.3784
   1176.6757     5105.3394        2.1628      128.7012
   1176.8280     5105.8120        2.1519      131.3066
   1176.9805     5106.2842        2.1447      133.0463
   1177.1328     5106.7563        2.1432      133.4368
   1177.2852     5107.2290        2.1469      132.4823
   1177.4376     5094.6597        2.1560      130.2424
   1177.5900     5073.9668        2.1684      127.3122
   1177.7424     5053.2573        2.1781      125.0781
   1177.8948     5032.5645        2.1817      124.2451
   1178.0472     5011.8550        2.1804      124.5398
   1178.1996     4991.1616        2.1756      125.6461
   1178.3521     4970.4521        2.1689      127.1991
   1178.5044     4949.7598        2.1642      128.2899
   1178.6569     4928.8203        2.1612      129.0440
   1178.8092     4907.8008        2.1585      129.6711
   1178.9617     4886.7642        2.1550      130.5000
   1179.1140     4865.7441        2.1494      131.8352
   1179.2664     4844.7251        2.1415      133.8755
   1179.4188     4823.6880        2.1314      136.4253
   1179.5712     4802.6685        2.1219      138.8423
   1179.7236     4783.9302        2.1148      140.7533
   1179.8760     4772.8706        2.1178      139.9022
   1180.0284     4761.8022        2.1317      136.2897
   1180.1808     4750.7427        2.1439      133.2499
   1180.3333     4739.6738        2.1495      131.8601
   1180.4856     4728.6143        2.1490      131.9770
   1180.6381     4717.5459        2.1448      133.0347
   1180.7904     4706.4868        2.1368      135.0077
   1180.9429     4684.3584        2.1290      137.0029
   1181.0952     4659.6470        2.1246      138.1903
   1181.2476     4634.9351        2.1225      138.7194
   1181.4000     4610.2031        2.1207      139.1674
   1181.5524     4585.4912        2.1194      139.5114
   1181.7048     4560.7598        2.1176      139.9619
   1181.8572     4536.0479        2.1164      140.3170
   1182.0096     4509.8252        2.1151      140.6494
   1182.1620     4482.7197        2.1140      140.9370
   1182.3145     4455.5938        2.1144      140.8371
   1182.4668     4428.4893        2.1153      140.5957
   1182.6193     4401.3628        2.1139      140.9605
   1182.7716     4374.2583        2.1102      141.9380
   1182.9241     4347.1318        2.1060      143.0587
   1183.0764     4321.4683        2.1014      144.3842
   1183.2288     4296.9580        2.0965      145.7183
   1183.3812     4272.4287        2.0923      146.8731
   1183.5336     4247.9189        2.0891      147.7635
   1183.6860     4223.3896        2.0862      148.6268
   1183.8384     4198.8799        2.0832      149.4738
   1183.9908     4174.3496        2.0795      150.5358
   1184.1432     4172.0308        2.0767      151.3355
   1184.2957     4175.3848        2.0748      151.9031
   1184.4480     4178.7363        2.0732      152.3635
   1184.6005     4182.0903        2.0720      152.7108
   1184.7528     4185.4414        2.0712      152.9560
   1184.9053     4188.7949        2.0707      153.1252
   1185.0576     4196.3081        2.0704      153.1911
   1185.2100     4216.9727        2.0710      153.0192
   1185.3624     4237.6533        2.0724      152.6168
   1185.5148     4258.3179        2.0746      151.9856
   1185.6672     4278.9985        2.0772      151.1850
   1185.8196     4299.6626        2.0798      150.4407
   1185.9720     4320.3438        2.0824      149.7139
   1186.1244     4336.5811        2.0851      148.9423
   1186.2769     4350.2974        2.0877      148.1737
   1186.4292     4364.0029        2.0903      147.4452
   1186.5817     4377.7188        2.0927      146.7883
   1186.7340     4391.4243        2.0947      146.2352
   1186.8865     4405.1406        2.0962      145.7900
   1187.0388     4418.8457        2.0977      145.3834
   1187.1912     4412.1860        2.0992      144.9527
   1187.3436     4401.1836        2.1009      144.5005
   1187.4960     4390.1895        2.1029      143.9135
   1187.6484     4379.1865        2.1055      143.2339
   1187.8008     4368.1934        2.1059      143.1279
   1187.9532     4357.1904        2.1044      143.5234
   1188.1056     4346.1963        2.1022      144.1475
   1188.2581     4326.2437        2.0999      144.7774
   1188.4104     4305.0303        2.0980      145.2954
   1188.5629     4283.7998        2.0961      145.8059
   1188.7152     4262.5869        2.0936      146.5381
   1188.8677     4241.3569        2.0905      147.3964
   1189.0200     4220.1436        2.0850      148.9417
   1189.1724     4199.9077        2.0823      149.7039
   1189.3248     4192.8779        2.0804      150.2708
   1189.4772     4185.8530        2.0789      150.7193
   1189.6296     4178.8232        2.0774      151.1359
   1189.7820     4171.7988        2.0742      152.0748
   1189.9344     4164.7686        2.0723      152.6358
   1190.0868     4157.7441        2.0717      152.8102
   1190.2393     4156.8501        2.0719      152.7503
   1190.3916     4162.7178        2.0723      152.6285
   1190.5441     4168.5898        2.0728      152.4826
   1190.6964     4174.4575        2.0734      152.3024
   1190.8489     4180.3301        2.0739      152.1521
   1191.0012     4186.1978        2.0743      152.0529
   1191.1536     4192.0654        2.0746      151.9509
   1191.3060     4195.4141        2.0752      151.7670
   1191.4584     4198.5093        2.0764      151.4225
   1191.6108     4201.6074        2.0779      151.0030
   1191.7632     4204.7026        2.0793      150.5863
   1191.9156     4207.8003        2.0805      150.2268
   1192.0680     4210.8965        2.0811      150.0678
   1192.2205     4212.9019        2.0807      150.1806
   1192.3728     4212.0576        2.0800      150.3887
   1192.5253     4211.2139        2.0801      150.3568
   1192.6776     4210.3696        2.0808      150.1623
   1192.8300     4209.5254        2.0817      149.8849
   1192.9824     4208.6812        2.0821      149.7638
   1193.1348     4207.8369        2.0802      150.3020
   1193.2872     4207.8164        2.0775      151.1107
   1193.4396     4208.3027        2.0766      151.3664
   1193.5920     4208.7896        2.0771      151.2365
   1193.7444     4209.2759        2.0778      151.0430
   1193.8969     4209.7627        2.0784      150.8592
   1194.0492     4210.2485        2.0790      150.6686
   1194.2017     4210.7354        2.0795      150.5254
   1194.3540     4205.6533        2.0796      150.4989
   1194.5065     4200.5400        2.0797      150.4717
   1194.6588     4195.4312        2.0802      150.3362
   1194.8112     4190.3223        2.0805      150.2293
   1194.9636     4185.2085        2.0805      150.2374
