~Version Information Section
VERS.              2.0  : CWLS LOG ASCII STANDARD - VERSION 2.0
WRAP.              NO   : ONE LINE PER DEPTH STEP
CREA.              21-jan-2025
#
~Well Information Section
#MNEM.UNIT         VALUE/NAME          DESCRIPTION
#_________         __________          ___________
STRT.M             305.1000            : START DEPTH
STOP.M             1424.1700           : STOP DEPTH
STEP.M             0.1524              : STEP
NULL.              -999.2500           : NULL VALUE
COMP.                                  : COMPANY
WELL.              F02-1               : WELL NAME
FLD.                                   : FIELD
LOC.                                   : LOCATION
PROV.                                  : PROVINCE
CNTY.                                  : COUNTY
STAT.                                  : STATE
CTRY.                                  : COUNTRY
SRVC.                                  : SERVICE COMPANY
DATE.                                  : LOG DATE
UWI.                                   : UNIQUE WELL ID
XCOORD.M           606554.000          : SURFACE X
YCOORD.M           6080126.000         : SURFACE Y
#
~Curve Information Section
#MNEM.UNIT         API CODE            DESCRIPTION
#_________         ________            ___________
DEPT.M                                 : 0 Depth
AI.m/sxg/cc                            : 1 AI from well tie
RHOB.g/cc                              : 2 Density
DT.us/ft                               : 3 Sonic
#
~Parameter Information Section
#MNEM.UNIT           VALUE             DESCRIPTION
#_________         __________          ___________
EKB.M              30.0000             : Elevation Kelly Bushing
EGL.M              -999.25             : Elevation Ground Level
#
~Other Information Section
#
~Ascii Data Section
# ...
    816.8593     5027.8169        2.1506      131.5796
    817.0116     5040.0156        2.1519      131.2696
    817.1641     5050.0439        2.1535      130.8936
    817.3164     5060.0645        2.1560      130.2825
    817.4689     5070.0928        2.1553      130.4470
    817.6212     5080.1138        2.1531      130.9857
    817.7736     5090.1338        2.1510      131.5017
    817.9260     5100.1626        2.1510      131.4908
    818.0784     5110.1831        2.1535      130.8870
    818.2308     5115.1753        2.1592      129.5163
    818.3832     5112.5371        2.1641      128.3316
    818.5356     5109.8970        2.1672      127.5958
    818.6880     5107.2578        2.1697      127.0096
    818.8405     5104.6172        2.1702      126.8942
    818.9928     5101.9795        2.1688      127.2272
    819.1453     5099.3389        2.1677      127.4951
    819.2976     5096.7002        2.1669      127.6818
    819.4501     5090.9844        2.1660      127.8963
    819.6024     5082.8594        2.1653      128.0454
    819.7548     5074.7339        2.1605      129.1946
    819.9072     5066.6021        2.1579      129.8148
    820.0596     5058.4771        2.1525      131.1292
    820.2120     5050.3452        2.1508      131.5317
    820.3644     5042.2197        2.1532      130.9538
    820.5168     5034.0884        2.1568      130.0818
    820.6692     5029.9951        2.1585      129.6622
    820.8217     5026.5352        2.1563      130.2108
    820.9740     5023.0781        2.1567      130.1098
    821.1265     5019.6177        2.1566      130.1359
    821.2788     5016.1606        2.1561      130.2656
    821.4312     5012.7031        2.1553      130.4353
    821.5836     5009.2437        2.1544      130.6741
    821.7360     5005.8105        2.1541      130.7341
    821.8884     5002.4814        2.1547      130.6002
    822.0408     4999.1548        2.1550      130.5108
    822.1932     4995.8262        2.1540      130.7506
    822.3456     4992.4995        2.1516      131.3551
    822.4980     4989.1704        2.1482      132.1846
    822.6504     4985.8442        2.1461      132.6993
    822.8029     4982.5151        2.1470      132.4827
    822.9552     4979.1992        2.1509      131.5159
    823.1077     4975.8877        2.1549      130.5508
    823.2600     4972.5791        2.1552      130.4694
    823.4124     4969.2705        2.1530      131.0142
    823.5648     4965.9595        2.1500      131.7387
    823.7172     4962.6514        2.1470      132.4689
    823.8696     4959.3398        2.1461      132.6944
    824.0220     4956.0312        2.1483      132.1546
    824.1744     4954.6797        2.1517      131.3260
    824.3268     4953.3643        2.1536      130.8515
    824.4792     4952.0479        2.1536      130.8529
    824.6316     4950.7324        2.1523      131.1778
    824.7841     4949.4155        2.1499      131.7611
    824.9364     4948.1006        2.1477      132.2965
    825.0889     4946.7837        2.1467      132.5382
    825.2412     4946.6772        2.1458      132.7791
    825.3936     4948.4917        2.1447      133.0441
    825.5460     4950.3081        2.1441      133.1913
    825.6984     4952.1230        2.1443      133.1400
    825.8508     4953.9390        2.1455      132.8436
    826.0032     4955.7539        2.1471      132.4457
    826.1556     4957.5703        2.1480      132.2381
    826.3080     4959.3853        2.1491      131.9536
    826.4604     4950.5605        2.1502      131.6794
    826.6128     4939.8657        2.1497      131.8009
    826.7653     4929.1626        2.1495      131.8648
    826.9176     4918.4673        2.1493      131.9084
    827.0701     4907.7637        2.1494      131.8916
    827.2224     4897.0688        2.1498      131.7746
    827.3748     4886.3730        2.1496      131.8421
    827.5272     4873.6392        2.1487      132.0642
    827.6796     4855.2778        2.1476      132.3276
    827.8320     4836.9014        2.1481      132.2126
    827.9844     4818.5396        2.1481      132.1964
    828.1368     4800.1631        2.1475      132.3615
    828.2892     4781.8013        2.1445      133.1026
    828.4417     4763.4248        2.1399      134.2549
    828.5940     4745.0625        2.1323      136.1641
    828.7465     4743.8745        2.1282      137.2196
    828.8988     4748.0093        2.1265      137.6568
    829.0513     4752.1475        2.1266      137.6248
    829.2036     4756.2822        2.1275      137.3987
    829.3560     4760.4170        2.1288      137.0716
    829.5084     4764.5552        2.1305      136.6288
    829.6608     4768.6904        2.1318      136.2976
    829.8132     4777.5732        2.1275      137.4007
    829.9656     4791.7705        2.1226      138.6785
    830.1180     4805.9790        2.1125      141.3340
    830.2704     4820.1763        2.1140      140.9369
    830.4229     4834.3848        2.1222      138.7668
    830.5752     4848.5825        2.1377      134.7997
    830.7277     4862.7910        2.1467      132.5426
    830.8800     4873.5176        2.1472      132.4231
    831.0325     4868.7959        2.1457      132.7955
    831.1848     4864.0786        2.1441      133.2032
    831.3372     4859.3604        2.1443      133.1530
    831.4896     4854.6392        2.1453      132.8876
    831.6420     4849.9209        2.1462      132.6602
    831.7944     4845.1997        2.1455      132.8451
    831.9468     4840.4814        2.1431      133.4495
    832.0992     4833.7705        2.1404      134.1032
    832.2516     4826.0693        2.1384      134.6197
    832.4041     4818.3628        2.1368      135.0326
    832.5564     4810.6621        2.1353      135.3940
    832.7089     4802.9551        2.1334      135.8978
    832.8612     4795.2544        2.1316      136.3422
    833.0137     4787.5479        2.1318      136.3023
    833.1660     4782.4341        2.1338      135.7901
    833.3184     4783.7661        2.1359      135.2458
    833.4708     4785.0991        2.1364      135.1227
    833.6232     4786.4316        2.1355      135.3455
    833.7756     4787.7642        2.1334      135.8952
    833.9280     4789.0967        2.1312      136.4502
    834.0804     4790.4297        2.1311      136.4782
    834.2328     4791.7617        2.1316      136.3339
    834.3853     4791.5249        2.1320      136.2523
    834.5376     4791.1582        2.1324      136.1304
    834.6901     4790.7915        2.1330      135.9825
    834.8424     4790.4248        2.1339      135.7664
    834.9949     4790.0581        2.1352      135.4387
    835.1472     4789.6919        2.1366      135.0705
    835.2996     4789.3257        2.1377      134.8019
    835.4520     4789.8003        2.1374      134.8703
    835.6044     4790.9663        2.1359      135.2549
    835.7568     4792.1338        2.1343      135.6533
    835.9092     4793.3003        2.1326      136.0807
    836.0616     4794.4678        2.1305      136.6257
    836.2140     4795.6333        2.1290      137.0225
    836.3665     4796.8013        2.1296      136.8465
    836.5188     4797.7988        2.1309      136.5163
    836.6713     4798.1445        2.1323      136.1749
    836.8236     4798.4897        2.1339      135.7462
    836.9760     4798.8350        2.1358      135.2745
    837.1284     4799.1807        2.1373      134.8934
    837.2808     4799.5264        2.1395      134.3501
    837.4332     4799.8721        2.1397      134.2786
    837.5856     4800.2173        2.1391      134.4427
    837.7380     4793.7915        2.1372      134.9167
    837.8904     4785.6860        2.1347      135.5527
    838.0428     4777.5742        2.1347      135.5681
    838.1952     4769.4692        2.1344      135.6291
    838.3477     4761.3574        2.1357      135.3019
    838.5000     4753.2520        2.1354      135.3666
    838.6525     4745.1396        2.1327      136.0716
    838.8048     4740.9927        2.1312      136.4570
    838.9572     4742.1997        2.1298      136.8172
