~Version Information Section
VERS.              2.0  : CWLS LOG ASCII STANDARD - VERSION 2.0
WRAP.              NO   : ONE LINE PER DEPTH STEP
CREA.              21-jan-2025
#
~Well Information Section
#MNEM.UNIT         VALUE/NAME          DESCRIPTION
#_________         __________          ___________
STRT.M             305.1000            : START DEPTH
STOP.M             1424.1700           : STOP DEPTH
STEP.M             0.1524              : STEP
NULL.              -999.2500           : NULL VALUE
COMP.                                  : COMPANY
WELL.              F02-1               : WELL NAME
FLD.                                   : FIELD
LOC.                                   : LOCATION
PROV.                                  : PROVINCE
CNTY.                                  : COUNTY
STAT.                                  : STATE
CTRY.                                  : COUNTRY
SRVC.                                  : SERVICE COMPANY
DATE.                                  : LOG DATE
UWI.                                   : UNIQUE WELL ID
XCOORD.M           606554.000          : SURFACE X
YCOORD.M           6080126.000         : SURFACE Y
#
~Curve Information Section
#MNEM.UNIT         API CODE            DESCRIPTION
#_________         ________            ___________
DEPT.M                                 : 0 Depth
AI.m/sxg/cc                            : 1 AI from well tie
RHOB.g/cc                              : 2 Density
DT.us/ft                               : 3 Sonic
#
~Parameter Information Section
#MNEM.UNIT           VALUE             DESCRIPTION
#_________         __________          ___________
EKB.M              30.0000             : Elevation Kelly Bushing
EGL.M              -999.25             : Elevation Ground Level
#
~Other Information Section
#
~Ascii Data Section
# ...
   1239.6168     4825.0928        2.1396      134.2929
   1239.7692     4812.2124        2.1390      134.4607
   1239.9216     4799.3208        2.1416      133.8102
   1240.0740     4786.4404        2.1427      133.5527
   1240.2264     4773.5488        2.1443      133.1307
   1240.3788     4760.6680        2.1432      133.4088
   1240.5312     4745.0654        2.1430      133.4688
   1240.6836     4720.5947        2.1427      133.5360
   1240.8361     4696.1045        2.1408      134.0195
   1240.9884     4671.6338        2.1366      135.0959
   1241.1409     4647.1436        2.1277      137.3391
   1241.2932     4622.6724        2.1195      139.4604
   1241.4456     4598.2017        2.1147      140.7912
   1241.5980     4573.7119        2.1130      141.2138
   1241.7504     4556.5239        2.1163      140.3291
   1241.9028     4539.7295        2.1205      139.2380
   1242.0552     4522.9487        2.1214      138.9767
   1242.2076     4506.1533        2.1202      139.3194
   1242.3600     4489.3726        2.1168      140.1956
   1242.5125     4472.5781        2.1119      141.4873
   1242.6648     4455.7969        2.1078      142.5841
   1242.8173     4433.9907        2.1042      143.5981
   1242.9696     4411.1250        2.1020      144.2002
   1243.1221     4388.2412        2.1018      144.2404
   1243.2744     4365.3760        2.1041      143.6185
   1243.4268     4342.5103        2.1062      143.0301
   1243.5792     4319.6265        2.1040      143.6446
   1243.7316     4296.7612        2.0990      145.0072
   1243.8840     4272.1807        2.0946      146.2203
   1244.0364     4247.3794        2.0917      147.0829
   1244.1888     4222.5581        2.0891      147.7812
   1244.3412     4197.7573        2.0865      148.5088
   1244.4937     4172.9365        2.0826      149.6094
   1244.6460     4148.1353        2.0784      150.8908
   1244.7985     4128.6265        2.0753      151.7593
   1244.9508     4137.8252        2.0726      152.5383
   1245.1033     4147.0312        2.0690      153.5782
   1245.2556     4156.2295        2.0659      154.5543
   1245.4080     4165.4277        2.0636      155.2316
   1245.5604     4174.6333        2.0641      155.0654
   1245.7128     4183.8315        2.0657      154.6074
   1245.8652     4193.0884        2.0669      154.2184
   1246.0176     4202.3608        2.0686      153.7160
   1246.1700     4211.6421        2.0711      152.9837
   1246.3224     4220.9155        2.0767      151.3674
   1246.4749     4230.1968        2.0836      149.3649
   1246.6272     4239.4697        2.0864      148.5331
   1246.7797     4247.7583        2.0904      147.4042
   1246.9320     4236.0381        2.0906      147.3630
   1247.0845     4224.3086        2.0916      147.0642
   1247.2368     4212.5879        2.0909      147.2915
   1247.3892     4200.8672        2.0895      147.6790
   1247.5416     4189.1382        2.0863      148.5793
   1247.6940     4177.4170        2.0842      149.1395
   1247.8464     4170.8784        2.0807      150.2192
   1247.9988     4176.8105        2.0768      151.3250
   1248.1512     4182.7480        2.0673      154.1288
   1248.3036     4188.6807        2.0675      154.0751
   1248.4561     4194.6172        2.0700      153.2935
   1248.6084     4200.5493        2.0727      152.5141
   1248.7609     4206.4863        2.0718      152.7762
   1248.9132     4226.5835        2.0712      152.9437
   1249.0657     4251.3218        2.0702      153.2712
   1249.2180     4276.0410        2.0724      152.6061
   1249.3704     4300.7598        2.0769      151.2822
   1249.5228     4325.4980        2.0832      149.4708
   1249.6752     4350.2173        2.0835      149.3641
   1249.8276     4372.1113        2.0862      148.5877
   1249.9800     4375.8257        2.0905      147.3749
   1250.1324     4379.5425        2.0963      145.7744
   1250.2848     4383.2563        2.1004      144.6430
   1250.4373     4386.9736        2.1023      144.0970
   1250.5896     4390.6875        2.1017      144.2835
   1250.7421     4394.4053        2.1011      144.4445
   1250.8944     4394.1533        2.1014      144.3723
   1251.0469     4381.5229        2.1041      143.5893
   1251.1992     4368.9028        2.1046      143.4692
   1251.3516     4356.2827        2.1030      143.9151
   1251.5040     4343.6523        2.1009      144.4588
   1251.6564     4331.0317        2.0975      145.4461
   1251.8088     4318.4014        2.0921      146.9621
   1251.9612     4306.3716        2.0883      148.0029
   1252.1136     4295.4688        2.0878      148.1507
   1252.2660     4284.5747        2.0885      147.9610
   1252.4185     4273.6719        2.0888      147.8643
   1252.5708     4262.7778        2.0885      147.9379
   1252.7233     4251.8750        2.0876      148.1928
   1252.8756     4240.9805        2.0866      148.5119
   1253.0281     4233.0464        2.0856      148.7889
   1253.1804     4227.1587        2.0844      149.1068
   1253.3328     4221.2710        2.0824      149.6859
   1253.4852     4215.3779        2.0793      150.6212
   1253.6376     4209.4897        2.0769      151.2832
   1253.7900     4203.5977        2.0776      151.0694
   1253.9424     4197.7100        2.0797      150.4860
   1254.0948     4196.4976        2.0801      150.3463
   1254.2472     4195.6064        2.0790      150.6755
   1254.3997     4194.7144        2.0776      151.0810
   1254.5520     4193.8237        2.0777      151.0454
   1254.7045     4192.9321        2.0782      150.8907
   1254.8568     4192.0410        2.0776      151.0926
   1255.0093     4192.2983        2.0770      151.2654
   1255.1616     4195.1240        2.0774      151.1386
   1255.3140     4197.9487        2.0791      150.6420
   1255.4664     4200.7764        2.0800      150.3709
   1255.6188     4203.6011        2.0775      151.1239
   1255.7712     4206.4292        2.0735      152.2710
   1255.9236     4209.2539        2.0753      151.7836
   1256.0760     4210.4731        2.0794      150.5234
   1256.2284     4210.9922        2.0796      150.4946
   1256.3809     4211.5112        2.0763      151.4474
   1256.5332     4212.0298        2.0763      151.4821
   1256.6857     4212.5488        2.0790      150.6438
   1256.8380     4213.0679        2.0838      149.2644
   1256.9905     4213.3530        2.0838      149.2788
   1257.1428     4209.0894        2.0815      149.9704
   1257.2952     4204.8262        2.0841      149.1792
   1257.4476     4200.5586        2.0818      149.8861
   1257.6000     4196.2949        2.0826      149.6446
   1257.7524     4192.0278        2.0814      149.9633
   1257.9048     4187.7642        2.0783      150.8516
   1258.0573     4184.9346        2.0752      151.8008
   1258.2096     4184.4009        2.0769      151.2849
   1258.3621     4183.8662        2.0755      151.6957
   1258.5144     4183.3325        2.0747      151.9178
   1258.6669     4182.7974        2.0746      151.9554
   1258.8192     4182.2637        2.0771      151.2125
   1258.9716     4181.7300        2.0791      150.6462
   1259.1240     4184.2979        2.0776      151.0439
   1259.2764     4187.7271        2.0742      152.0911
   1259.4288     4191.1592        2.0722      152.6724
   1259.5812     4194.5884        2.0707      153.1246
   1259.7336     4198.0200        2.0734      152.3196
   1259.8860     4201.4497        2.0754      151.6969
   1260.0385     4204.2998        2.0767      151.3409
   1260.1908     4204.9448        2.0795      150.5429
   1260.3433     4205.5908        2.0830      149.5211
   1260.4956     4206.2358        2.0851      148.9004
   1260.6481     4206.8823        2.0847      149.0500
   1260.8004     4207.5273        2.0816      149.9095
   1260.9528     4208.1729        2.0792      150.6065
   1261.1052     4207.3042        2.0788      150.7522
   1261.2576     4205.1240        2.0794      150.5463
   1261.4100     4202.9424        2.0790      150.6889
   1261.5624     4200.7622        2.0778      151.0285
   1261.7148     4198.5801        2.0763      151.4594
