~Version Information Section
VERS.              2.0  : CWLS LOG ASCII STANDARD - VERSION 2.0
WRAP.              NO   : ONE LINE PER DEPTH STEP
CREA.              21-jan-2025
#
~Well Information Section
#MNEM.UNIT         VALUE/NAME          DESCRIPTION
#_________         __________          ___________
STRT.M             305.1000            : START DEPTH
STOP.M             1424.1700           : STOP DEPTH
STEP.M             0.1524              : STEP
NULL.              -999.2500           : NULL VALUE
COMP.                                  : COMPANY
WELL.              F02-1               : WELL NAME
FLD.                                   : FIELD
LOC.                                   : LOCATION
PROV.                                  : PROVINCE
CNTY.                                  : COUNTY
STAT.                                  : STATE
CTRY.                                  : COUNTRY
SRVC.                                  : SERVICE COMPANY
DATE.                                  : LOG DATE
UWI.                                   : UNIQUE WELL ID
XCOORD.M           606554.000          : SURFACE X
YCOORD.M           6080126.000         : SURFACE Y
#
~Curve Information Section
#MNEM.UNIT         API CODE            DESCRIPTION
#_________         ________            ___________
DEPT.M                                 : 0 Depth
AI.m/sxg/cc                            : 1 AI from well tie
RHOB.g/cc                              : 2 Density
DT.us/ft                               : 3 Sonic
#
~Parameter Information Section
#MNEM.UNIT           VALUE             DESCRIPTION
#_________         __________          ___________
EKB.M              30.0000             : Elevation Kelly Bushing
EGL.M              -999.25             : Elevation Ground Level
#
~Other Information Section
#
~Ascii Data Section
# ...
   1039.3632     5422.0596        2.1872      122.9944
   1039.5156     5421.4819        2.1873      122.9816
   1039.6680     5420.9038        2.1871      123.0216
   1039.8204     5420.3257        2.1886      122.6783
   1039.9728     5419.7476        2.1902      122.3380
   1040.1252     5419.1699        2.1916      122.0023
   1040.2776     5417.8208        2.1905      122.2558
   1040.4301     5402.6543        2.1893      122.5359
   1040.5824     5387.4995        2.1890      122.6032
   1040.7349     5372.3330        2.1890      122.5965
   1040.8872     5357.1777        2.1889      122.6205
   1041.0397     5342.0112        2.1880      122.8135
   1041.1920     5326.8569        2.1869      123.0758
   1041.3444     5311.7017        2.1854      123.3993
   1041.4968     5296.5352        2.1839      123.7640
   1041.6492     5286.1997        2.1835      123.8416
   1041.8016     5276.2905        2.1829      123.9702
   1041.9540     5266.3887        2.1825      124.0468
   1042.1064     5256.4790        2.1800      124.6563
   1042.2588     5246.5776        2.1746      125.8971
   1042.4113     5236.6685        2.1701      126.9251
   1042.5636     5226.7666        2.1665      127.7670
   1042.7161     5216.8569        2.1655      128.0185
   1042.8684     5222.8354        2.1676      127.5109
   1043.0209     5229.4683        2.1697      127.0182
   1043.1732     5236.0957        2.1693      127.1052
   1043.3256     5242.7231        2.1676      127.5268
   1043.4780     5249.3560        2.1660      127.8889
   1043.6304     5255.9829        2.1656      127.9779
   1043.7828     5262.6157        2.1663      127.8156
   1043.9352     5266.2393        2.1681      127.3696
   1044.0876     5247.6953        2.1715      126.5734
   1044.2400     5229.1665        2.1769      125.3354
   1044.3925     5210.6230        2.1853      123.4701
   1044.5448     5192.0942        2.1936      121.5864
   1044.6973     5173.5508        2.1966      120.9030
   1044.8496     5155.0215        2.1935      121.5900
   1045.0021     5136.4775        2.1872      122.9903
   1045.1544     5117.8760        2.1802      124.5519
   1045.3068     5095.3877        2.1733      126.2027
   1045.4592     5072.8813        2.1627      128.6913
   1045.6116     5050.3931        2.1502      131.6684
   1045.7640     5027.8867        2.1417      133.7736
   1045.9164     5005.3979        2.1383      134.6685
   1046.0688     4982.8916        2.1405      134.0789
   1046.2212     4960.4033        2.1458      132.7787
   1046.3737     4945.6846        2.1508      131.5617
   1046.5260     4941.6045        2.1541      130.7055
   1046.6785     4937.5205        2.1529      131.0399
   1046.8308     4933.4399        2.1471      132.4468
   1046.9832     4929.3594        2.1434      133.3568
   1047.1356     4925.2754        2.1420      133.7137
   1047.2880     4921.1948        2.1440      133.2022
   1047.4404     4917.1108        2.1491      131.9732
   1047.5928     4908.2739        2.1555      130.3987
   1047.7452     4898.6792        2.1556      130.3676
   1047.8976     4889.0923        2.1536      130.8659
   1048.0500     4879.4971        2.1544      130.6580
   1048.2024     4869.9102        2.1569      130.0438
   1048.3549     4860.3154        2.1538      130.7720
   1048.5072     4850.7275        2.1500      131.7660
   1048.6597     4845.7495        2.1397      134.2897
   1048.8120     4856.0967        2.1262      137.7387
   1048.9644     4866.4448        2.1234      138.4577
   1049.1168     4876.8008        2.1244      138.1978
   1049.2692     4887.1484        2.1289      137.0358
   1049.4216     4897.5044        2.1350      135.4968
   1049.5740     4907.8521        2.1416      133.8362
   1049.7264     4918.2085        2.1441      133.1698
   1049.8788     4929.4917        2.1416      133.8106
   1050.0312     4940.9023        2.1367      135.0538
   1050.1836     4952.3032        2.1366      135.0965
   1050.3361     4963.7134        2.1393      134.3739
   1050.4884     4975.1143        2.1436      133.3000
   1050.6409     4986.5249        2.1478      132.2796
   1050.7932     4997.9253        2.1523      131.1863
   1050.9456     5006.7876        2.1562      130.2071
   1051.0980     5011.6592        2.1593      129.4834
   1051.2504     5016.5273        2.1609      129.0961
   1051.4028     5021.3989        2.1565      130.1307
   1051.5552     5026.2666        2.1496      131.9023
   1051.7076     5031.1382        2.1473      132.4205
   1051.8600     5036.0063        2.1506      131.5866
   1052.0125     5040.8779        2.1562      130.2441
   1052.1648     5068.7852        2.1580      129.7685
   1052.3173     5105.1416        2.1555      130.4202
   1052.4696     5141.4688        2.1505      131.6133
   1052.6221     5177.8247        2.1471      132.4638
   1052.7744     5214.1519        2.1505      131.6600
   1052.9268     5250.4780        2.1554      130.3919
   1053.0792     5286.8350        2.1558      130.3170
   1053.2316     5322.8535        2.1556      130.3803
   1053.3840     5355.9268        2.1595      129.4735
   1053.5364     5388.9727        2.1665      127.7332
   1053.6888     5422.0454        2.1740      126.0105
   1053.8412     5455.0908        2.1785      124.9789
   1053.9937     5488.1641        2.1817      124.2626
   1054.1460     5521.2104        2.1850      123.4673
   1054.2985     5554.2827        2.1929      121.7029
   1054.4508     5584.6025        2.2040      119.2934
   1054.6033     5582.9292        2.2118      117.6256
   1054.7556     5581.2573        2.2127      117.4314
   1054.9080     5579.5854        2.2099      118.0405
   1055.0604     5577.9126        2.2069      118.6609
   1055.2128     5576.2402        2.2039      119.3234
   1055.3652     5574.5669        2.2034      119.4346
   1055.5176     5572.8955        2.2040      119.2969
   1055.6700     5571.2222        2.2044      119.2027
   1055.8224     5569.6694        2.2040      119.2982
   1055.9749     5568.1802        2.2021      119.6816
   1056.1272     5566.6919        2.1987      120.4588
   1056.2797     5565.2026        2.1942      121.4423
   1056.4320     5563.7144        2.1916      122.0123
   1056.5845     5562.2251        2.1927      121.7922
   1056.7368     5560.7368        2.1958      121.0627
   1056.8892     5559.2490        2.1998      120.1937
   1057.0416     5556.2793        2.2011      119.9228
   1057.1940     5550.7764        2.2001      120.1062
   1057.3464     5545.2686        2.1957      121.1203
   1057.4988     5539.7651        2.1917      121.9959
   1057.6512     5534.2583        2.1930      121.7161
   1057.8036     5528.7549        2.1948      121.3228
   1057.9561     5523.2476        2.1988      120.3975
   1058.1084     5517.7441        2.2029      119.5284
   1058.2609     5512.4419        2.2023      119.6598
   1058.4132     5509.3730        2.2025      119.6097
   1058.5657     5506.3022        2.2023      119.6736
   1058.7180     5503.2344        2.2023      119.6636
   1058.8704     5500.1655        2.2025      119.6215
   1059.0228     5497.0947        2.2014      119.8284
   1059.1752     5494.0269        2.1968      120.8895
   1059.3276     5490.9556        2.1911      122.1448
   1059.4800     5487.8872        2.1803      124.5622
   1059.6324     5488.8789        2.1791      124.8429
   1059.7848     5490.8359        2.1819      124.2309
   1059.9373     5492.7939        2.1853      123.4150
   1060.0896     5494.7500        2.1916      122.0039
   1060.2421     5496.7080        2.1987      120.4420
   1060.3944     5498.6646        2.1996      120.2330
   1060.5469     5500.6221        2.1982      120.5674
   1060.6992     5502.5786        2.1966      120.9182
   1060.8516     5500.0879        2.1949      121.2897
   1061.0040     5494.7461        2.1956      121.1397
   1061.1564     5489.4082        2.1957      121.1066
   1061.3088     5484.0664        2.1934      121.6105
   1061.4612     5478.7295        2.1928      121.7482
