~Version Information Section
VERS.              2.0  : CWLS LOG ASCII STANDARD - VERSION 2.0
WRAP.              NO   : ONE LINE PER DEPTH STEP
CREA.              21-jan-2025
#
~Well Information Section
#MNEM.UNIT         VALUE/NAME          DESCRIPTION
#_________         __________          ___________
STRT.M             305.1000            : START DEPTH
STOP.M             1424.1700           : STOP DEPTH
STEP.M             0.1524              : STEP
NULL.              -999.2500           : NULL VALUE
COMP.                                  : COMPANY
WELL.              F02-1               : WELL NAME
FLD.                                   : FIELD
LOC.                                   : LOCATION
PROV.                                  : PROVINCE
CNTY.                                  : COUNTY
STAT.                                  : STATE
CTRY.                                  : COUNTRY
SRVC.                                  : SERVICE COMPANY
DATE.                                  : LOG DATE
UWI.                                   : UNIQUE WELL ID
XCOORD.M           606554.000          : SURFACE X
YCOORD.M           6080126.000         : SURFACE Y
#
~Curve Information Section
#MNEM.UNIT         API CODE            DESCRIPTION
#_________         ________            ___________
DEPT.M                                 : 0 Depth
AI.m/sxg/cc                            : 1 AI from well tie
RHOB.g/cc                              : 2 Density
DT.us/ft                               : 3 Sonic
#
~Parameter Information Section
#MNEM.UNIT           VALUE             DESCRIPTION
#_________         __________          ___________
EKB.M              30.0000             : Elevation Kelly Bushing
EGL.M              -999.25             : Elevation Ground Level
#
~Other Information Section
#
~Ascii Data Section
# ...
   1106.1144     5019.0581        2.1599      129.3339
   1106.2668     4988.1406        2.1587      129.6332
   1106.4192     4970.4414        2.1499      131.7761
   1106.5717     4956.2031        2.1557      130.3548
   1106.7240     4941.9756        2.1560      130.2727
   1106.8765     4927.7363        2.1537      130.8539
   1107.0288     4913.5088        2.1514      131.3964
   1107.1813     4899.2695        2.1475      132.3451
   1107.3336     4885.0425        2.1390      134.4641
   1107.4860     4873.5366        2.1375      134.8612
   1107.6384     4872.0278        2.1384      134.6057
   1107.7908     4870.5205        2.1416      133.8321
   1107.9432     4869.0122        2.1472      132.4345
   1108.0956     4867.5044        2.1475      132.3533
   1108.2480     4865.9961        2.1444      133.1151
   1108.4004     4864.4888        2.1401      134.1988
   1108.5529     4862.9805        2.1363      135.1518
   1108.7052     4871.8789        2.1356      135.3386
   1108.8577     4884.4814        2.1360      135.2145
   1109.0100     4897.0747        2.1363      135.1443
   1109.1625     4909.6777        2.1364      135.1191
   1109.3148     4922.2705        2.1366      135.0685
   1109.4672     4934.8638        2.1371      134.9554
   1109.6196     4947.4668        2.1380      134.7277
   1109.7720     4954.3472        2.1399      134.2515
   1109.9244     4949.6748        2.1431      133.4762
   1110.0768     4945.0059        2.1475      132.3167
   1110.2292     4940.3330        2.1542      130.7028
   1110.3816     4935.6636        2.1601      129.2947
   1110.5341     4930.9912        2.1617      128.8807
   1110.6864     4926.3223        2.1594      129.4780
   1110.8389     4921.6499        2.1539      130.7897
   1110.9912     4909.0264        2.1497      131.8000
   1111.1437     4892.8423        2.1498      131.7912
   1111.2960     4876.6699        2.1511      131.4650
   1111.4484     4860.4985        2.1492      131.9296
   1111.6008     4844.3140        2.1440      133.2140
   1111.7532     4828.1416        2.1363      135.1275
   1111.9056     4811.9570        2.1298      136.8649
   1112.0580     4804.7012        2.1285      137.1391
   1112.2104     4831.1816        2.1311      136.4697
   1112.3628     4857.6406        2.1356      135.3467
   1112.5153     4884.1216        2.1427      133.4951
   1112.6676     4910.5811        2.1469      132.4783
   1112.8201     4937.0615        2.1485      132.0936
   1112.9724     4963.5205        2.1462      132.6302
   1113.1248     4989.9800        2.1369      134.9212
   1113.2772     4997.4980        2.1264      137.7345
   1113.4296     4998.6733        2.1161      140.3873
   1113.5820     4999.8501        2.1118      141.5768
   1113.7344     5001.0259        2.1226      138.8063
   1113.8868     5002.2021        2.1414      133.7794
   1114.0392     5003.3779        2.1583      129.7057
   1114.1917     5004.5547        2.1716      126.6042
   1114.3440     4997.5327        2.1810      124.4712
   1114.4965     4972.7231        2.1912      122.0574
   1114.6488     4947.9331        2.1908      122.1997
   1114.8013     4923.1230        2.1826      124.0296
   1114.9536     4898.3330        2.1773      125.1426
   1115.1060     4873.5435        2.1593      129.6042
   1115.2584     4848.7334        2.1329      136.0879
   1115.4108     4823.9434        2.1168      140.1979
   1115.5632     4815.7456        2.1195      139.5321
   1115.7156     4820.5303        2.1259      137.7731
   1115.8680     4825.3193        2.1298      136.8011
   1116.0204     4830.1040        2.1304      136.6549
   1116.1729     4834.8926        2.1295      136.8658
   1116.3252     4839.6777        2.1269      137.5661
   1116.4777     4844.4663        2.1277      137.3353
   1116.6300     4848.9819        2.1311      136.4846
   1116.7825     4852.8008        2.1377      134.8374
   1116.9348     4856.6167        2.1455      132.8748
   1117.0872     4860.4326        2.1486      132.0782
   1117.2396     4864.2515        2.1492      131.9437
   1117.3920     4868.0669        2.1464      132.6189
   1117.5444     4871.8853        2.1416      133.7901
   1117.6968     4875.7012        2.1385      134.6179
   1117.8492     4879.0522        2.1391      134.4536
   1118.0016     4882.2681        2.1415      133.8491
   1118.1541     4885.4873        2.1427      133.5401
   1118.3064     4888.7031        2.1411      133.9456
   1118.4589     4891.9219        2.1375      134.8461
   1118.6112     4895.1377        2.1357      135.3068
   1118.7637     4898.3564        2.1369      135.0255
   1118.9160     4900.3657        2.1402      134.1343
   1119.0684     4900.0430        2.1435      133.3449
   1119.2208     4899.7202        2.1438      133.2579
   1119.3732     4899.3984        2.1436      133.3220
   1119.5256     4899.0757        2.1458      132.7562
   1119.6780     4898.7539        2.1499      131.7384
   1119.8304     4898.4316        2.1524      131.1580
   1119.9828     4898.1094        2.1505      131.6066
   1120.1353     4898.1963        2.1463      132.6706
   1120.2876     4898.3892        2.1433      133.3992
   1120.4401     4898.5830        2.1426      133.5778
   1120.5924     4898.7764        2.1438      133.2855
   1120.7449     4898.9702        2.1465      132.6110
   1120.8972     4899.1636        2.1480      132.2329
   1121.0496     4899.3569        2.1473      132.4013
   1121.2020     4902.2310        2.1433      133.3535
   1121.3544     4912.3213        2.1352      135.3925
   1121.5068     4922.4204        2.1295      136.9235
   1121.6592     4932.5107        2.1283      137.2035
   1121.8116     4942.6094        2.1323      136.1945
   1121.9640     4952.7002        2.1406      134.1166
   1122.1165     4962.7988        2.1484      132.0799
   1122.2688     4972.8901        2.1516      131.3451
   1122.4213     4968.5381        2.1526      131.0923
   1122.5736     4961.5186        2.1523      131.1600
   1122.7261     4954.4937        2.1509      131.5203
   1122.8784     4947.4741        2.1533      130.9260
   1123.0308     4940.4546        2.1585      129.6638
   1123.1832     4933.4297        2.1586      129.6521
   1123.3356     4926.4106        2.1570      130.0558
   1123.4880     4919.8457        2.1507      131.5978
   1123.6404     4915.2212        2.1451      132.9360
   1123.7928     4910.5928        2.1458      132.7819
   1123.9452     4905.9678        2.1476      132.3016
   1124.0977     4901.3394        2.1493      131.9129
   1124.2500     4896.7144        2.1485      132.1049
   1124.4025     4892.0859        2.1441      133.1732
   1124.5548     4887.4614        2.1399      134.2009
   1124.7073     4885.0967        2.1358      135.2931
   1124.8596     4883.8804        2.1322      136.1843
   1125.0120     4882.6641        2.1303      136.6683
   1125.1644     4881.4468        2.1291      137.0060
   1125.3168     4880.2305        2.1323      136.1412
   1125.4692     4879.0132        2.1366      135.0654
   1125.6216     4877.7964        2.1431      133.4743
   1125.7740     4875.0312        2.1519      131.2971
   1125.9264     4868.1504        2.1546      130.5966
   1126.0789     4861.2632        2.1557      130.3470
   1126.2312     4854.3818        2.1508      131.5413
   1126.3837     4847.4956        2.1447      133.0156
   1126.5360     4840.6143        2.1420      133.7360
   1126.6885     4833.7275        2.1393      134.4016
   1126.8408     4826.8462        2.1354      135.3741
   1126.9932     4833.8047        2.1338      135.7652
   1127.1456     4845.6250        2.1321      136.2295
   1127.2980     4857.4360        2.1336      135.8182
   1127.4504     4869.2568        2.1386      134.5618
   1127.6028     4881.0674        2.1394      134.3603
   1127.7552     4892.8882        2.1372      134.9443
   1127.9076     4904.6997        2.1342      135.6900
   1128.0601     4912.6504        2.1323      136.1687
   1128.2124     4914.6470        2.1334      135.8888
