~Version Information Section
VERS.              2.0  : CWLS LOG ASCII STANDARD - VERSION 2.0
WRAP.              NO   : ONE LINE PER DEPTH STEP
CREA.              21-jan-2025
#
~Well Information Section
#MNEM.UNIT         VALUE/NAME          DESCRIPTION
#_________         __________          ___________
STRT.M             305.1000            : START DEPTH
STOP.M             1424.1700           : STOP DEPTH
STEP.M             0.1524              : STEP
NULL.              -999.2500           : NULL VALUE
COMP.                                  : COMPANY
WELL.              F02-1               : WELL NAME
FLD.                                   : FIELD
LOC.                                   : LOCATION
PROV.                                  : PROVINCE
CNTY.                                  : COUNTY
STAT.                                  : STATE
CTRY.                                  : COUNTRY
SRVC.                                  : SERVICE COMPANY
DATE.                                  : LOG DATE
UWI.                                   : UNIQUE WELL ID
XCOORD.M           606554.000          : SURFACE X
YCOORD.M           6080126.000         : SURFACE Y
#
~Curve Information Section
#MNEM.UNIT         API CODE            DESCRIPTION
#_________         ________            ___________
DEPT.M                                 : 0 Depth
AI.m/sxg/cc                            : 1 AI from well tie
RHOB.g/cc                              : 2 Density
DT.us/ft                               : 3 Sonic
#
~Parameter Information Section
#MNEM.UNIT           VALUE             DESCRIPTION
#_________         __________          ___________
EKB.M              30.0000             : Elevation Kelly Bushing
EGL.M              -999.25             : Elevation Ground Level
#
~Other Information Section
#
~Ascii Data Section
# ...
    883.6105     4527.5635        2.1016      144.2939
    883.7628     4538.2847        2.1046      143.4702
    883.9152     4549.0059        2.1087      142.3692
    884.0676     4559.7349        2.1127      141.2997
    884.2200     4570.4561        2.1188      139.6686
    884.3724     4581.1855        2.1217      138.9039
    884.5248     4591.9067        2.1215      138.9714
    884.6772     4589.1768        2.1188      139.6617
    884.8296     4585.0786        2.1167      140.2306
    884.9821     4580.9775        2.1159      140.4417
    885.1344     4576.8799        2.1153      140.5882
    885.2869     4572.7783        2.1135      141.0739
    885.4392     4568.6802        2.1085      142.4154
    885.5916     4564.5830        2.1087      142.3520
    885.7440     4561.7422        2.1115      141.6164
    885.8964     4559.1895        2.1174      140.0385
    886.0488     4556.6348        2.1212      139.0477
    886.2012     4554.0815        2.1224      138.7128
    886.3536     4551.5269        2.1222      138.7724
    886.5060     4548.9741        2.1208      139.1401
    886.6584     4546.4194        2.1146      140.7742
    886.8108     4545.5791        2.1097      142.1072
    886.9633     4545.6113        2.1051      143.3424
    887.1156     4545.6440        2.1023      144.0960
    887.2681     4545.6763        2.1024      144.0872
    887.4204     4545.7085        2.1025      144.0472
    887.5728     4545.7412        2.1022      144.1288
    887.7252     4545.7739        2.1040      143.6305
    887.8776     4545.4258        2.1078      142.6049
    888.0300     4544.9150        2.1137      141.0309
    888.1824     4544.4053        2.1222      138.7838
    888.3348     4543.8950        2.1276      137.3747
    888.4872     4543.3848        2.1280      137.2777
    888.6396     4542.8745        2.1225      138.6964
    888.7920     4542.3643        2.1132      141.1560
    888.9445     4529.6626        2.1064      142.9732
    889.0968     4506.5791        2.1043      143.5521
    889.2493     4483.4771        2.1065      142.9517
    889.4016     4460.3931        2.1114      141.6283
    889.5540     4437.3096        2.1156      140.5228
    889.7064     4414.2070        2.1166      140.2373
    889.8588     4391.1235        2.1147      140.7532
    890.0112     4372.3394        2.1097      142.0887
    890.1636     4358.1919        2.1031      143.9037
    890.3160     4344.0332        2.0976      145.3948
    890.4684     4329.8857        2.0932      146.6259
    890.6208     4315.7275        2.0890      147.8240
    890.7732     4301.5801        2.0834      149.3967
    890.9257     4287.4214        2.0780      150.9726
    891.0780     4290.3643        2.0771      151.2371
    891.2305     4300.9678        2.0804      150.2786
    891.3828     4311.5625        2.0846      149.0674
    891.5352     4322.1582        2.0880      148.0985
    891.6876     4332.7612        2.0902      147.4601
    891.8400     4343.3564        2.0909      147.2673
    891.9924     4353.9600        2.0913      147.1701
    892.1448     4363.9995        2.0906      147.3529
    892.2972     4374.0220        2.0884      147.9887
    892.4496     4384.0366        2.0898      147.5941
    892.6021     4394.0596        2.0939      146.4449
    892.7544     4404.0742        2.0953      146.0416
    892.9069     4414.0967        2.0961      145.8093
    893.0592     4425.1440        2.0967      145.6458
    893.2117     4442.4927        2.0970      145.5738
    893.3640     4459.8276        2.0985      145.1563
    893.5164     4477.1621        2.0990      145.0234
    893.6688     4494.5112        2.1004      144.6301
    893.8212     4511.8457        2.1031      143.8908
    893.9736     4529.1943        2.1053      143.2814
    894.1260     4543.2920        2.1043      143.5597
    894.2784     4545.9639        2.1014      144.3448
    894.4308     4548.6338        2.1019      144.2094
    894.5833     4551.3057        2.1048      143.4288
    894.7356     4553.9756        2.1093      142.1882
    894.8881     4556.6479        2.1159      140.4412
    895.0404     4559.3179        2.1225      138.6868
    895.1929     4561.9897        2.1241      138.2806
    895.3452     4551.0835        2.1254      137.9314
    895.4976     4539.5039        2.1252      138.0080
    895.6500     4527.9146        2.1215      138.9498
    895.8024     4516.3354        2.1167      140.2310
    895.9548     4504.7461        2.1081      142.5278
    896.1072     4493.1665        2.1017      144.2645
    896.2596     4482.7061        2.0977      145.3682
    896.4120     4486.3481        2.0996      144.8371
    896.5645     4489.9932        2.1041      143.6137
    896.7168     4493.6353        2.1104      141.9019
    896.8693     4497.2808        2.1136      141.0363
    897.0216     4500.9229        2.1117      141.5572
    897.1741     4504.5679        2.1082      142.4989
    897.3264     4507.9097        2.1048      143.4199
    897.4788     4507.0059        2.1022      144.1364
    897.6312     4506.1016        2.1002      144.6786
    897.7836     4505.1978        2.0990      145.0208
    897.9360     4504.2930        2.1010      144.4573
    898.0884     4503.3896        2.1067      142.8994
    898.2408     4502.4854        2.1112      141.6962
    898.3932     4501.7319        2.1143      140.8717
    898.5457     4502.4282        2.1148      140.7219
    898.6980     4503.1235        2.1135      141.0705
    898.8505     4503.8198        2.1113      141.6571
    899.0028     4504.5146        2.1086      142.3897
    899.1553     4505.2109        2.1052      143.3244
    899.3076     4505.9062        2.1015      144.3407
    899.4600     4507.8237        2.1006      144.5860
    899.6124     4524.0879        2.1027      144.0099
    899.7648     4540.3398        2.1062      143.0291
    899.9172     4556.6040        2.1099      142.0423
    900.0696     4572.8560        2.1121      141.4430
    900.2220     4589.1201        2.1123      141.4051
    900.3744     4605.3721        2.1110      141.7464
    900.5269     4621.0884        2.1089      142.3220
    900.6792     4626.8237        2.1074      142.7048
    900.8317     4632.5630        2.1089      142.3060
    900.9840     4638.2983        2.1130      141.2167
    901.1364     4644.0337        2.1197      139.4453
    901.2888     4649.7729        2.1273      137.4404
    901.4412     4655.5078        2.1307      136.5829
    901.5936     4661.2471        2.1302      136.7172
    901.7460     4650.7446        2.1288      137.0595
    901.8984     4638.0630        2.1266      137.6246
    902.0508     4625.3921        2.1233      138.4851
    902.2032     4612.7114        2.1201      139.3235
    902.3556     4600.0400        2.1168      140.2004
    902.5081     4587.3589        2.1150      140.6760
    902.6604     4574.6880        2.1153      140.6079
    902.8129     4570.2607        2.1169      140.1756
    902.9652     4569.3828        2.1186      139.7111
    903.1176     4568.5049        2.1202      139.3047
    903.2700     4567.6260        2.1202      139.3100
    903.4224     4566.7480        2.1191      139.5799
    903.5748     4565.8691        2.1167      140.2161
    903.7272     4564.9907        2.1126      141.3062
    903.8796     4563.0801        2.1056      143.2092
    904.0320     4560.3643        2.1004      144.6237
    904.1844     4557.6460        2.1014      144.3587
    904.3368     4554.9302        2.1063      143.0023
    904.4893     4552.2124        2.1137      141.0290
    904.6416     4549.4961        2.1185      139.7404
    904.7941     4546.7778        2.1171      140.1181
    904.9464     4542.3926        2.1171      140.1078
    905.0988     4536.4971        2.1176      139.9962
    905.2512     4530.5972        2.1179      139.8934
    905.4036     4524.7026        2.1175      140.0143
    905.5560     4518.8022        2.1152      140.6341
    905.7084     4512.9072        2.1129      141.2223
