~Version Information Section
VERS.              2.0  : CWLS LOG ASCII STANDARD - VERSION 2.0
WRAP.              NO   : ONE LINE PER DEPTH STEP
CREA.              21-jan-2025
#
~Well Information Section
#MNEM.UNIT         VALUE/NAME          DESCRIPTION
#_________         __________          ___________
STRT.M             29.2900             : START DEPTH
STOP.M             1699.9900           : STOP DEPTH
STEP.M             0.1524              : STEP
NULL.              -999.2500           : NULL VALUE
COMP.                                  : COMPANY
WELL.              F06-1               : WELL NAME
FLD.                                   : FIELD
LOC.                                   : LOCATION
PROV.                                  : PROVINCE
CNTY.                                  : COUNTY
STAT.                                  : STATE
CTRY.                                  : COUNTRY
SRVC.                                  : SERVICE COMPANY
DATE.                                  : LOG DATE
UWI.                                   : UNIQUE WELL ID
XCOORD.M           607903.000          : SURFACE X
YCOORD.M           6077213.000         : SURFACE Y
#
~Curve Information Section
#MNEM.UNIT         API CODE            DESCRIPTION
#_________         ________            ___________
DEPT.M                                 : 0 Depth
AI.m/sxg/cc                            : 1 AI from well tie
RHOB.g/cc                              : 2 Density
DT.us/ft                               : 3 Sonic
#
~Parameter Information Section
#MNEM.UNIT           VALUE             DESCRIPTION
#_________         __________          ___________
EKB.M              28.6400             : Elevation Kelly Bushing
EGL.M              -999.25             : Elevation Ground Level
#
~Other Information Section
#
~Ascii Data Section
# ...
   1030.5580     5092.2319        2.2055      132.8845
   1030.7104     5081.1631        2.2143      131.3623
   1030.8628     5070.1035        2.2297      128.6843
   1031.0153     5059.0352        2.2354      127.7047
   1031.1676     5047.9751        2.2299      128.6534
   1031.3201     5036.9062        2.2202      130.3373
   1031.4724     5025.8467        2.2098      132.1357
   1031.6249     5014.7212        2.2045      133.0460
   1031.7772     5003.5381        2.2013      133.6029
   1031.9296     4992.3555        2.1996      133.9085
   1032.0820     4981.1636        2.1983      134.1284
   1032.2344     4969.9805        2.1949      134.7262
   1032.3868     4958.7886        2.1938      134.9065
   1032.5392     4947.6055        2.1930      135.0335
   1032.6917     4940.5210        2.1916      135.2837
   1032.8440     4947.1372        2.1904      135.4983
   1032.9965     4953.7578        2.1880      135.9163
   1033.1488     4960.3735        2.1880      135.9054
   1033.3013     4966.9946        2.1906      135.4595
   1033.4536     4973.6108        2.1927      135.1034
   1033.6061     4980.2319        2.1940      134.8796
   1033.7584     4987.1616        2.1940      134.8819
   1033.9108     4999.6279        2.1921      135.2006
   1034.0632     5012.1040        2.1902      135.5302
   1034.2156     5024.5703        2.1905      135.4802
   1034.3680     5037.0474        2.1945      134.7881
   1034.5204     5049.5132        2.1997      133.8930
   1034.6729     5061.9897        2.2032      133.2763
   1034.8252     5074.4561        2.2048      132.9897
   1034.9777     5073.1094        2.2049      132.9718
   1035.1300     5068.9248        2.2049      132.9878
   1035.2825     5064.7363        2.2051      132.9472
   1035.4348     5060.5518        2.2056      132.8574
   1035.5873     5056.3633        2.2070      132.6184
   1035.7396     5052.1782        2.2092      132.2509
   1035.8920     5047.9937        2.2118      131.7828
   1036.0444     5053.3242        2.2143      131.3534
   1036.1968     5067.9375        2.2158      131.0958
   1036.3492     5082.5625        2.2142      131.3707
   1036.5016     5097.1758        2.2077      132.5024
   1036.6541     5111.8003        2.1992      133.9772
   1036.8064     5126.4136        2.1920      135.2210
   1036.9589     5141.0391        2.1883      135.8521
   1037.1112     5159.4180        2.1894      135.6739
   1037.2637     5190.8418        2.1946      134.7641
   1037.4160     5222.2402        2.2017      133.5390
   1037.5685     5253.6641        2.2082      132.4114
   1037.7208     5285.0635        2.2163      131.0041
   1037.8732     5316.4624        2.2257      129.3740
   1038.0256     5347.8857        2.2345      127.8582
   1038.1780     5379.2852        2.2395      126.9947
   1038.3304     5386.5850        2.2436      126.2944
   1038.4828     5388.0869        2.2451      126.0165
   1038.6353     5389.5894        2.2446      126.1068
   1038.7876     5391.0913        2.2455      125.9587
   1038.9401     5392.5942        2.2453      125.9953
   1039.0924     5394.0957        2.2441      126.1938
   1039.2449     5395.5986        2.2432      126.3545
   1039.3972     5396.6084        2.2432      126.3533
   1039.5496     5393.4209        2.2434      126.3162
   1039.7020     5390.2300        2.2445      126.1200
   1039.8544     5387.0425        2.2453      125.9970
   1040.0068     5383.8521        2.2438      126.2469
   1040.1592     5380.6650        2.2410      126.7251
   1040.3116     5377.4741        2.2384      127.1879
   1040.4640     5374.2866        2.2376      127.3128
   1040.6165     5371.0815        2.2386      127.1512
   1040.7688     5367.8608        2.2388      127.1128
   1040.9213     5364.6377        2.2395      126.9932
   1041.0736     5361.4165        2.2383      127.1927
   1041.2261     5358.1934        2.2374      127.3462
   1041.3784     5354.9722        2.2374      127.3506
   1041.5308     5351.7510        2.2374      127.3506
   1041.6832     5348.5273        2.2377      127.2986
   1041.8356     5346.2173        2.2388      127.1103
   1041.9880     5344.2490        2.2403      126.8552
   1042.1404     5342.2822        2.2415      126.6443
   1042.2928     5340.3140        2.2406      126.7939
   1042.4452     5338.3467        2.2402      126.8719
   1042.5977     5336.3784        2.2408      126.7743
   1042.7500     5334.4121        2.2409      126.7529
   1042.9025     5332.6719        2.2387      127.1410
   1043.0548     5334.5576        2.2322      128.2576
   1043.2073     5336.4448        2.2266      129.2265
   1043.3596     5338.3311        2.2250      129.5149
   1043.5120     5340.2163        2.2252      129.4735
   1043.6644     5342.1040        2.2265      129.2331
   1043.8168     5343.9893        2.2304      128.5564
   1043.9692     5345.8765        2.2355      127.6765
   1044.1216     5346.8008        2.2393      127.0180
   1044.2740     5346.8105        2.2417      126.6070
   1044.4264     5346.8208        2.2428      126.4300
   1044.5789     5346.8311        2.2431      126.3687
   1044.7312     5346.8408        2.2420      126.5676
   1044.8837     5346.8511        2.2400      126.9133
   1045.0360     5346.8613        2.2381      127.2386
   1045.1885     5346.8711        2.2359      127.6225
   1045.3408     5344.4082        2.2343      127.8881
   1045.4932     5341.5630        2.2340      127.9483
   1045.6456     5338.7158        2.2340      127.9483
   1045.7980     5335.8706        2.2340      127.9483
   1045.9504     5333.0234        2.2336      128.0157
   1046.1028     5330.1787        2.2338      127.9811
   1046.2552     5327.3311        2.2353      127.7236
   1046.4076     5325.4058        2.2365      127.5076
   1046.5601     5327.3667        2.2373      127.3740
   1046.7124     5329.3257        2.2378      127.2889
   1046.8649     5331.2866        2.2381      127.2324
   1047.0172     5333.2456        2.2365      127.5071
   1047.1697     5335.2065        2.2323      128.2377
   1047.3220     5337.1660        2.2277      129.0478
   1047.4744     5339.1250        2.2274      129.0902
   1047.6268     5338.9111        2.2284      128.9053
   1047.7792     5337.3188        2.2316      128.3607
   1047.9316     5335.7251        2.2385      127.1688
   1048.0840     5334.1328        2.2398      126.9336
   1048.2365     5332.5396        2.2405      126.8258
   1048.3888     5330.9468        2.2407      126.7813
   1048.5413     5329.3530        2.2403      126.8644
   1048.6936     5327.7607        2.2407      126.7918
   1048.8461     5326.4526        2.2395      126.9921
   1048.9984     5325.1475        2.2382      127.2285
   1049.1509     5323.8418        2.2359      127.6271
   1049.3032     5322.5366        2.2335      128.0284
   1049.4556     5321.2310        2.2308      128.4962
   1049.6080     5319.9248        2.2269      129.1806
   1049.7604     5318.6196        2.2259      129.3355
   1049.9128     5319.8726        2.2272      129.1170
   1050.0652     5324.5483        2.2328      128.1474
   1050.2177     5329.2280        2.2328      128.1474
   1050.3700     5333.9038        2.2337      127.9887
   1050.5225     5338.5835        2.2376      127.3115
   1050.6748     5343.2593        2.2386      127.1546
   1050.8273     5347.9390        2.2386      127.1513
   1050.9796     5352.6147        2.2386      127.1513
   1051.1321     5354.1812        2.2377      127.3049
   1051.2844     5354.6108        2.2350      127.7664
   1051.4368     5355.0405        2.2337      127.9890
   1051.5892     5355.4707        2.2329      128.1316
   1051.7416     5355.9004        2.2341      127.9140
   1051.8940     5356.3306        2.2380      127.2465
   1052.0464     5356.7603        2.2405      126.8144
   1052.1989     5357.3193        2.2405      126.8157
   1052.3512     5359.0952        2.2395      126.9929
   1052.5037     5360.8721        2.2380      127.2575
   1052.6560     5362.6470        2.2366      127.4988
