~Version Information Section
VERS.              2.0  : CWLS LOG ASCII STANDARD - VERSION 2.0
WRAP.              NO   : ONE LINE PER DEPTH STEP
CREA.              21-jan-2025
#
~Well Information Section
#MNEM.UNIT         VALUE/NAME          DESCRIPTION
#_________         __________          ___________
STRT.M             29.2900             : START DEPTH
STOP.M             1699.9900           : STOP DEPTH
STEP.M             0.1524              : STEP
NULL.              -999.2500           : NULL VALUE
COMP.                                  : COMPANY
WELL.              F06-1               : WELL NAME
FLD.                                   : FIELD
LOC.                                   : LOCATION
PROV.                                  : PROVINCE
CNTY.                                  : COUNTY
STAT.                                  : STATE
CTRY.                                  : COUNTRY
SRVC.                                  : SERVICE COMPANY
DATE.                                  : LOG DATE
UWI.                                   : UNIQUE WELL ID
XCOORD.M           607903.000          : SURFACE X
YCOORD.M           6077213.000         : SURFACE Y
#
~Curve Information Section
#MNEM.UNIT         API CODE            DESCRIPTION
#_________         ________            ___________
DEPT.M                                 : 0 Depth
AI.m/sxg/cc                            : 1 AI from well tie
RHOB.g/cc                              : 2 Density
DT.us/ft                               : 3 Sonic
#
~Parameter Information Section
#MNEM.UNIT           VALUE             DESCRIPTION
#_________         __________          ___________
EKB.M              28.6400             : Elevation Kelly Bushing
EGL.M              -999.25             : Elevation Ground Level
#
~Other Information Section
#
~Ascii Data Section
# ...
   1520.0669     4377.6968        2.1178      148.0676
   1520.2192     4380.8154        2.1178      148.0676
   1520.3717     4383.9365        2.1178      148.0676
   1520.5240     4387.0552        2.1178      148.0676
   1520.6765     4390.1768        2.1186      147.9253
   1520.8289     4393.2954        2.1197      147.7311
   1520.9812     4396.4141        2.1209      147.5271
   1521.1337     4397.8291        2.1249      146.8352
   1521.2860     4398.8926        2.1292      146.0914
   1521.4385     4399.9561        2.1292      146.0881
   1521.5908     4401.0195        2.1247      146.8738
   1521.7433     4402.0835        2.1221      147.3135
   1521.8956     4403.1465        2.1242      146.9487
   1522.0481     4404.2471        2.1249      146.8381
   1522.2004     4408.2974        2.1242      146.9491
   1522.3529     4412.3511        2.1222      147.2975
   1522.5052     4416.4014        2.1179      148.0441
   1522.6577     4420.4551        2.1147      148.6098
   1522.8101     4424.5059        2.1135      148.8044
   1522.9624     4428.5566        2.1165      148.2859
   1523.1149     4431.7202        2.1213      147.4512
   1523.2672     4432.2344        2.1290      146.1259
   1523.4197     4432.7485        2.1384      144.5044
   1523.5720     4433.2627        2.1410      144.0428
   1523.7245     4433.7769        2.1404      144.1478
   1523.8768     4434.2910        2.1385      144.4737
   1524.0293     4434.8057        2.1294      146.0619
   1524.1816     4435.6001        2.1268      146.5051
   1524.3341     4436.8901        2.1251      146.8026
   1524.4865     4438.1787        2.1234      147.0892
   1524.6389     4439.4688        2.1270      146.4786
   1524.7913     4440.7573        2.1272      146.4359
   1524.9436     4442.0464        2.1279      146.3182
   1525.0961     4443.3359        2.1255      146.7308
   1525.2484     4446.2876        2.1204      147.6048
   1525.4009     4450.6406        2.1273      146.4130
   1525.5532     4454.9897        2.1292      146.0977
   1525.7057     4459.3423        2.1311      145.7673
   1525.8580     4463.6914        2.1331      145.4040
   1526.0105     4468.0444        2.1350      145.0832
   1526.1628     4472.3940        2.1343      145.1945
   1526.3153     4483.0693        2.1313      145.7274
   1526.4677     4496.6045        2.1301      145.9314
   1526.6201     4510.1509        2.1297      146.0011
   1526.7725     4523.6865        2.1294      146.0601
   1526.9248     4537.2222        2.1293      146.0755
   1527.0773     4550.7681        2.1301      145.9351
   1527.2296     4564.3037        2.1337      145.3052
   1527.3821     4567.1865        2.1380      144.5674
   1527.5344     4567.8267        2.1418      143.9072
   1527.6869     4568.4673        2.1448      143.3971
   1527.8392     4569.1074        2.1420      143.8669
   1527.9917     4569.7480        2.1420      143.8812
   1528.1440     4570.3882        2.1535      141.8770
   1528.2965     4571.0288        2.1600      140.7526
   1528.4489     4552.0278        2.1633      140.1871
   1528.6013     4529.1250        2.1638      140.0995
   1528.7537     4506.2402        2.1623      140.3606
   1528.9060     4483.3555        2.1548      141.6552
   1529.0585     4460.4531        2.1439      143.5447
   1529.2108     4437.5688        2.1367      144.7885
   1529.3633     4414.6655        2.1334      145.3650
   1529.5156     4389.5190        2.1327      145.4780
   1529.6681     4363.8521        2.1327      145.4780
   1529.8204     4338.2051        2.1327      145.4780
   1529.9729     4312.5381        2.1327      145.4780
   1530.1252     4286.8916        2.1319      145.6201
   1530.2777     4261.2241        2.1246      146.8831
   1530.4301     4235.5776        2.1159      148.4003
   1530.5824     4240.2280        2.1091      149.5750
   1530.7349     4245.3760        2.1006      151.0445
   1530.8872     4250.5200        2.0940      152.1779
   1531.0397     4255.6685        2.0900      152.8703
   1531.1920     4260.8120        2.0866      153.4664
   1531.3445     4265.9604        2.0839      153.9245
   1531.4968     4280.4360        2.0824      154.1856
   1531.6493     4308.0400        2.0821      154.2431
   1531.8016     4335.6221        2.0821      154.2431
   1531.9541     4363.2261        2.0829      154.1112
   1532.1064     4390.8086        2.0879      153.2466
   1532.2589     4418.4126        2.1099      149.4219
   1532.4113     4445.9946        2.1387      144.4423
   1532.5636     4455.4814        2.1442      143.4861
   1532.7161     4460.9272        2.1442      143.4861
   1532.8684     4466.3691        2.1442      143.4861
   1533.0209     4471.8154        2.1442      143.4861
   1533.1732     4477.2573        2.1442      143.4861
   1533.3257     4482.7031        2.1436      143.5912
   1533.4780     4488.1450        2.1397      144.2654
   1533.6305     4495.9199        2.1329      145.4532
   1533.7828     4504.0674        2.1295      146.0393
   1533.9353     4512.2222        2.1231      147.1458
   1534.0876     4520.3701        2.1252      146.7944
   1534.2401     4528.5239        2.1279      146.3181
   1534.3925     4536.6714        2.1321      145.5986
   1534.5448     4544.8071        2.1348      145.1307
   1534.6973     4552.2432        2.1379      144.5834
   1534.8496     4559.6733        2.1370      144.7374
   1535.0021     4567.1094        2.1465      143.1014
   1535.1544     4574.5396        2.1510      142.3029
   1535.3069     4581.9756        2.1507      142.3672
   1535.4592     4589.4058        2.1506      142.3859
   1535.6117     4596.5601        2.1517      142.2015
   1535.7640     4594.4922        2.1494      142.5865
   1535.9165     4592.4219        2.1523      142.0837
   1536.0688     4590.3540        2.1537      141.8410
   1536.2213     4588.2837        2.1519      142.1529
   1536.3737     4586.2158        2.1501      142.4618
   1536.5260     4584.1475        2.1483      142.7699
   1536.6785     4582.0503        2.1464      143.1176
   1536.8308     4576.2153        2.1452      143.3150
   1536.9833     4570.3760        2.1469      143.0256
   1537.1356     4564.5410        2.1443      143.4772
   1537.2881     4558.7012        2.1411      144.0248
   1537.4404     4552.8662        2.1424      143.7964
   1537.5929     4547.0273        2.1480      142.8236
   1537.7452     4541.1060        2.1524      142.0717
   1537.8977     4531.7959        2.1519      142.1603
   1538.0500     4522.4927        2.1503      142.4434
   1538.2025     4513.1826        2.1485      142.7444
   1538.3549     4503.8794        2.1452      143.3096
   1538.5072     4494.5767        2.1397      144.2737
   1538.6597     4485.2661        2.1358      144.9447
   1538.8120     4476.2007        2.1334      145.3531
   1538.9645     4470.7295        2.1319      145.6239
   1539.1168     4465.2632        2.1340      145.2580
   1539.2693     4459.7925        2.1374      144.6599
   1539.4216     4454.3262        2.1384      144.4845
   1539.5741     4448.8555        2.1364      144.8331
   1539.7264     4443.3892        2.1311      145.7549
   1539.8789     4438.3345        2.1249      146.8389
   1540.0312     4435.1860        2.1222      147.3060
   1540.1837     4432.0352        2.1253      146.7764
   1540.3361     4428.8867        2.1323      145.5577
   1540.4884     4425.7383        2.1381      144.5430
   1540.6409     4422.5874        2.1388      144.4243
   1540.7932     4419.4390        2.1333      145.3876
   1540.9457     4415.4927        2.1241      146.9640
   1541.0980     4409.8555        2.1160      148.3805
   1541.2505     4404.2134        2.1109      149.2597
   1541.4028     4398.5762        2.1108      149.2764
   1541.5553     4392.9341        2.1173      148.1393
   1541.7076     4387.2964        2.1259      146.6619
   1541.8601     4381.6548        2.1306      145.8439
   1542.0125     4373.3149        2.1314      145.7074
   1542.1649     4362.8018        2.1283      146.2547
