~Version Information Section
VERS.              2.0  : CWLS LOG ASCII STANDARD - VERSION 2.0
WRAP.              NO   : ONE LINE PER DEPTH STEP
CREA.              21-jan-2025
#
~Well Information Section
#MNEM.UNIT         VALUE/NAME          DESCRIPTION
#_________         __________          ___________
STRT.M             29.2900             : START DEPTH
STOP.M             1699.9900           : STOP DEPTH
STEP.M             0.1524              : STEP
NULL.              -999.2500           : NULL VALUE
COMP.                                  : COMPANY
WELL.              F06-1               : WELL NAME
FLD.                                   : FIELD
LOC.                                   : LOCATION
PROV.                                  : PROVINCE
CNTY.                                  : COUNTY
STAT.                                  : STATE
CTRY.                                  : COUNTRY
SRVC.                                  : SERVICE COMPANY
DATE.                                  : LOG DATE
UWI.                                   : UNIQUE WELL ID
XCOORD.M           607903.000          : SURFACE X
YCOORD.M           6077213.000         : SURFACE Y
#
~Curve Information Section
#MNEM.UNIT         API CODE            DESCRIPTION
#_________         ________            ___________
DEPT.M                                 : 0 Depth
AI.m/sxg/cc                            : 1 AI from well tie
RHOB.g/cc                              : 2 Density
DT.us/ft                               : 3 Sonic
#
~Parameter Information Section
#MNEM.UNIT           VALUE             DESCRIPTION
#_________         __________          ___________
EKB.M              28.6400             : Elevation Kelly Bushing
EGL.M              -999.25             : Elevation Ground Level
#
~Other Information Section
#
~Ascii Data Section
# ...
    741.3028     4544.9546        2.1514      142.2372
    741.4552     4534.1436        2.1503      142.4213
    741.6076     4533.3008        2.1469      143.0247
    741.7600     4532.4580        2.1427      143.7437
    741.9124     4531.6152        2.1408      144.0693
    742.0648     4530.7729        2.1382      144.5398
    742.2172     4529.9302        2.1364      144.8419
    742.3696     4529.0874        2.1362      144.8806
    742.5220     4527.8896        2.1356      144.9908
    742.6744     4523.3188        2.1341      145.2505
    742.8268     4518.7490        2.1333      145.3815
    742.9792     4514.1782        2.1323      145.5580
    743.1316     4509.6074        2.1365      144.8238
    743.2840     4505.0376        2.1474      142.9422
    743.4364     4500.4668        2.1550      141.6120
    743.5888     4496.8638        2.1529      141.9702
    743.7412     4498.6167        2.1495      142.5617
    743.8936     4500.3687        2.1426      143.7658
    744.0460     4502.1201        2.1395      144.3135
    744.1984     4503.8726        2.1330      145.4292
    744.3508     4505.6250        2.1290      146.1202
    744.5032     4507.3774        2.1270      146.4596
    744.6556     4510.3457        2.1224      147.2690
    744.8080     4516.9341        2.1227      147.2250
    744.9604     4523.5220        2.1241      146.9595
    745.1128     4530.1099        2.1278      146.3271
    745.2652     4536.6982        2.1386      144.4620
    745.4176     4543.2861        2.1497      142.5358
    745.5700     4549.8740        2.1536      141.8527
    745.7224     4554.6299        2.1543      141.7361
    745.8748     4555.8154        2.1529      141.9781
    746.0272     4557.0005        2.1506      142.3732
    746.1796     4558.1865        2.1478      142.8692
    746.3320     4559.3716        2.1436      143.5994
    746.4844     4560.5576        2.1404      144.1538
    746.6368     4561.7427        2.1381      144.5533
    746.7892     4568.6343        2.1368      144.7679
    746.9416     4585.4937        2.1372      144.6952
    747.0940     4602.3535        2.1364      144.8316
    747.2464     4619.2129        2.1317      145.6502
    747.3988     4636.0723        2.1265      146.5605
    747.5512     4652.9316        2.1267      146.5206
    747.7036     4669.7910        2.1317      145.6596
    747.8560     4676.2441        2.1527      142.0211
    748.0084     4672.0605        2.1777      137.6928
    748.1608     4667.8770        2.1844      136.5247
    748.3132     4663.6929        2.1821      136.9367
    748.4656     4659.5093        2.1794      137.3916
    748.6180     4655.3257        2.1751      138.1394
    748.7704     4651.1411        2.1703      138.9634
    748.9228     4644.2856        2.1665      139.6257
    749.0752     4629.1294        2.1619      140.4287
    749.2276     4613.9727        2.1563      141.3982
    749.3800     4598.8159        2.1522      142.1047
    749.5324     4583.6597        2.1503      142.4328
    749.6848     4568.5029        2.1483      142.7692
    749.8372     4553.3521        2.1465      143.0968
    749.9896     4541.2705        2.1443      143.4671
    750.1420     4541.0225        2.1424      143.7947
    750.2944     4540.7749        2.1419      143.8845
    750.4468     4540.5264        2.1419      143.8845
    750.5992     4540.2783        2.1411      144.0198
    750.7516     4540.0303        2.1388      144.4290
    750.9040     4539.7827        2.1359      144.9333
    751.0564     4540.2109        2.1342      145.2285
    751.2088     4542.4268        2.1346      145.1517
    751.3612     4544.6431        2.1399      144.2409
    751.5136     4546.8589        2.1474      142.9252
    751.6660     4549.0747        2.1488      142.6891
    751.8184     4551.2900        2.1488      142.6891
    751.9708     4553.5054        2.1488      142.6891
    752.1232     4554.8242        2.1475      142.9063
    752.2756     4554.1348        2.1439      143.5378
    752.4280     4553.4448        2.1415      143.9625
    752.5804     4552.7554        2.1397      144.2643
    752.7328     4552.0659        2.1396      144.2829
    752.8852     4551.3765        2.1406      144.1079
    753.0376     4550.6870        2.1441      143.4959
    753.1900     4548.4160        2.1442      143.4861
    753.3424     4543.2959        2.1442      143.4861
    753.4948     4538.1763        2.1442      143.4880
    753.6472     4533.0566        2.1438      143.5610
    753.7996     4527.9385        2.1420      143.8757
    753.9520     4522.8188        2.1432      143.6630
    754.1044     4517.6987        2.1488      142.6938
    754.2568     4512.2632        2.1482      142.8030
    754.4092     4506.3208        2.1450      143.3647
    754.5616     4500.3784        2.1424      143.8023
    754.7140     4494.4355        2.1385      144.4722
    754.8664     4488.4927        2.1335      145.3550
    755.0188     4482.5508        2.1316      145.6773
    755.1712     4476.6084        2.1316      145.6773
    755.3236     4480.5190        2.1321      145.5906
    755.4760     4495.6416        2.1344      145.1965
    755.6284     4510.7578        2.1361      144.8940
    755.7808     4525.8804        2.1356      144.9805
    755.9332     4541.0029        2.1340      145.2570
    756.0856     4556.1255        2.1333      145.3868
    756.2380     4571.2480        2.1318      145.6477
    756.3904     4590.3789        2.1316      145.6773
    756.5428     4612.3511        2.1319      145.6182
    756.6952     4634.3242        2.1344      145.1949
    756.8476     4656.2964        2.1397      144.2783
    757.0000     4678.2695        2.1465      143.0927
    757.1524     4700.2422        2.1538      141.8255
    757.3048     4722.2148        2.1582      141.0645
    757.4572     4733.0542        2.1623      140.3493
    757.6096     4737.0088        2.1682      139.3265
    757.7620     4740.9648        2.1738      138.3721
    757.9144     4744.9209        2.1785      137.5477
    758.0668     4748.8774        2.1799      137.3081
    758.2192     4752.8335        2.1783      137.5900
    758.3716     4756.7896        2.1755      138.0617
    758.5240     4756.0420        2.1711      138.8352
    758.6764     4747.7632        2.1663      139.6625
    758.8288     4739.4844        2.1633      140.1748
    758.9812     4731.2056        2.1626      140.2988
    759.1336     4722.9263        2.1642      140.0148
    759.2860     4714.6475        2.1669      139.5543
    759.4384     4706.3687        2.1690      139.1925
    759.5908     4698.0186        2.1712      138.8247
    759.7432     4689.4053        2.1719      138.7043
    759.8956     4680.7915        2.1702      138.9840
    760.0480     4672.1782        2.1675      139.4502
    760.2004     4663.5645        2.1638      140.0865
    760.3528     4654.9507        2.1602      140.7229
    760.5052     4646.3374        2.1575      141.1747
    760.6576     4638.3354        2.1560      141.4446
    760.8100     4637.6763        2.1550      141.6198
    760.9624     4637.0171        2.1537      141.8480
    761.1148     4636.3574        2.1534      141.8923
    761.2672     4635.6987        2.1534      141.8923
    761.4196     4635.0391        2.1534      141.8923
    761.5720     4634.3799        2.1534      141.8923
    761.7244     4633.7134        2.1534      141.8923
    761.8768     4632.7612        2.1534      141.8923
    762.0292     4631.8101        2.1534      141.8923
    762.1816     4630.8584        2.1534      141.8923
    762.3340     4629.9077        2.1539      141.8025
    762.4864     4628.9561        2.1557      141.5013
    762.6388     4628.0044        2.1557      141.4939
    762.7912     4627.0527        2.1557      141.4939
    762.9436     4623.3516        2.1557      141.4939
    763.0960     4619.5625        2.1557      141.4939
    763.2484     4615.7734        2.1557      141.4939
    763.4008     4611.9858        2.1557      141.4963
