~Version Information Section
VERS.              2.0  : CWLS LOG ASCII STANDARD - VERSION 2.0
WRAP.              NO   : ONE LINE PER DEPTH STEP
CREA.              21-jan-2025
#
~Well Information Section
#MNEM.UNIT         VALUE/NAME          DESCRIPTION
#_________         __________          ___________
STRT.M             29.2900             : START DEPTH
STOP.M             1699.9900           : STOP DEPTH
STEP.M             0.1524              : STEP
NULL.              -999.2500           : NULL VALUE
COMP.                                  : COMPANY
WELL.              F06-1               : WELL NAME
FLD.                                   : FIELD
LOC.                                   : LOCATION
PROV.                                  : PROVINCE
CNTY.                                  : COUNTY
STAT.                                  : STATE
CTRY.                                  : COUNTRY
SRVC.                                  : SERVICE COMPANY
DATE.                                  : LOG DATE
UWI.                                   : UNIQUE WELL ID
XCOORD.M           607903.000          : SURFACE X
YCOORD.M           6077213.000         : SURFACE Y
#
~Curve Information Section
#MNEM.UNIT         API CODE            DESCRIPTION
#_________         ________            ___________
DEPT.M                                 : 0 Depth
AI.m/sxg/cc                            : 1 AI from well tie
RHOB.g/cc                              : 2 Density
DT.us/ft                               : 3 Sonic
#
~Parameter Information Section
#MNEM.UNIT           VALUE             DESCRIPTION
#_________         __________          ___________
EKB.M              28.6400             : Elevation Kelly Bushing
EGL.M              -999.25             : Elevation Ground Level
#
~Other Information Section
#
~Ascii Data Section
# ...
    941.5564     4920.0435        2.1919      135.2346
    941.7088     4917.5391        2.1919      135.2311
    941.8612     4915.0342        2.1925      135.1425
    942.0136     4911.7305        2.1922      135.1805
    942.1660     4906.6289        2.1908      135.4175
    942.3184     4901.5298        2.1893      135.6800
    942.4708     4896.4282        2.1891      135.7171
    942.6232     4891.3267        2.1888      135.7715
    942.7756     4886.2246        2.1878      135.9555
    942.9280     4881.1230        2.1869      136.1041
    943.0804     4876.7104        2.1868      136.1154
    943.2328     4877.8633        2.1863      136.2077
    943.3852     4879.0156        2.1841      136.5918
    943.5376     4880.1685        2.1821      136.9310
    943.6900     4881.3218        2.1812      137.0817
    943.8424     4882.4736        2.1797      137.3486
    943.9948     4883.6265        2.1789      137.4713
    944.1472     4884.7793        2.1802      137.2684
    944.2996     4887.1279        2.1820      136.9557
    944.4520     4889.4810        2.1868      136.1312
    944.6044     4891.8335        2.1912      135.3525
    944.7568     4894.1865        2.1907      135.4469
    944.9092     4896.5386        2.1922      135.1960
    945.0616     4898.8916        2.1899      135.5861
    945.2140     4901.2441        2.1879      135.9218
    945.3664     4900.2144        2.1864      136.1919
    945.5188     4898.5537        2.1843      136.5526
    945.6712     4896.8926        2.1836      136.6723
    945.8236     4895.2319        2.1850      136.4292
    945.9760     4893.5708        2.1870      136.0786
    946.1284     4891.9097        2.1880      135.9230
    946.2808     4890.2495        2.1877      135.9664
    946.4332     4886.8203        2.1867      136.1408
    946.5856     4882.6714        2.1863      136.2077
    946.7380     4878.5229        2.1871      136.0701
    946.8904     4874.3740        2.1879      135.9328
    947.0428     4870.2256        2.1880      135.9164
    947.1952     4866.0767        2.1876      135.9770
    947.3476     4861.9287        2.1859      136.2804
    947.5000     4857.4487        2.1838      136.6453
    947.6524     4852.6895        2.1830      136.7777
    947.8048     4847.9307        2.1823      136.8985
    947.9572     4843.1714        2.1820      136.9552
    948.1096     4838.4121        2.1817      136.9946
    948.2620     4833.6548        2.1815      137.0348
    948.4144     4828.8960        2.1813      137.0766
    948.5668     4829.6182        2.1803      137.2443
    948.7192     4837.1255        2.1783      137.5906
    948.8716     4844.6318        2.1768      137.8478
    949.0240     4852.1382        2.1768      137.8375
    949.1764     4859.6450        2.1778      137.6689
    949.3288     4867.1514        2.1790      137.4698
    949.4812     4874.6582        2.1785      137.5549
    949.6336     4883.6211        2.1749      138.1706
    949.7860     4894.8760        2.1736      138.3981
    949.9384     4906.1318        2.1768      137.8467
    950.0908     4917.3828        2.1807      137.1747
    950.2432     4928.6387        2.1842      136.5603
    950.3956     4939.8940        2.1877      135.9677
    950.5480     4951.1494        2.1918      135.2558
    950.7004     4959.3057        2.1952      134.6600
    950.8528     4959.4263        2.1956      134.5882
    951.0052     4959.5469        2.1954      134.6302
    951.1576     4959.6675        2.1959      134.5466
    951.3100     4959.7881        2.1964      134.4591
    951.4624     4959.9087        2.1978      134.2217
    951.6148     4960.0293        2.1993      133.9658
    951.7672     4960.0601        2.1991      133.9829
    951.9196     4958.2817        2.1974      134.2768
    952.0720     4956.5034        2.1952      134.6729
    952.2244     4954.7251        2.1946      134.7745
    952.3768     4952.9458        2.1932      135.0108
    952.5292     4951.1675        2.1915      135.2981
    952.6816     4949.3887        2.1914      135.3187
    952.8340     4947.6099        2.1914      135.3187
    952.9864     4948.9458        2.1912      135.3613
    953.1388     4951.0181        2.1903      135.5165
    953.2912     4953.0894        2.1905      135.4792
    953.4436     4955.1616        2.1916      135.2806
    953.5960     4957.2334        2.1926      135.1175
    953.7484     4959.3052        2.1930      135.0449
    953.9008     4961.3770        2.1949      134.7241
    954.0532     4963.4390        2.1945      134.7917
    954.2056     4965.4966        2.1930      135.0425
    954.3580     4967.5537        2.1953      134.6487
    954.5104     4969.6108        2.1970      134.3611
    954.6628     4971.6680        2.1958      134.5594
    954.8152     4973.7251        2.1949      134.7210
    954.9676     4975.7822        2.1949      134.7210
    955.1200     4977.8418        2.1949      134.7210
    955.2724     4979.9058        2.1949      134.7210
    955.4248     4981.9702        2.1949      134.7210
    955.5772     4984.0347        2.1954      134.6273
    955.7296     4986.0981        2.1971      134.3381
    955.8820     4988.1626        2.1975      134.2716
    956.0344     4990.2266        2.1982      134.1354
    956.1868     4992.3066        2.1983      134.1236
    956.3392     4995.7007        2.1976      134.2368
    956.4916     4999.0952        2.1962      134.4872
    956.6440     5002.4897        2.1960      134.5220
    956.7964     5005.8848        2.1967      134.3994
    956.9488     5009.2783        2.1991      133.9795
    957.1012     5012.6733        2.2010      133.6596
    957.2536     5016.0679        2.2000      133.8307
    957.4060     5018.9087        2.1982      134.1385
    957.5584     5021.5288        2.1973      134.2961
    957.7108     5024.1494        2.1976      134.2547
    957.8632     5026.7681        2.1989      134.0143
    958.0156     5029.3882        2.2007      133.7136
    958.1680     5032.0083        2.2020      133.4856
    958.3204     5034.6289        2.2032      133.2864
    958.4728     5036.3179        2.2039      133.1579
    958.6252     5036.8921        2.2041      133.1275
    958.7776     5037.4663        2.2037      133.1985
    958.9300     5038.0405        2.2035      133.2246
    959.0824     5038.6157        2.2039      133.1585
    959.2348     5039.1899        2.2037      133.1984
    959.3872     5039.7642        2.2027      133.3667
    959.5396     5040.4204        2.2020      133.4955
    959.6920     5041.5669        2.2022      133.4562
    959.8444     5042.7124        2.2032      133.2871
    959.9968     5043.8579        2.2035      133.2249
    960.1492     5045.0044        2.2032      133.2804
    960.3016     5046.1499        2.2033      133.2621
    960.4540     5047.2959        2.2036      133.2084
    960.6064     5048.4419        2.2039      133.1598
    960.7588     5049.6553        2.2041      133.1321
    960.9112     5050.8799        2.2041      133.1275
    961.0636     5052.1055        2.2041      133.1275
    961.2160     5053.3306        2.2041      133.1275
    961.3684     5054.5557        2.2037      133.1854
    961.5208     5055.7803        2.2033      133.2536
    961.6732     5057.0059        2.2043      133.0882
    961.8256     5057.8477        2.2051      132.9415
    961.9780     5058.2627        2.2055      132.8780
    962.1304     5058.6782        2.2063      132.7384
    962.2828     5059.0938        2.2061      132.7753
    962.4352     5059.5098        2.2050      132.9673
    962.5876     5059.9248        2.2041      133.1250
    962.7400     5060.3403        2.2043      133.0888
    962.8924     5060.4561        2.2054      132.8892
    963.0448     5059.1084        2.2068      132.6544
    963.1972     5057.7607        2.2085      132.3682
    963.3496     5056.4131        2.2075      132.5313
    963.5020     5055.0654        2.2073      132.5655
    963.6544     5053.7173        2.2066      132.6905
