~Version Information Section
VERS.              2.0  : CWLS LOG ASCII STANDARD - VERSION 2.0
WRAP.              NO   : ONE LINE PER DEPTH STEP
CREA.              21-jan-2025
#
~Well Information Section
#MNEM.UNIT         VALUE/NAME          DESCRIPTION
#_________         __________          ___________
STRT.M             29.2900             : START DEPTH
STOP.M             1699.9900           : STOP DEPTH
STEP.M             0.1524              : STEP
NULL.              -999.2500           : NULL VALUE
COMP.                                  : COMPANY
WELL.              F06-1               : WELL NAME
FLD.                                   : FIELD
LOC.                                   : LOCATION
PROV.                                  : PROVINCE
CNTY.                                  : COUNTY
STAT.                                  : STATE
CTRY.                                  : COUNTRY
SRVC.                                  : SERVICE COMPANY
DATE.                                  : LOG DATE
UWI.                                   : UNIQUE WELL ID
XCOORD.M           607903.000          : SURFACE X
YCOORD.M           6077213.000         : SURFACE Y
#
~Curve Information Section
#MNEM.UNIT         API CODE            DESCRIPTION
#_________         ________            ___________
DEPT.M                                 : 0 Depth
AI.m/sxg/cc                            : 1 AI from well tie
RHOB.g/cc                              : 2 Density
DT.us/ft                               : 3 Sonic
#
~Parameter Information Section
#MNEM.UNIT           VALUE             DESCRIPTION
#_________         __________          ___________
EKB.M              28.6400             : Elevation Kelly Bushing
EGL.M              -999.25             : Elevation Ground Level
#
~Other Information Section
#
~Ascii Data Section
# ...
   1230.8116     4625.1377        2.1612      140.5444
   1230.9641     4611.2021        2.1656      139.7853
   1231.1165     4597.2773        2.1688      139.2262
   1231.2688     4583.3530        2.1705      138.9431
   1231.4213     4569.4175        2.1690      139.1856
   1231.5736     4561.6309        2.1625      140.3208
   1231.7261     4554.2256        2.1443      143.4776
   1231.8784     4546.8262        2.1376      144.6340
   1232.0309     4539.4209        2.1335      145.3437
   1232.1832     4532.0215        2.1317      145.6554
   1232.3357     4524.6157        2.1310      145.7854
   1232.4880     4517.5786        2.1295      146.0461
   1232.6405     4526.9292        2.1293      146.0757
   1232.7928     4536.2715        2.1293      146.0757
   1232.9453     4545.6216        2.1300      145.9543
   1233.0977     4554.9644        2.1357      144.9744
   1233.2500     4564.3071        2.1457      143.2405
   1233.4025     4573.6572        2.1527      142.0218
   1233.5548     4582.2363        2.1553      141.5734
   1233.7073     4582.8364        2.1523      142.0944
   1233.8596     4583.4355        2.1499      142.5035
   1234.0121     4584.0352        2.1478      142.8669
   1234.1644     4584.6343        2.1459      143.2011
   1234.3169     4585.2344        2.1450      143.3565
   1234.4692     4585.8330        2.1440      143.5264
   1234.6217     4586.8892        2.1441      143.5137
   1234.7740     4592.2695        2.1491      142.6382
   1234.9265     4597.6538        2.1535      141.8866
   1235.0789     4603.0342        2.1526      142.0391
   1235.2312     4608.4146        2.1484      142.7570
   1235.3837     4613.7993        2.1435      143.6110
   1235.5360     4619.1797        2.1415      143.9515
   1235.6885     4624.3452        2.1450      143.3508
   1235.8408     4627.4106        2.1521      142.1120
   1235.9933     4630.4775        2.1562      141.4126
   1236.1456     4633.5425        2.1549      141.6425
   1236.2981     4636.6099        2.1488      142.6890
   1236.4504     4639.6748        2.1416      143.9428
   1236.6029     4642.7422        2.1419      143.8978
   1236.7552     4645.7241        2.1484      142.7675
   1236.9077     4647.8276        2.1568      141.3082
   1237.0601     4649.9297        2.1719      138.6970
   1237.2124     4652.0317        2.1865      136.1600
   1237.3649     4654.1357        2.1856      136.3189
   1237.5172     4656.2373        2.1730      138.5113
   1237.6697     4658.3418        2.1574      141.1958
   1237.8220     4660.4438        2.1497      142.5441
   1237.9745     4668.5518        2.1440      143.5259
   1238.1268     4677.2559        2.1368      144.7701
   1238.2793     4685.9678        2.1379      144.5843
   1238.4316     4694.6719        2.1439      143.5445
   1238.5841     4703.3833        2.1491      142.6417
   1238.7365     4712.0874        2.1552      141.5869
   1238.8888     4720.7920        2.1603      140.6991
   1239.0413     4720.7529        2.1695      139.1015
   1239.1936     4719.8691        2.1713      138.7937
   1239.3461     4718.9858        2.1802      137.2464
   1239.4984     4718.1021        2.1866      136.1597
   1239.6509     4717.2178        2.1846      136.5049
   1239.8032     4716.3350        2.1791      137.4407
   1239.9557     4715.4512        2.1738      138.3605
   1240.1080     4717.3350        2.1617      140.4544
   1240.2605     4720.6660        2.1569      141.2823
   1240.4128     4723.9951        2.1523      142.0917
   1240.5653     4727.3267        2.1523      142.0916
   1240.7177     4730.6548        2.1523      142.0917
   1240.8700     4733.9839        2.1532      141.9329
   1241.0225     4737.3154        2.1576      141.1712
   1241.1748     4744.6064        2.1608      140.6181
   1241.3273     4754.8013        2.1636      140.1226
   1241.4796     4764.9888        2.1670      139.5330
   1241.6321     4775.1841        2.1678      139.3997
   1241.7844     4785.3711        2.1706      138.9153
   1241.9369     4795.5669        2.1744      138.2525
   1242.0892     4805.7534        2.1776      137.7130
   1242.2417     4808.1401        2.1807      137.1812
   1242.3940     4797.9399        2.1811      137.1115
   1242.5465     4787.7310        2.1811      137.1115
   1242.6989     4777.5303        2.1811      137.1115
   1242.8512     4767.3296        2.1822      136.9197
   1243.0037     4757.1206        2.1841      136.5871
   1243.1560     4746.9204        2.1834      136.7125
   1243.3085     4736.4976        2.1800      137.3008
   1243.4608     4723.3652        2.1743      138.2740
   1243.6133     4710.2227        2.1675      139.4491
   1243.7656     4697.0903        2.1634      140.1543
   1243.9181     4683.9473        2.1602      140.7190
   1244.0704     4670.8149        2.1567      141.3138
   1244.2229     4657.6724        2.1557      141.4939
   1244.3752     4644.5396        2.1557      141.4939
   1244.5277     4641.9438        2.1565      141.3515
   1244.6801     4639.9097        2.1585      141.0151
   1244.8324     4637.8745        2.1616      140.4753
   1244.9849     4635.8389        2.1642      140.0240
   1245.1372     4633.8047        2.1637      140.1122
   1245.2897     4631.7690        2.1580      141.1108
   1245.4420     4629.7344        2.1509      142.3310
   1245.5945     4622.3960        2.1472      142.9682
   1245.7468     4614.1431        2.1457      143.2293
   1245.8993     4605.8823        2.1497      142.5408
   1246.0516     4597.6289        2.1563      141.3939
   1246.2041     4589.3687        2.1576      141.1614
   1246.3564     4581.1147        2.1555      141.5288
   1246.5089     4572.8545        2.1529      141.9956
   1246.6613     4564.9746        2.1523      142.0917
   1246.8136     4557.1787        2.1523      142.0917
   1246.9661     4549.3765        2.1516      142.2105
   1247.1184     4541.5801        2.1495      142.5683
   1247.2709     4533.7773        2.1469      143.0230
   1247.4232     4525.9814        2.1429      143.7123
   1247.5757     4518.1787        2.1371      144.7314
   1247.7280     4521.4209        2.1320      145.6098
   1247.8805     4527.0430        2.1316      145.6773
   1248.0328     4532.6602        2.1316      145.6773
   1248.1853     4538.2822        2.1321      145.5896
   1248.3376     4543.8994        2.1348      145.1178
   1248.4901     4549.5220        2.1387      144.4430
   1248.6425     4555.1387        2.1401      144.2047
   1248.7948     4569.9131        2.1426      143.7714
   1248.9473     4585.3682        2.1454      143.2868
   1249.0996     4600.8115        2.1454      143.2868
   1249.2521     4616.2671        2.1454      143.2900
   1249.4044     4631.7104        2.1450      143.3606
   1249.5569     4647.1655        2.1431      143.6855
   1249.7092     4662.6084        2.1432      143.6710
   1249.8617     4669.6660        2.1455      143.2648
   1250.0140     4676.3882        2.1573      141.2163
   1250.1665     4683.1167        2.1687      139.2583
   1250.3188     4689.8394        2.1889      135.7559
   1250.4713     4696.5674        2.1861      136.2453
   1250.6237     4703.2900        2.1758      138.0154
   1250.7760     4710.0137        2.1636      140.1223
   1250.9285     4698.6533        2.1566      141.3427
   1251.0808     4682.1035        2.1511      142.2876
   1251.2333     4665.5410        2.1495      142.5834
   1251.3856     4648.9912        2.1506      142.3767
   1251.5381     4632.4287        2.1592      140.8934
   1251.6904     4615.8794        2.1657      139.7700
   1251.8429     4599.3164        2.1684      139.2951
   1251.9952     4592.6636        2.1664      139.6447
   1252.1477     4590.3906        2.1631      140.2228
   1252.3000     4588.1191        2.1567      141.3269
   1252.4525     4585.8462        2.1447      143.4018
   1252.6049     4583.5747        2.1341      145.2416
   1252.7572     4581.3037        2.1299      145.9716
   1252.9097     4579.0308        2.1305      145.8726
