~Version Information Section
VERS.              2.0  : CWLS LOG ASCII STANDARD - VERSION 2.0
WRAP.              NO   : ONE LINE PER DEPTH STEP
CREA.              21-jan-2025
#
~Well Information Section
#MNEM.UNIT         VALUE/NAME          DESCRIPTION
#_________         __________          ___________
STRT.M             29.2900             : START DEPTH
STOP.M             1699.9900           : STOP DEPTH
STEP.M             0.1524              : STEP
NULL.              -999.2500           : NULL VALUE
COMP.                                  : COMPANY
WELL.              F06-1               : WELL NAME
FLD.                                   : FIELD
LOC.                                   : LOCATION
PROV.                                  : PROVINCE
CNTY.                                  : COUNTY
STAT.                                  : STATE
CTRY.                                  : COUNTRY
SRVC.                                  : SERVICE COMPANY
DATE.                                  : LOG DATE
UWI.                                   : UNIQUE WELL ID
XCOORD.M           607903.000          : SURFACE X
YCOORD.M           6077213.000         : SURFACE Y
#
~Curve Information Section
#MNEM.UNIT         API CODE            DESCRIPTION
#_________         ________            ___________
DEPT.M                                 : 0 Depth
AI.m/sxg/cc                            : 1 AI from well tie
RHOB.g/cc                              : 2 Density
DT.us/ft                               : 3 Sonic
#
~Parameter Information Section
#MNEM.UNIT           VALUE             DESCRIPTION
#_________         __________          ___________
EKB.M              28.6400             : Elevation Kelly Bushing
EGL.M              -999.25             : Elevation Ground Level
#
~Other Information Section
#
~Ascii Data Section
# ...
   1386.5645     4179.2891        2.0934      152.2878
   1386.7168     4177.3892        2.0976      151.5615
   1386.8693     4175.4878        2.1004      151.0750
   1387.0216     4174.1582        2.1007      151.0280
   1387.1741     4173.1460        2.0981      151.4778
   1387.3264     4172.1343        2.0963      151.7867
   1387.4789     4171.1216        2.0967      151.7154
   1387.6312     4170.1104        2.0930      152.3644
   1387.7837     4169.0977        2.0849      153.7632
   1387.9360     4168.7563        2.0785      154.8686
   1388.0885     4175.8745        2.0762      155.2764
   1388.2408     4182.9868        2.0803      154.5687
   1388.3933     4190.1050        2.0890      153.0555
   1388.5457     4197.2168        2.0952      151.9867
   1388.6980     4204.3296        2.0961      151.8182
   1388.8505     4211.4478        2.0947      152.0641
   1389.0028     4210.0493        2.0945      152.0918
   1389.1553     4201.8301        2.0960      151.8386
   1389.3076     4193.6167        2.0977      151.5495
   1389.4601     4185.3975        2.1009      150.9864
   1389.6124     4177.1846        2.1041      150.4312
   1389.7649     4168.9648        2.1034      150.5579
   1389.9172     4160.7515        2.1012      150.9443
   1390.0697     4159.0854        2.0975      151.5805
   1390.2220     4157.8682        2.0927      152.4123
   1390.3745     4156.6509        2.0914      152.6352
   1390.5269     4155.4341        2.0907      152.7522
   1390.6792     4154.2173        2.0868      153.4222
   1390.8317     4152.9990        2.0774      155.0499
   1390.9840     4144.6011        2.0681      156.6641
   1391.1365     4126.0020        2.0673      156.8118
   1391.2888     4107.4170        2.0754      155.4017
   1391.4413     4088.8169        2.0915      152.6165
   1391.5936     4070.2319        2.0969      151.6899
   1391.7461     4051.6326        2.0963      151.7759
   1391.8984     4033.0476        2.0984      151.4168
   1392.0509     4025.3105        2.0994      151.2595
   1392.2032     4018.8403        2.0986      151.3928
   1392.3557     4012.3655        2.0922      152.4896
   1392.5081     4005.8955        2.0730      155.8247
   1392.6604     3999.4260        2.0518      159.4800
   1392.8129     3992.9507        2.0321      162.9043
   1392.9652     4014.2109        2.0187      165.2269
   1393.1177     4063.2402        2.0138      166.0791
   1393.2700     4112.2305        2.0190      165.1611
   1393.4225     4161.2598        2.0328      162.7817
   1393.5748     4210.2505        2.0505      159.7103
   1393.7273     4259.2798        2.0701      156.3285
   1393.8796     4301.4600        2.0942      152.1577
   1394.0321     4328.1670        2.1205      147.5996
   1394.1844     4354.8525        2.1201      147.6618
   1394.3369     4381.5596        2.1229      147.1806
   1394.4893     4408.2446        2.1254      146.7401
   1394.6416     4434.9302        2.1312      145.7433
   1394.7941     4461.6367        2.1353      145.0310
   1394.9464     4470.4092        2.1293      146.0755
   1395.0989     4460.6768        2.1325      145.5175
   1395.2512     4450.9521        2.1332      145.3909
   1395.4037     4441.2202        2.1322      145.5643
   1395.5560     4431.4956        2.1303      145.9075
   1395.7085     4421.7632        2.1330      145.4328
   1395.8608     4412.0386        2.1397      144.2658
   1396.0133     4410.5391        2.1456      143.2492
   1396.1656     4414.3691        2.1455      143.2626
   1396.3181     4418.2021        2.1319      145.6285
   1396.4705     4422.0322        2.1111      149.2285
   1396.6228     4425.8623        2.0973      151.6115
   1396.7753     4429.6953        2.0934      152.2827
   1396.9276     4433.5254        2.0992      151.2910
   1397.0801     4450.5664        2.1118      149.1070
   1397.2324     4469.6025        2.1269      146.4803
   1397.3849     4488.6538        2.1399      144.2306
   1397.5372     4507.6904        2.1462      143.1523
   1397.6897     4526.7417        2.1471      142.9894
   1397.8420     4545.7778        2.1476      142.9040
   1397.9945     4564.8291        2.1477      142.8780
   1398.1469     4560.1846        2.1433      143.6475
   1398.2993     4554.1489        2.1369      144.7651
   1398.4517     4548.1187        2.1350      145.0908
   1398.6040     4542.0879        2.1367      144.8012
   1398.7565     4536.0527        2.1397      144.2732
   1398.9088     4530.0220        2.1455      143.2727
   1399.0613     4524.0010        2.1516      142.2112
   1399.2136     4526.8062        2.1551      141.6093
   1399.3661     4529.6133        2.1566      141.3531
   1399.5184     4532.4185        2.1493      142.6154
   1399.6709     4535.2266        2.1394      144.3235
   1399.8232     4538.0317        2.1347      145.1284
   1399.9757     4540.8394        2.1313      145.7143
   1400.1281     4544.2603        2.1250      146.8214
   1400.2804     4559.2622        2.1207      147.5593
   1400.4329     4574.2769        2.1304      145.8761
   1400.5852     4589.2793        2.1436      143.5864
   1400.7377     4604.2935        2.1602      140.7294
   1400.8900     4619.2959        2.1642      140.0166
   1401.0425     4634.3105        2.1590      140.9237
   1401.1948     4647.9839        2.1471      142.9900
   1401.3473     4642.9990        2.1401      144.1912
   1401.4996     4638.0186        2.1448      143.3918
   1401.6521     4633.0342        2.1582      141.0722
   1401.8044     4628.0532        2.1638      140.0995
   1401.9569     4623.0688        2.1638      140.1026
   1402.1093     4618.0884        2.1634      140.1757
   1402.2616     4613.1079        2.1612      140.5435
   1402.4141     4595.8999        2.1586      140.9995
   1402.5664     4578.5972        2.1511      142.2914
   1402.7189     4561.2808        2.1498      142.5244
   1402.8712     4543.9785        2.1423      143.8137
   1403.0237     4526.6616        2.1354      145.0201
   1403.1760     4509.3594        2.1385      144.4740
   1403.3285     4492.1196        2.1467      143.0525
   1403.4808     4486.7661        2.1513      142.2559
   1403.6333     4481.4087        2.1532      141.9345
   1403.7856     4476.0552        2.1370      144.7371
   1403.9381     4470.6982        2.1286      146.1987
   1404.0905     4465.3452        2.1244      146.9180
   1404.2428     4459.9917        2.1200      147.6857
   1404.3953     4456.1455        2.1237      147.0461
   1404.5476     4463.1182        2.1289      146.1324
   1404.7001     4470.0967        2.1336      145.3147
   1404.8524     4477.0698        2.1386      144.4540
   1405.0049     4484.0479        2.1412      144.0078
   1405.1572     4491.0205        2.1370      144.7385
   1405.3097     4497.9995        2.1311      145.7622
   1405.4620     4508.7148        2.1287      146.1680
   1405.6145     4531.7588        2.1298      145.9840
   1405.7668     4554.7837        2.1341      145.2460
   1405.9193     4577.8271        2.1413      143.9980
   1406.0717     4600.8521        2.1464      143.1024
   1406.2240     4623.8770        2.1460      143.1680
   1406.3765     4646.9199        2.1429      143.7090
   1406.5288     4663.5508        2.1391      144.3727
   1406.6813     4665.6875        2.1355      145.0013
   1406.8336     4667.8223        2.1328      145.4565
   1406.9861     4669.9595        2.1305      145.8590
   1407.1384     4672.0947        2.1380      144.5638
   1407.2909     4674.2310        2.1632      140.2106
   1407.4432     4676.3657        2.1906      135.4608
   1407.5957     4674.7271        2.2017      133.5480
   1407.7480     4662.1841        2.1953      134.6400
   1407.9005     4649.6304        2.1811      137.0996
   1408.0529     4637.0864        2.1683      139.3284
   1408.2052     4624.5430        2.1616      140.4745
   1408.3577     4611.9897        2.1554      141.5540
   1408.5100     4599.4458        2.1458      143.2066
   1408.6625     4586.0537        2.1372      144.7055
