~Version Information Section
VERS.              2.0  : CWLS LOG ASCII STANDARD - VERSION 2.0
WRAP.              NO   : ONE LINE PER DEPTH STEP
CREA.              21-jan-2025
#
~Well Information Section
#MNEM.UNIT         VALUE/NAME          DESCRIPTION
#_________         __________          ___________
STRT.M             29.2900             : START DEPTH
STOP.M             1699.9900           : STOP DEPTH
STEP.M             0.1524              : STEP
NULL.              -999.2500           : NULL VALUE
COMP.                                  : COMPANY
WELL.              F06-1               : WELL NAME
FLD.                                   : FIELD
LOC.                                   : LOCATION
PROV.                                  : PROVINCE
CNTY.                                  : COUNTY
STAT.                                  : STATE
CTRY.                                  : COUNTRY
SRVC.                                  : SERVICE COMPANY
DATE.                                  : LOG DATE
UWI.                                   : UNIQUE WELL ID
XCOORD.M           607903.000          : SURFACE X
YCOORD.M           6077213.000         : SURFACE Y
#
~Curve Information Section
#MNEM.UNIT         API CODE            DESCRIPTION
#_________         ________            ___________
DEPT.M                                 : 0 Depth
AI.m/sxg/cc                            : 1 AI from well tie
RHOB.g/cc                              : 2 Density
DT.us/ft                               : 3 Sonic
#
~Parameter Information Section
#MNEM.UNIT           VALUE             DESCRIPTION
#_________         __________          ___________
EKB.M              28.6400             : Elevation Kelly Bushing
EGL.M              -999.25             : Elevation Ground Level
#
~Other Information Section
#
~Ascii Data Section
# ...
   1164.0604     4943.6792        2.2089      132.2957
   1164.2129     4921.3911        2.2093      132.2169
   1164.3652     4899.1201        2.2049      132.9876
   1164.5177     4877.2974        2.1926      135.1128
   1164.6700     4855.9443        2.1868      136.1148
   1164.8225     4834.5742        2.1808      137.1621
   1164.9749     4813.2207        2.1749      138.1775
   1165.1272     4791.8687        2.1731      138.4950
   1165.2797     4770.4980        2.1724      138.6041
   1165.4320     4749.1450        2.1708      138.8846
   1165.5845     4735.7827        2.1707      138.9044
   1165.7368     4746.6675        2.1713      138.7945
   1165.8893     4757.5610        2.1728      138.5373
   1166.0416     4768.4453        2.1730      138.5060
   1166.1941     4779.3389        2.1723      138.6259
   1166.3464     4790.2236        2.1688      139.2314
   1166.4989     4801.1167        2.1606      140.6596
   1166.6512     4811.9194        2.1526      142.0356
   1166.8037     4821.7715        2.1488      142.6819
   1166.9561     4831.6157        2.1577      141.1476
   1167.1084     4841.4595        2.1853      136.3788
   1167.2609     4851.3115        2.2086      132.3515
   1167.4132     4861.1553        2.2182      130.6788
   1167.5657     4871.0068        2.2132      131.5552
   1167.7180     4880.8506        2.2003      133.7803
   1167.8705     4875.9990        2.1774      137.7503
   1168.0228     4864.9678        2.1575      141.1767
   1168.1753     4853.9272        2.1530      141.9537
   1168.3276     4842.8955        2.1542      141.7502
   1168.4801     4831.8555        2.1553      141.5559
   1168.6324     4820.8232        2.1602      140.7114
   1168.7849     4809.7837        2.1681      139.3570
   1168.9373     4795.1030        2.1866      136.1540
   1169.0896     4777.9268        2.2092      132.2438
   1169.2421     4760.7363        2.2194      130.4780
   1169.3944     4743.5601        2.2176      130.7893
   1169.5469     4726.3696        2.2097      132.1592
   1169.6992     4709.1934        2.1943      134.8153
   1169.8517     4692.0024        2.1768      137.8400
   1170.0040     4679.9019        2.1628      140.2577
   1170.1565     4700.4482        2.1454      143.2719
   1170.3088     4720.9780        2.1363      144.8558
   1170.4613     4741.5239        2.1287      146.1869
   1170.6136     4762.0537        2.1196      147.7593
   1170.7661     4782.5996        2.1173      148.1496
   1170.9185     4803.1289        2.1240      146.9945
   1171.0708     4820.8267        2.1466      143.0754
   1171.2233     4831.0298        2.1870      136.0822
   1171.3756     4841.2251        2.1949      134.7219
   1171.5281     4851.4282        2.1977      134.2306
   1171.6804     4861.6240        2.2034      133.2369
   1171.8329     4871.8267        2.2092      132.2421
   1171.9852     4882.0220        2.2182      130.6776
   1172.1377     4892.2251        2.2141      131.3861
   1172.2900     4867.7021        2.2034      133.2442
   1172.4425     4833.8364        2.1970      134.3461
   1172.5948     4799.9980        2.1800      137.2878
   1172.7472     4766.1602        2.1718      138.7163
   1172.8997     4732.2944        2.1766      137.8712
   1173.0520     4698.4565        2.1776      137.7124
   1173.2045     4664.5913        2.1771      137.7884
   1173.3568     4652.4766        2.1746      138.2323
   1173.5093     4663.2383        2.1698      139.0464
   1173.6616     4673.9912        2.1603      140.6974
   1173.8141     4684.7529        2.1529      141.9884
   1173.9664     4695.5054        2.1397      144.2758
   1174.1189     4706.2671        2.1334      145.3522
   1174.2712     4717.0200        2.1282      146.2693
   1174.4237     4732.0186        2.1342      145.2276
   1174.5760     4751.5571        2.1426      143.7609
   1174.7284     4771.0947        2.1549      141.6364
   1174.8809     4790.6484        2.1632      140.2090
   1175.0332     4810.1860        2.1706      138.9196
   1175.1857     4829.7397        2.1768      137.8484
   1175.3380     4849.2773        2.1852      136.3875
   1175.4905     4868.8164        2.1945      134.7878
   1175.6428     4888.3096        2.1984      134.1224
   1175.7953     4907.8184        2.2027      133.3622
   1175.9476     4927.3110        2.2002      133.8061
   1176.1001     4946.8198        2.1901      135.5542
   1176.2524     4966.3130        2.1858      136.3046
   1176.4049     4985.8213        2.1762      137.9491
   1176.5573     5005.3140        2.1603      140.7096
   1176.7096     4996.9771        2.1574      141.1971
   1176.8621     4987.6641        2.1718      138.7024
   1177.0144     4978.3579        2.1851      136.4094
   1177.1669     4969.0444        2.1955      134.6240
   1177.3192     4959.7388        2.2040      133.1438
   1177.4717     4950.4248        2.2283      128.9276
   1177.6240     4941.1191        2.2509      125.0255
   1177.7765     4927.6958        2.2498      125.2169
   1177.9288     4909.5469        2.2385      127.1646
   1178.0813     4891.3833        2.1975      134.2575
   1178.2336     4873.2344        2.1521      142.1250
   1178.3861     4855.0708        2.1487      142.7150
   1178.5385     4836.9219        2.1637      140.1192
   1178.6908     4818.7725        2.1732      138.4648
   1178.8433     4807.1968        2.1753      138.1039
   1178.9956     4831.4253        2.1697      139.0844
   1179.1481     4855.6724        2.1616      140.4753
   1179.3004     4879.9004        2.1528      142.0112
   1179.4529     4904.1479        2.1551      141.6124
   1179.6052     4928.3760        2.1716      138.7529
   1179.7577     4952.6235        2.1851      136.4063
   1179.9100     4976.8521        2.1947      134.7533
   1180.0625     4986.5864        2.2020      133.4874
   1180.2148     4995.7080        2.2071      132.5941
   1180.3673     5004.8374        2.2103      132.0569
   1180.5197     5013.9595        2.2188      130.5681
   1180.6720     5023.0811        2.2288      128.8390
   1180.8245     5032.2109        2.2233      129.7970
   1180.9768     5041.3325        2.2109      131.9406
   1181.1293     5047.2231        2.1983      134.1161
   1181.2816     5047.3037        2.1893      135.6786
   1181.4341     5047.3838        2.1879      135.9288
   1181.5864     5047.4639        2.1875      135.9832
   1181.7389     5047.5444        2.1899      135.5774
   1181.8912     5047.6240        2.1941      134.8489
   1182.0437     5047.7041        2.1990      134.0037
   1182.1960     5047.7842        2.2030      133.3139
   1182.3485     5051.6177        2.2041      133.1295
   1182.5009     5055.6499        2.2102      132.0737
   1182.6532     5059.6826        2.2162      131.0179
   1182.8057     5063.7178        2.2133      131.5230
   1182.9580     5067.7505        2.2083      132.4050
   1183.1105     5071.7866        2.2064      132.7280
   1183.2628     5075.8188        2.2066      132.6908
   1183.4153     5078.2285        2.2077      132.4940
   1183.5676     5078.0425        2.2074      132.5609
   1183.7201     5077.8569        2.2002      133.7994
   1183.8724     5077.6704        2.1950      134.7059
   1184.0249     5077.4844        2.1998      133.8528
   1184.1772     5077.2983        2.2048      132.9926
   1184.3297     5077.1123        2.2097      132.1520
   1184.4821     5076.9263        2.2149      131.2654
   1184.6344     5074.2075        2.2195      130.4629
   1184.7869     5071.1030        2.2164      130.9811
   1184.9392     5068.0015        2.2077      132.4992
   1185.0917     5064.8970        2.1997      133.8833
   1185.2440     5061.7949        2.1961      134.5064
   1185.3965     5058.6904        2.1994      133.9334
   1185.5488     5055.5884        2.2058      132.8309
   1185.7013     5049.4917        2.2096      132.1606
   1185.8536     5037.3916        2.2109      131.9568
   1186.0061     5025.2817        2.2106      131.9986
   1186.1584     5013.1821        2.2107      131.9705
