~Version Information Section
VERS.              2.0  : CWLS LOG ASCII STANDARD - VERSION 2.0
WRAP.              NO   : ONE LINE PER DEPTH STEP
CREA.              21-jan-2025
#
~Well Information Section
#MNEM.UNIT         VALUE/NAME          DESCRIPTION
#_________         __________          ___________
STRT.M             29.2900             : START DEPTH
STOP.M             1699.9900           : STOP DEPTH
STEP.M             0.1524              : STEP
NULL.              -999.2500           : NULL VALUE
COMP.                                  : COMPANY
WELL.              F06-1               : WELL NAME
FLD.                                   : FIELD
LOC.                                   : LOCATION
PROV.                                  : PROVINCE
CNTY.                                  : COUNTY
STAT.                                  : STATE
CTRY.                                  : COUNTRY
SRVC.                                  : SERVICE COMPANY
DATE.                                  : LOG DATE
UWI.                                   : UNIQUE WELL ID
XCOORD.M           607903.000          : SURFACE X
YCOORD.M           6077213.000         : SURFACE Y
#
~Curve Information Section
#MNEM.UNIT         API CODE            DESCRIPTION
#_________         ________            ___________
DEPT.M                                 : 0 Depth
AI.m/sxg/cc                            : 1 AI from well tie
RHOB.g/cc                              : 2 Density
DT.us/ft                               : 3 Sonic
#
~Parameter Information Section
#MNEM.UNIT           VALUE             DESCRIPTION
#_________         __________          ___________
EKB.M              28.6400             : Elevation Kelly Bushing
EGL.M              -999.25             : Elevation Ground Level
#
~Other Information Section
#
~Ascii Data Section
# ...
    874.8052     4715.1045        2.1672      139.5021
    874.9576     4712.7925        2.1672      139.5021
    875.1100     4710.4805        2.1672      139.5021
    875.2624     4703.6064        2.1672      139.5021
    875.4148     4696.6431        2.1672      139.5021
    875.5672     4689.6797        2.1669      139.5605
    875.7196     4682.7158        2.1659      139.7403
    875.8720     4675.7520        2.1650      139.8844
    876.0244     4668.7881        2.1640      140.0605
    876.1768     4661.8242        2.1611      140.5642
    876.3292     4654.4287        2.1588      140.9745
    876.4816     4647.0088        2.1570      141.2785
    876.6340     4639.5889        2.1569      141.2949
    876.7864     4632.1689        2.1564      141.3800
    876.9388     4624.7495        2.1546      141.6908
    877.0912     4617.3296        2.1546      141.6933
    877.2436     4609.9092        2.1546      141.6933
    877.3960     4602.1143        2.1546      141.6933
    877.5484     4594.3198        2.1546      141.6933
    877.7008     4586.5254        2.1546      141.6933
    877.8532     4578.7310        2.1546      141.6933
    878.0056     4570.9365        2.1545      141.7026
    878.1580     4563.1445        2.1533      141.9191
    878.3104     4555.4399        2.1470      143.0025
    878.4628     4555.6694        2.1438      143.5635
    878.6152     4555.8984        2.1413      143.9982
    878.7676     4556.1279        2.1385      144.4822
    878.9200     4556.3574        2.1380      144.5614
    879.0724     4556.5869        2.1362      144.8789
    879.2248     4556.8159        2.1367      144.7916
    879.3772     4554.7671        2.1387      144.4465
    879.5296     4545.6406        2.1413      143.9970
    879.6820     4536.5146        2.1471      142.9941
    879.8344     4527.3887        2.1510      142.3137
    879.9868     4518.2622        2.1543      141.7487
    880.1392     4509.1396        2.1553      141.5801
    880.2916     4500.0137        2.1547      141.6794
    880.4440     4489.3364        2.1493      142.6154
    880.5964     4476.4736        2.1438      143.5726
    880.7488     4463.6094        2.1382      144.5385
    880.9012     4450.7456        2.1339      145.2656
    881.0536     4437.8828        2.1306      145.8437
    881.2060     4425.0186        2.1283      146.2486
    881.3584     4412.1553        2.1247      146.8621
    881.5108     4417.2100        2.1211      147.4962
    881.6632     4429.4116        2.1192      147.8120
    881.8156     4441.6138        2.1189      147.8685
    881.9680     4453.8154        2.1189      147.8685
    882.1204     4466.0127        2.1189      147.8685
    882.2728     4478.2144        2.1230      147.1618
    882.4252     4490.6538        2.1286      146.1837
    882.5776     4528.6880        2.1296      146.0185
    882.7300     4566.7212        2.1285      146.2130
    882.8824     4604.7549        2.1273      146.4170
    883.0348     4642.7881        2.1262      146.6116
    883.1872     4680.8223        2.1258      146.6734
    883.3396     4718.8555        2.1274      146.3925
    883.4920     4741.7993        2.1333      145.3685
    883.6444     4733.4292        2.1581      141.0948
    883.7968     4725.0601        2.1883      135.8661
    883.9492     4716.6899        2.1986      134.0719
    884.1016     4708.3242        2.1995      133.9131
    884.2540     4699.9546        2.1978      134.2026
    884.4064     4691.5854        2.1955      134.6008
    884.5588     4678.5146        2.1922      135.1899
    884.7112     4643.9478        2.1850      136.4247
    884.8636     4609.3809        2.1762      137.9367
    885.0160     4574.8140        2.1678      139.3969
    885.1684     4540.2471        2.1569      141.2854
    885.3208     4505.6797        2.1491      142.6407
    885.4732     4471.1128        2.1380      144.5515
    885.6256     4449.6758        2.1298      145.9801
    885.7780     4463.5352        2.1249      146.8300
    885.9304     4477.3887        2.1212      147.4812
    886.0828     4491.2480        2.1193      147.8004
    886.2352     4505.1074        2.1167      148.2524
    886.3876     4518.9668        2.1166      148.2669
    886.5400     4532.8267        2.1173      148.1505
    886.6924     4550.7710        2.1204      147.6171
    886.8448     4570.9243        2.1271      146.4497
    886.9972     4591.0776        2.1527      142.0143
    887.1496     4611.2305        2.1550      141.6190
    887.3020     4631.3838        2.1569      141.2933
    887.4544     4651.5366        2.1571      141.2547
    887.6068     4671.6899        2.1584      141.0202
    887.7592     4667.9238        2.1605      140.6561
    887.9116     4659.4199        2.1621      140.3862
    888.0640     4650.9136        2.1649      139.9005
    888.2164     4642.4067        2.1649      139.9006
    888.3688     4633.9004        2.1647      139.9391
    888.5212     4625.3936        2.1629      140.2630
    888.6736     4616.8877        2.1592      140.8883
    888.8260     4613.5347        2.1587      140.9878
    888.9784     4611.1021        2.1559      141.4729
    889.1308     4608.6694        2.1519      142.1561
    889.2832     4606.2363        2.1486      142.7282
    889.4356     4603.8037        2.1440      143.5293
    889.5880     4601.3701        2.1411      144.0223
    889.7404     4599.2827        2.1388      144.4326
    889.8928     4607.2285        2.1405      144.1279
    890.0452     4615.1777        2.1458      143.2238
    890.1976     4623.1265        2.1492      142.6290
    890.3500     4631.0757        2.1516      142.2094
    890.5024     4639.0244        2.1543      141.7465
    890.6548     4646.9736        2.1565      141.3699
    890.8072     4652.4570        2.1569      141.2949
    890.9596     4648.2402        2.1577      141.1599
    891.1120     4644.0234        2.1593      140.8839
    891.2644     4639.8071        2.1601      140.7258
    891.4168     4635.5903        2.1603      140.6972
    891.5692     4631.3740        2.1603      140.6972
    891.7216     4627.1577        2.1595      140.8383
    891.8740     4621.7368        2.1575      141.1760
    892.0264     4612.0347        2.1561      141.4323
    892.1788     4602.3330        2.1541      141.7782
    892.3312     4592.6313        2.1514      142.2378
    892.4836     4582.9292        2.1489      142.6719
    892.6360     4573.2275        2.1470      142.9953
    892.7884     4563.5254        2.1473      142.9468
    892.9408     4562.4009        2.1485      142.7494
    893.0932     4575.1255        2.1488      142.6891
    893.2456     4587.8506        2.1488      142.6891
    893.3980     4600.5747        2.1488      142.6891
    893.5504     4613.2998        2.1472      142.9585
    893.7028     4626.0190        2.1441      143.5118
    893.8552     4638.7441        2.1407      144.0941
    894.0076     4654.3442        2.1371      144.7109
    894.1600     4672.6533        2.1335      145.3474
    894.3124     4690.9619        2.1360      144.9179
    894.4648     4709.2710        2.1482      142.8023
    894.6172     4727.5796        2.1563      141.3840
    894.7696     4745.8882        2.1658      139.7357
    894.9220     4764.1968        2.1729      138.5253
    895.0744     4773.0640        2.1781      137.6203
    895.2268     4777.2466        2.1818      136.9941
    895.3792     4781.4287        2.1843      136.5447
    895.5316     4785.6113        2.1829      136.7973
    895.6840     4789.7925        2.1773      137.7630
    895.8364     4793.9756        2.1749      138.1852
    895.9888     4798.1577        2.1721      138.6640
    896.1412     4794.2900        2.1680      139.3796
    896.2936     4785.2310        2.1661      139.7011
    896.4460     4776.1719        2.1661      139.6967
    896.5984     4767.1128        2.1670      139.5481
    896.7508     4758.0537        2.1713      138.7917
    896.9032     4748.9946        2.1744      138.2604
