~Version Information Section
VERS.              2.0  : CWLS LOG ASCII STANDARD - VERSION 2.0
WRAP.              NO   : ONE LINE PER DEPTH STEP
CREA.              21-jan-2025
#
~Well Information Section
#MNEM.UNIT         VALUE/NAME          DESCRIPTION
#_________         __________          ___________
STRT.M             29.2900             : START DEPTH
STOP.M             1699.9900           : STOP DEPTH
STEP.M             0.1524              : STEP
NULL.              -999.2500           : NULL VALUE
COMP.                                  : COMPANY
WELL.              F06-1               : WELL NAME
FLD.                                   : FIELD
LOC.                                   : LOCATION
PROV.                                  : PROVINCE
CNTY.                                  : COUNTY
STAT.                                  : STATE
CTRY.                                  : COUNTRY
SRVC.                                  : SERVICE COMPANY
DATE.                                  : LOG DATE
UWI.                                   : UNIQUE WELL ID
XCOORD.M           607903.000          : SURFACE X
YCOORD.M           6077213.000         : SURFACE Y
#
~Curve Information Section
#MNEM.UNIT         API CODE            DESCRIPTION
#_________         ________            ___________
DEPT.M                                 : 0 Depth
AI.m/sxg/cc                            : 1 AI from well tie
RHOB.g/cc                              : 2 Density
DT.us/ft                               : 3 Sonic
#
~Parameter Information Section
#MNEM.UNIT           VALUE             DESCRIPTION
#_________         __________          ___________
EKB.M              28.6400             : Elevation Kelly Bushing
EGL.M              -999.25             : Elevation Ground Level
#
~Other Information Section
#
~Ascii Data Section
# ...
    652.3012     4208.7651        2.0769      155.1386
    652.4536     4207.7656        2.0734      155.7423
    652.6060     4206.3501        2.0817      154.3176
    652.7584     4204.9341        2.0923      152.4722
    652.9108     4203.5181        2.1034      150.5642
    653.0632     4202.1021        2.1134      148.8267
    653.2156     4200.6860        2.1149      148.5707
    653.3680     4196.3374        2.1087      149.6448
    653.5204     4185.8921        2.1007      151.0378
    653.6728     4175.4473        2.0954      151.9397
    653.8252     4165.0020        2.0938      152.2203
    653.9776     4154.5571        2.0944      152.1089
    654.1300     4144.1113        2.0947      152.0567
    654.2824     4133.6665        2.0895      152.9703
    654.4348     4127.5498        2.0805      154.5281
    654.5872     4122.9175        2.0743      155.5947
    654.7396     4118.2827        2.0733      155.7647
    654.8920     4113.6484        2.0789      154.7929
    655.0444     4109.0137        2.0865      153.4800
    655.1968     4104.3794        2.0901      152.8535
    655.3492     4100.0693        2.0876      153.2873
    655.5016     4096.6377        2.0816      154.3310
    655.6540     4093.2053        2.0794      154.7222
    655.8064     4089.7737        2.0812      154.4078
    655.9588     4086.3418        2.0828      154.1315
    656.1112     4082.9102        2.0810      154.4359
    656.2636     4079.4783        2.0778      154.9855
    656.4160     4090.1401        2.0746      155.5382
    656.5684     4104.4580        2.0724      155.9301
    656.7208     4118.7817        2.0661      157.0202
    656.8732     4133.1060        2.0680      156.6939
    657.0256     4147.4297        2.0692      156.4763
    657.1780     4161.7534        2.0727      155.8574
    657.3304     4178.0103        2.0778      154.9895
    657.4828     4197.2607        2.0836      153.9879
    657.6352     4216.5103        2.0894      152.9787
    657.7876     4235.7598        2.0954      151.9485
    657.9400     4255.0098        2.1005      151.0558
    658.0924     4274.2598        2.1006      151.0467
    658.2448     4293.5098        2.1012      150.9444
    658.3972     4282.6787        2.1030      150.6164
    658.5496     4265.1719        2.1046      150.3452
    658.7020     4247.6655        2.1077      149.8175
    658.8544     4230.1592        2.1095      149.5061
    659.0068     4212.6528        2.1143      148.6676
    659.1592     4195.1460        2.1206      147.5786
    659.3116     4176.6714        2.1271      146.4578
    659.4640     4150.1436        2.1232      147.1383
    659.6164     4123.6147        2.1204      147.6178
    659.7688     4097.0869        2.0907      152.7600
    659.9212     4070.5583        2.0800      154.6160
    660.0736     4044.0303        2.0668      156.8903
    660.2260     4017.5020        2.0646      157.2679
    660.3784     4007.1794        2.0634      157.4714
    660.5308     4009.1494        2.0626      157.6206
    660.6832     4011.1191        2.0625      157.6295
    660.8356     4013.0894        2.0625      157.6295
    660.9880     4015.0593        2.0625      157.6295
    661.1404     4017.0288        2.0625      157.6295
    661.2928     4021.4487        2.0629      157.5704
    661.4452     4034.6013        2.0639      157.3894
    661.5976     4047.7539        2.0654      157.1282
    661.7500     4060.9067        2.0676      156.7512
    661.9024     4074.0593        2.0691      156.4820
    662.0548     4087.2119        2.0698      156.3686
    662.2072     4100.3647        2.0716      156.0611
    662.3596     4111.3311        2.0736      155.7186
    662.5120     4121.8857        2.0741      155.6376
    662.6644     4132.4409        2.0757      155.3614
    662.8168     4142.9951        2.0788      154.8185
    662.9692     4153.5503        2.0819      154.2916
    663.1216     4164.1050        2.0855      153.6534
    663.2740     4171.4829        2.0904      152.8165
    663.4264     4173.5166        2.0947      152.0643
    663.5788     4175.5513        2.0959      151.8575
    663.7312     4177.5854        2.0968      151.7055
    663.8836     4179.6201        2.0970      151.6627
    664.0360     4181.6543        2.0947      152.0702
    664.1884     4183.6885        2.0908      152.7414
    664.3408     4180.8359        2.0912      152.6656
    664.4932     4176.7456        2.0935      152.2676
    664.6456     4172.6543        2.0921      152.5039
    664.7980     4168.5640        2.0917      152.5774
    664.9504     4164.4736        2.0939      152.2028
    665.1028     4160.3828        2.0953      151.9579
    665.2552     4156.1182        2.0937      152.2390
    665.4076     4151.2710        2.0900      152.8744
    665.5600     4146.4229        2.0850      153.7429
    665.7124     4141.5747        2.0845      153.8368
    665.8648     4136.7271        2.0860      153.5688
    666.0172     4131.8799        2.0860      153.5675
    666.1696     4127.0342        2.0866      153.4638
    666.3220     4124.6445        2.0867      153.4461
    666.4744     4123.2373        2.0867      153.4461
    666.6268     4121.8306        2.0858      153.6003
    666.7792     4120.4233        2.0840      153.9142
    666.9316     4119.0161        2.0855      153.6618
    667.0840     4117.6089        2.0853      153.6902
    667.2364     4113.7349        2.0829      154.0963
    667.3888     4100.6138        2.0766      155.1925
    667.5412     4087.4927        2.0745      155.5660
    667.6936     4074.3718        2.0819      154.2874
    667.8460     4061.2507        2.0864      153.4995
    667.9984     4048.1299        2.0893      152.9995
    668.1508     4035.0144        2.0853      153.6884
    668.3032     4024.1218        2.0835      153.9971
    668.4556     4014.0752        2.0792      154.7552
    668.6080     4004.0283        2.0759      155.3228
    668.7604     3993.9817        2.0726      155.8970
    668.9128     3983.9351        2.0662      157.0026
    669.0652     3973.8882        2.0649      157.2136
    669.2176     3968.1455        2.0545      159.0164
    669.3700     3971.6167        2.0485      160.0583
    669.5224     3975.0881        2.0430      161.0110
    669.6748     3978.5596        2.0435      160.9277
    669.8272     3982.0310        2.0458      160.5378
    669.9796     3985.5024        2.0481      160.1369
    670.1320     3988.1204        2.0536      159.1781
    670.2844     3980.6277        2.0664      156.9623
    670.4368     3973.1343        2.0785      154.8709
    670.5892     3965.6411        2.0924      152.4747
    670.7416     3958.1479        2.0930      152.3637
    670.8940     3950.6550        2.0804      154.5327
    671.0464     3943.1616        2.0671      156.8314
    671.1988     3932.6775        2.0580      158.4084
    671.3512     3920.3997        2.0498      159.8279
    671.5036     3908.1221        2.0473      160.2597
    671.6560     3895.8442        2.0470      160.3265
    671.8084     3883.5664        2.0470      160.3127
    671.9608     3871.2888        2.0454      160.5948
    672.1132     3866.0486        2.0407      161.4120
    672.2656     3872.2551        2.0357      162.2769
    672.4180     3878.4622        2.0372      162.0210
    672.5704     3884.6689        2.0400      161.5377
    672.7228     3890.8755        2.0416      161.2669
    672.8752     3897.0828        2.0426      161.0856
    673.0276     3902.2539        2.0414      161.2907
    673.1800     3903.1731        2.0419      161.2011
    673.3324     3904.0923        2.0448      160.6966
    673.4848     3905.0110        2.0479      160.1701
    673.6372     3905.9304        2.0512      159.5995
    673.7896     3906.8491        2.0542      159.0750
    673.9420     3907.7678        2.0559      158.7850
    674.0944     3907.6467        2.0578      158.4474
    674.2468     3907.4629        2.0581      158.3881
    674.3992     3907.2793        2.0520      159.4570
