~Version Information Section
VERS.              2.0  : CWLS LOG ASCII STANDARD - VERSION 2.0
WRAP.              NO   : ONE LINE PER DEPTH STEP
CREA.              21-jan-2025
#
~Well Information Section
#MNEM.UNIT         VALUE/NAME          DESCRIPTION
#_________         __________          ___________
STRT.M             29.2900             : START DEPTH
STOP.M             1699.9900           : STOP DEPTH
STEP.M             0.1524              : STEP
NULL.              -999.2500           : NULL VALUE
COMP.                                  : COMPANY
WELL.              F06-1               : WELL NAME
FLD.                                   : FIELD
LOC.                                   : LOCATION
PROV.                                  : PROVINCE
CNTY.                                  : COUNTY
STAT.                                  : STATE
CTRY.                                  : COUNTRY
SRVC.                                  : SERVICE COMPANY
DATE.                                  : LOG DATE
UWI.                                   : UNIQUE WELL ID
XCOORD.M           607903.000          : SURFACE X
YCOORD.M           6077213.000         : SURFACE Y
#
~Curve Information Section
#MNEM.UNIT         API CODE            DESCRIPTION
#_________         ________            ___________
DEPT.M                                 : 0 Depth
AI.m/sxg/cc                            : 1 AI from well tie
RHOB.g/cc                              : 2 Density
DT.us/ft                               : 3 Sonic
#
~Parameter Information Section
#MNEM.UNIT           VALUE             DESCRIPTION
#_________         __________          ___________
EKB.M              28.6400             : Elevation Kelly Bushing
EGL.M              -999.25             : Elevation Ground Level
#
~Other Information Section
#
~Ascii Data Section
# ...
   1097.3092     4964.9497        2.1970      134.3624
   1097.4617     4964.6611        2.1955      134.6001
   1097.6140     4964.3730        2.1931      135.0335
   1097.7665     4964.0850        2.1903      135.5176
   1097.9188     4963.7969        2.1907      135.4517
   1098.0713     4963.5210        2.1925      135.1271
   1098.2236     4964.2744        2.1939      134.8914
   1098.3761     4965.0288        2.1946      134.7717
   1098.5284     4965.7827        2.1937      134.9265
   1098.6809     4966.5371        2.1941      134.8555
   1098.8333     4967.2910        2.1971      134.3331
   1098.9856     4968.0449        2.2013      133.6141
   1099.1381     4968.7988        2.2032      133.2836
   1099.2904     4969.5728        2.2010      133.6653
   1099.4429     4970.3633        2.1962      134.4828
   1099.5952     4971.1528        2.1890      135.7432
   1099.7477     4971.9429        2.1820      136.9634
   1099.9000     4972.7319        2.2094      132.2039
   1100.0525     4973.5220        2.2324      128.2278
   1100.2048     4974.3115        2.1893      135.6781
   1100.3573     4975.3350        2.1775      137.7319
   1100.5096     4978.0293        2.1794      137.4047
   1100.6621     4980.7251        2.1847      136.4802
   1100.8145     4983.4194        2.1895      135.6593
   1100.9668     4986.1123        2.1961      134.5049
   1101.1193     4988.8091        2.2004      133.7708
   1101.2716     4991.5024        2.1984      134.1137
   1101.4241     4994.1987        2.1960      134.5318
   1101.5764     4996.7314        2.1959      134.5484
   1101.7289     4999.2061        2.1972      134.3135
   1101.8812     5001.6787        2.1981      134.1545
   1102.0337     5004.1528        2.1983      134.1236
   1102.1860     5006.6255        2.1983      134.1236
   1102.3385     5009.1006        2.1987      134.0531
   1102.4908     5011.5732        2.1989      134.0245
   1102.6433     5014.1636        2.1985      134.0940
   1102.7957     5017.0601        2.1979      134.1925
   1102.9480     5019.9561        2.1974      134.2943
   1103.1005     5022.8540        2.1995      133.9188
   1103.2528     5025.7500        2.2020      133.4869
   1103.4053     5028.6484        2.2011      133.6482
   1103.5576     5031.5439        2.2006      133.7252
   1103.7101     5034.4419        2.2003      133.7882
   1103.8624     5037.5723        2.2007      133.7175
   1104.0149     5040.7612        2.2036      133.2084
   1104.1672     5043.9487        2.2074      132.5519
   1104.3197     5047.1382        2.2113      131.8885
   1104.4720     5050.3252        2.2109      131.9526
   1104.6245     5053.5146        2.2042      133.0962
   1104.7769     5056.7021        2.1987      134.0686
   1104.9292     5058.1987        2.1960      134.5321
   1105.0817     5055.5073        2.1989      134.0263
   1105.2340     5052.8184        2.2018      133.5179
   1105.3865     5050.1274        2.2038      133.1788
   1105.5388     5047.4385        2.2031      133.2853
   1105.6913     5044.7471        2.2050      132.9699
   1105.8436     5042.0581        2.2107      131.9881
   1105.9961     5039.3667        2.2190      130.5447
   1106.1484     5033.9131        2.2176      130.7755
   1106.3009     5027.5664        2.2099      132.1106
   1106.4532     5021.2261        2.1997      133.8736
   1106.6057     5014.8799        2.1960      134.5157
   1106.7581     5008.5381        2.1969      134.3734
   1106.9104     5002.1973        2.2006      133.7264
   1107.0629     4995.8511        2.2004      133.7685
   1107.2152     4990.6084        2.1980      134.1888
   1107.3677     4988.4307        2.1923      135.1641
   1107.5200     4986.2554        2.1969      134.3634
   1107.6725     4984.0781        2.2011      133.6443
   1107.8248     4981.9023        2.2031      133.2886
   1107.9773     4979.7251        2.2035      133.2269
   1108.1296     4977.5493        2.2013      133.6086
   1108.2821     4975.3721        2.1990      134.0071
   1108.4344     4975.2715        2.1964      134.4580
   1108.5868     4975.6929        2.1930      135.0434
   1108.7393     4976.1147        2.1909      135.4142
   1108.8916     4976.5371        2.1920      135.2194
   1109.0441     4976.9590        2.1935      134.9583
   1109.1964     4977.3809        2.1944      134.7977
   1109.3489     4977.8027        2.1950      134.6915
   1109.5012     4989.2959        2.1936      134.9380
   1109.6537     5018.3481        2.1931      135.0299
   1109.8060     5047.3774        2.1936      134.9459
   1109.9585     5076.4297        2.1941      134.8531
   1110.1108     5105.4590        2.1935      134.9528
   1110.2633     5134.5112        2.1903      135.5097
   1110.4156     5163.5405        2.1891      135.7219
   1110.5680     5192.5698        2.1915      135.2970
   1110.7205     5212.4194        2.1970      134.3468
   1110.8728     5232.1938        2.2062      132.7649
   1111.0253     5251.9834        2.2145      131.3265
   1111.1776     5271.7578        2.2216      130.0926
   1111.3301     5291.5483        2.2283      128.9251
   1111.4824     5311.3223        2.2335      128.0306
   1111.6349     5331.1123        2.2380      127.2441
   1111.7872     5345.9443        2.2426      126.4516
   1111.9397     5349.4897        2.2490      125.3546
   1112.0920     5353.0322        2.2524      124.7605
   1112.2445     5356.5781        2.2509      125.0128
   1112.3969     5360.1206        2.2497      125.2280
   1112.5492     5363.6631        2.2483      125.4662
   1112.7017     5367.2085        2.2465      125.7696
   1112.8540     5370.7510        2.2396      126.9825
   1113.0065     5369.0454        2.2264      129.2680
   1113.1588     5357.8267        2.2174      130.8153
   1113.3113     5346.5996        2.2142      131.3839
   1113.4636     5335.3813        2.2161      131.0519
   1113.6161     5324.1538        2.2234      129.7853
   1113.7684     5312.9355        2.2356      127.6583
   1113.9209     5301.7080        2.2477      125.5647
   1114.0732     5290.4897        2.2553      124.2499
   1114.2257     5280.7480        2.2588      123.6449
   1114.3781     5272.1445        2.2580      123.7868
   1114.5304     5263.5405        2.2557      124.1884
   1114.6829     5254.9302        2.2353      127.7264
   1114.8352     5246.3262        2.1722      138.6428
   1114.9877     5237.7158        2.1672      139.5048
   1115.1400     5229.1118        2.1628      140.2601
   1115.2925     5220.6191        2.1833      136.7293
   1115.4448     5228.3433        2.2641      122.7268
   1115.5973     5236.0737        2.2591      123.5973
   1115.7496     5243.7979        2.2526      124.7146
   1115.9021     5251.5283        2.2482      125.4891
   1116.0544     5259.2520        2.2429      126.4068
   1116.2069     5266.9824        2.2308      128.4955
   1116.3593     5274.7065        2.2271      129.1435
   1116.5116     5281.7480        2.2271      129.1435
   1116.6641     5280.2100        2.2271      129.1435
   1116.8164     5278.6738        2.2271      129.1435
   1116.9689     5277.1357        2.2271      129.1435
   1117.1212     5275.5996        2.2280      128.9797
   1117.2737     5274.0610        2.2312      128.4415
   1117.4260     5272.5244        2.2295      128.7361
   1117.5785     5270.9868        2.2294      128.7451
   1117.7308     5274.9561        2.2279      128.9956
   1117.8833     5291.9053        2.2260      129.3209
   1118.0356     5308.8408        2.2318      128.3286
   1118.1881     5325.7900        2.2328      128.1452
   1118.3405     5342.7256        2.2285      128.8989
   1118.4928     5359.6606        2.2219      130.0497
   1118.6453     5376.6104        2.2194      130.4758
   1118.7976     5393.5454        2.2224      129.9550
   1118.9501     5402.0557        2.2276      129.0528
   1119.1024     5404.1987        2.2324      128.2259
   1119.2549     5406.3438        2.2342      127.9074
   1119.4072     5408.4868        2.2338      127.9751
