~Version Information Section
VERS.              2.0  : CWLS LOG ASCII STANDARD - VERSION 2.0
WRAP.              NO   : ONE LINE PER DEPTH STEP
CREA.              21-jan-2025
#
~Well Information Section
#MNEM.UNIT         VALUE/NAME          DESCRIPTION
#_________         __________          ___________
STRT.M             29.2900             : START DEPTH
STOP.M             1699.9900           : STOP DEPTH
STEP.M             0.1524              : STEP
NULL.              -999.2500           : NULL VALUE
COMP.                                  : COMPANY
WELL.              F06-1               : WELL NAME
FLD.                                   : FIELD
LOC.                                   : LOCATION
PROV.                                  : PROVINCE
CNTY.                                  : COUNTY
STAT.                                  : STATE
CTRY.                                  : COUNTRY
SRVC.                                  : SERVICE COMPANY
DATE.                                  : LOG DATE
UWI.                                   : UNIQUE WELL ID
XCOORD.M           607903.000          : SURFACE X
YCOORD.M           6077213.000         : SURFACE Y
#
~Curve Information Section
#MNEM.UNIT         API CODE            DESCRIPTION
#_________         ________            ___________
DEPT.M                                 : 0 Depth
AI.m/sxg/cc                            : 1 AI from well tie
RHOB.g/cc                              : 2 Density
DT.us/ft                               : 3 Sonic
#
~Parameter Information Section
#MNEM.UNIT           VALUE             DESCRIPTION
#_________         __________          ___________
EKB.M              28.6400             : Elevation Kelly Bushing
EGL.M              -999.25             : Elevation Ground Level
#
~Other Information Section
#
~Ascii Data Section
# ...
   1319.8132     4232.8125        2.1122      149.0325
   1319.9657     4223.8896        2.1154      148.4813
   1320.1180     4214.9736        2.1128      148.9306
   1320.2705     4206.0508        2.1061      150.0798
   1320.4229     4203.9414        2.0983      151.4415
   1320.5752     4219.2954        2.0854      153.6797
   1320.7277     4234.6611        2.0705      156.2472
   1320.8800     4250.0156        2.0624      157.6519
   1321.0325     4265.3823        2.0612      157.8546
   1321.1848     4280.7354        2.0671      156.8407
   1321.3373     4296.1025        2.0836      153.9818
   1321.4896     4297.7046        2.1049      150.3026
   1321.6421     4297.1396        2.1240      146.9996
   1321.7944     4296.5737        2.1334      145.3663
   1321.9469     4296.0078        2.1338      145.2995
   1322.0992     4295.4429        2.1287      146.1800
   1322.2517     4294.8770        2.1213      147.4604
   1322.4041     4294.0332        2.1200      147.6806
   1322.5564     4288.5024        2.1177      148.0773
   1322.7089     4282.9673        2.1189      147.8692
   1322.8612     4277.4365        2.1234      147.0986
   1323.0137     4271.9009        2.1149      148.5762
   1323.1660     4266.3701        2.0973      151.6068
   1323.3185     4260.8350        2.0839      153.9414
   1323.4708     4261.2881        2.0811      154.4227
   1323.6233     4271.1318        2.0846      153.8175
   1323.7756     4280.9683        2.0916      152.5910
   1323.9281     4290.8115        2.0987      151.3693
   1324.0804     4300.6475        2.1037      150.5085
   1324.2329     4310.4912        2.1270      146.4779
   1324.3853     4320.3267        2.1302      145.9155
   1324.5376     4332.2407        2.1233      147.1151
   1324.6901     4344.9307        2.1103      149.3721
   1324.8424     4357.6099        2.0971      151.6420
   1324.9949     4370.2993        2.0941      152.1669
   1325.1472     4382.9790        2.1022      150.7665
   1325.2997     4395.6685        2.1085      149.6775
   1325.4520     4406.8315        2.1126      148.9604
   1325.6045     4398.4790        2.1147      148.6102
   1325.7568     4390.1328        2.1152      148.5032
   1325.9093     4381.7803        2.1390      144.3919
   1326.0616     4373.4346        2.1367      144.8017
   1326.2141     4365.0815        2.1394      144.3290
   1326.3665     4356.7358        2.1435      143.6087
   1326.5188     4347.8364        2.1452      143.3256
   1326.6713     4336.6519        2.1426      143.7728
   1326.8236     4325.4766        2.1308      145.8190
   1326.9761     4314.2910        2.1122      149.0281
   1327.1284     4303.1157        2.1015      150.8905
   1327.2809     4291.9316        2.0655      157.1211
   1327.4332     4280.7554        2.0721      155.9713
   1327.5857     4279.7524        2.0905      152.7829
   1327.7380     4287.0449        2.1099      149.4346
   1327.8905     4294.3438        2.1144      148.6569
   1328.0428     4301.6362        2.1150      148.5433
   1328.1953     4308.9346        2.1158      148.4027
   1328.3477     4316.2275        2.1220      147.3324
   1328.5000     4323.5195        2.1280      146.2921
   1328.6525     4330.1558        2.1214      147.4373
   1328.8048     4336.6338        2.1094      149.5243
   1328.9573     4343.1177        2.1054      150.2203
   1329.1096     4349.5962        2.1064      150.0463
   1329.2621     4356.0801        2.1077      149.8200
   1329.4144     4362.5586        2.1084      149.6899
   1329.5669     4369.5190        2.1090      149.5917
   1329.7192     4379.8853        2.1091      149.5623
   1329.8717     4390.2598        2.1112      149.2073
   1330.0240     4400.6255        2.1194      147.7978
   1330.1765     4411.0000        2.1276      146.3658
   1330.3289     4421.3662        2.1340      145.2570
   1330.4812     4431.7329        2.1379      144.5728
   1330.6337     4436.5566        2.1333      145.3704
   1330.7860     4429.5635        2.1242      146.9593
   1330.9385     4422.5640        2.1221      147.3209
   1331.0908     4415.5703        2.1292      146.0856
   1331.2433     4408.5708        2.1370      144.7396
   1331.3956     4401.5776        2.1387      144.4461
   1331.5481     4394.5781        2.1325      145.5179
   1331.7004     4391.5190        2.1233      147.1055
   1331.8529     4392.9497        2.1182      148.0009
   1332.0052     4394.3789        2.1190      147.8490
   1332.1577     4395.8096        2.1249      146.8333
   1332.3101     4397.2388        2.1267      146.5214
   1332.4624     4398.6685        2.1183      147.9701
   1332.6149     4400.0986        2.1075      149.8543
   1332.7672     4409.7666        2.1026      150.6865
   1332.9197     4422.8242        2.1086      149.6449
   1333.0720     4435.8711        2.1220      147.3420
   1333.2245     4448.9287        2.1316      145.6758
   1333.3768     4461.9761        2.1297      146.0010
   1333.5293     4475.0337        2.1294      146.0553
   1333.6816     4488.0811        2.1276      146.3573
   1333.8341     4482.2295        2.1277      146.3466
   1333.9865     4474.5396        2.1340      145.2616
   1334.1389     4466.8433        2.1359      144.9207
   1334.2913     4459.1528        2.1407      144.0870
   1334.4436     4451.4629        2.1476      142.9137
   1334.5961     4443.7666        2.1547      141.6811
   1334.7484     4436.0767        2.1450      143.3546
   1334.9009     4422.3477        2.1430      143.7063
   1335.0532     4408.4561        2.1326      145.4969
   1335.2057     4394.5532        2.1103      149.3588
   1335.3580     4380.6611        2.0867      153.4527
   1335.5105     4366.7583        2.0970      151.6736
   1335.6628     4352.8672        2.1284      146.2253
   1335.8153     4344.0801        2.1387      144.4395
   1335.9677     4354.1040        2.1323      145.5435
   1336.1200     4364.1270        2.1194      147.7876
   1336.2725     4374.1587        2.1069      149.9447
   1336.4248     4384.1816        2.0875      153.3151
   1336.5773     4394.2129        2.0886      153.1175
   1336.7296     4404.2358        2.1048      150.3131
   1336.8821     4410.7163        2.1209      147.5241
   1337.0344     4414.0640        2.1353      145.0292
   1337.1869     4417.4150        2.1369      144.7500
   1337.3392     4420.7627        2.1399      144.2416
   1337.4917     4424.1138        2.1470      142.9978
   1337.6440     4427.4614        2.1464      143.1097
   1337.7965     4430.8120        2.1437      143.5738
   1337.9489     4427.9790        2.1344      145.1773
   1338.1012     4420.9175        2.1215      147.4183
   1338.2537     4413.8506        2.1185      147.9524
   1338.4060     4406.7886        2.1207      147.5563
   1338.5585     4399.7212        2.1189      147.8851
   1338.7108     4392.6592        2.1146      148.6229
   1338.8633     4385.5923        2.1112      149.2108
   1339.0156     4419.8564        2.1147      148.5980
   1339.1681     4462.1348        2.1259      146.6554
   1339.3204     4504.3794        2.1331      145.4215
   1339.4729     4546.6577        2.1316      145.6698
   1339.6252     4588.9023        2.1288      146.1522
   1339.7777     4631.1812        2.1244      146.9159
   1339.9301     4672.9746        2.1194      147.7891
   1340.0824     4689.5981        2.1178      148.0676
   1340.2349     4706.2358        2.1178      148.0676
   1340.3872     4722.8599        2.1186      147.9265
   1340.5397     4739.4971        2.1368      144.7748
   1340.6920     4756.1211        2.1648      139.9286
   1340.8445     4772.7588        2.1828      136.8043
   1340.9968     4788.4844        2.1989      134.0285
   1341.1493     4751.6914        2.2119      131.7778
   1341.3016     4714.9282        2.2186      130.6165
   1341.4541     4678.1357        2.2155      131.1515
   1341.6064     4641.3726        2.1982      134.1502
   1341.7589     4604.5806        2.1816      137.0130
   1341.9113     4567.8169        2.1701      139.0100
