~Version Information Section
VERS.              2.0  : CWLS LOG ASCII STANDARD - VERSION 2.0
WRAP.              NO   : ONE LINE PER DEPTH STEP
CREA.              21-jan-2025
#
~Well Information Section
#MNEM.UNIT         VALUE/NAME          DESCRIPTION
#_________         __________          ___________
STRT.M             29.2900             : START DEPTH
STOP.M             1699.9900           : STOP DEPTH
STEP.M             0.1524              : STEP
NULL.              -999.2500           : NULL VALUE
COMP.                                  : COMPANY
WELL.              F06-1               : WELL NAME
FLD.                                   : FIELD
LOC.                                   : LOCATION
PROV.                                  : PROVINCE
CNTY.                                  : COUNTY
STAT.                                  : STATE
CTRY.                                  : COUNTRY
SRVC.                                  : SERVICE COMPANY
DATE.                                  : LOG DATE
UWI.                                   : UNIQUE WELL ID
XCOORD.M           607903.000          : SURFACE X
YCOORD.M           6077213.000         : SURFACE Y
#
~Curve Information Section
#MNEM.UNIT         API CODE            DESCRIPTION
#_________         ________            ___________
DEPT.M                                 : 0 Depth
AI.m/sxg/cc                            : 1 AI from well tie
RHOB.g/cc                              : 2 Density
DT.us/ft                               : 3 Sonic
#
~Parameter Information Section
#MNEM.UNIT           VALUE             DESCRIPTION
#_________         __________          ___________
EKB.M              28.6400             : Elevation Kelly Bushing
EGL.M              -999.25             : Elevation Ground Level
#
~Other Information Section
#
~Ascii Data Section
# ...
   1675.8197     5658.7520        2.2600      123.4395
   1675.9720     5637.3311        2.2568      123.9901
   1676.1245     5615.8931        2.2606      123.3301
   1676.2769     5594.4722        2.2617      123.1470
   1676.4292     5583.8892        2.2583      123.7324
   1676.5817     5656.4546        2.2549      124.3300
   1676.7340     5728.9614        2.2583      123.7329
   1676.8865     5801.5269        2.2732      121.1553
   1677.0388     5874.0337        2.2845      119.1963
   1677.1913     5946.5991        2.2887      118.4674
   1677.3436     6019.1064        2.2844      119.2159
   1677.4961     6091.6714        2.2706      121.5989
   1677.6484     6164.1787        2.2523      124.7666
   1677.8009     6161.3057        2.2366      127.4960
   1677.9532     6149.9775        2.2332      128.0731
   1678.1057     6138.6401        2.2351      127.7411
   1678.2581     6127.3120        2.2362      127.5544
   1678.4104     6115.9839        2.2423      126.5078
   1678.5629     6104.6465        2.2522      124.7903
   1678.7152     6093.3184        2.2840      119.2843
   1678.8677     6081.9810        2.3553      106.9312
   1679.0200     6034.1733        2.4079       97.8336
   1679.1725     5974.5688        2.4371       92.7855
   1679.3248     5915.0122        2.4434       91.6775
   1679.4773     5855.4082        2.4162       96.3917
   1679.6296     5795.8521        2.2897      118.2934
   1679.7821     5736.2480        2.2606      123.3366
   1679.9344     5676.6919        2.2443      126.1711
   1680.0869     5617.0879        2.2425      126.4755
   1680.2393     5557.5317        2.2438      126.2362
   1680.3916     5562.4204        2.2480      125.5226
   1680.5441     5583.6309        2.2543      124.4358
   1680.6964     5604.8242        2.2607      123.3257
   1680.8489     5626.0352        2.2671      122.2068
   1681.0012     5647.2285        2.2722      121.3289
   1681.1537     5668.4390        2.2650      122.5645
   1681.3060     5689.6328        2.2517      124.8668
   1681.4585     5710.8428        2.2439      126.2213
   1681.6108     5746.4888        2.2473      125.6334
   1681.7633     5787.6670        2.2592      123.5778
   1681.9156     5828.8120        2.2726      121.2547
   1682.0681     5869.9902        2.2794      120.0862
   1682.2205     5911.1353        2.2781      120.3004
   1682.3728     5952.2808        2.2718      121.3926
   1682.5253     5993.4585        2.2632      122.8885
   1682.6776     6034.6040        2.2585      123.7078
   1682.8301     6054.7080        2.2592      123.5823
   1682.9824     6057.5718        2.2717      121.4147
   1683.1349     6060.4380        2.3012      116.3058
   1683.2872     6063.3008        2.3358      110.3209
   1683.4397     6066.1660        2.3663      105.0336
   1683.5920     6069.0298        2.3834      102.0815
   1683.7445     6071.8955        2.3698      104.4343
   1683.8969     6074.7583        2.3352      110.4230
   1684.0493     6077.6240        2.3035      115.9105
   1684.2017     6063.0273        2.2838      119.3198
   1684.3540     6037.1060        2.2777      120.3808
   1684.5065     6011.1636        2.2813      119.7558
   1684.6588     5985.2427        2.2919      117.9276
   1684.8113     5959.2998        2.3009      116.3617
   1684.9636     5933.3784        2.3024      116.1042
   1685.1161     5907.4365        2.2989      116.7140
   1685.2684     5881.5151        2.2911      118.0573
   1685.4209     5868.0493        2.2813      119.7513
   1685.5732     5925.8403        2.2762      120.6323
   1685.7257     5983.6782        2.2774      120.4333
   1685.8781     6041.4697        2.2807      119.8625
   1686.0305     6099.3076        2.2835      119.3618
   1686.1829     6157.0991        2.2843      119.2364
   1686.3352     6214.8901        2.2832      119.4214
   1686.4877     6272.7280        2.2825      119.5378
   1686.6400     6330.5195        2.2834      119.3825
   1686.7925     6389.4463        2.2830      119.4592
   1686.9448     6448.5986        2.2811      119.7761
   1687.0973     6507.7998        2.2824      119.5482
   1687.2496     6566.9541        2.2945      117.4675
   1687.4021     6626.1538        2.3293      111.4419
   1687.5544     6685.3081        2.3401      109.5840
   1687.7069     6744.5088        2.3707      104.2759
   1687.8593     6803.6626        2.5094       80.2603
   1688.0117     6862.8638        2.4802       85.3116
   1688.1641     6862.6006        2.3470      108.3777
   1688.3164     6796.7085        2.3554      106.9262
   1688.4689     6730.7637        2.2691      121.8671
   1688.6212     6664.8711        2.2427      126.4364
   1688.7737     6598.9263        2.2432      126.3578
   1688.9260     6533.0342        2.2528      124.6796
   1689.0785     6467.0894        2.2740      121.0221
   1689.2308     6401.1968        2.3334      110.7311
   1689.3833     6335.2520        2.3923      100.5456
   1689.5356     6282.6685        2.4338       93.3619
   1689.6881     6231.5513        2.4271       94.5129
   1689.8405     6180.4751        2.4182       96.0483
   1689.9929     6129.3584        2.3842      101.9402
   1690.1453     6078.2822        2.2844      119.2127
   1690.2976     6027.2061        2.2670      122.2287
   1690.4501     5976.0889        2.2732      121.1522
   1690.6024     5925.0127        2.2799      119.9997
   1690.7549     5873.8960        2.2846      119.1768
   1690.9072     5842.0405        2.2924      117.8364
   1691.0597     5814.6216        2.3038      115.8633
   1691.2120     5787.2246        2.3158      113.7772
   1691.3645     5759.8057        2.3263      111.9688
   1691.5168     5732.4097        2.3273      111.7936
   1691.6693     5704.9902        2.3238      112.4032
   1691.8217     5677.5933        2.3202      113.0285
   1691.9740     5650.1973        2.2922      117.8749
   1692.1265     5624.1475        2.2541      124.4675
   1692.2788     5607.3623        2.2408      126.7573
   1692.4313     5590.5645        2.2424      126.4992
   1692.5836     5573.7798        2.2456      125.9379
   1692.7361     5556.9819        2.2478      125.5484
   1692.8884     5540.1968        2.2508      125.0368
   1693.0409     5523.3989        2.2514      124.9336
   1693.1932     5506.6143        2.2440      126.2156
   1693.3457     5493.6104        2.2392      127.0492
   1693.4980     5496.8892        2.2466      125.7635
   1693.6505     5500.1709        2.2574      123.8899
   1693.8029     5503.4497        2.2633      122.8623
   1693.9552     5506.7290        2.2649      122.5955
   1694.1077     5510.0103        2.2639      122.7625
   1694.2600     5513.2896        2.2594      123.5371
   1694.4125     5516.5708        2.2519      124.8390
   1694.5648     5521.1162        2.2467      125.7509
   1694.7173     5534.2803        2.2458      125.8938
   1694.8696     5547.4341        2.2442      126.1771
   1695.0221     5560.5986        2.2433      126.3386
   1695.1744     5573.7524        2.2429      126.4081
   1695.3269     5586.9165        2.2421      126.5417
   1695.4792     5600.0708        2.2426      126.4548
   1695.6317     5613.2349        2.2472      125.6522
   1695.7841     5625.4814        2.2577      123.8498
   1695.9364     5633.9746        2.2632      122.8837
   1696.0889     5642.4741        2.2712      121.4994
   1696.2412     5650.9673        2.2784      120.2639
   1696.3937     5659.4673        2.2802      119.9370
   1696.5460     5667.9604        2.2754      120.7718
   1696.6985     5676.4600        2.2695      121.8013
   1696.8508     5684.9536        2.2635      122.8401
   1697.0033     5693.4531        2.2621      123.0898
   1697.1556     5686.3965        2.2644      122.6840
   1697.3081     5678.8843        2.2678      122.0977
   1697.4604     5671.3789        2.2762      120.6240
   1697.6129     5663.8667        2.2867      118.8201
   1697.7653     5656.3608        2.2959      117.2397
   1697.9176     5648.8555        2.2985      116.7855
