~Version Information Section
VERS.              2.0  : CWLS LOG ASCII STANDARD - VERSION 2.0
WRAP.              NO   : ONE LINE PER DEPTH STEP
CREA.              21-jan-2025
#
~Well Information Section
#MNEM.UNIT         VALUE/NAME          DESCRIPTION
#_________         __________          ___________
STRT.M             29.2900             : START DEPTH
STOP.M             1699.9900           : STOP DEPTH
STEP.M             0.1524              : STEP
NULL.              -999.2500           : NULL VALUE
COMP.                                  : COMPANY
WELL.              F06-1               : WELL NAME
FLD.                                   : FIELD
LOC.                                   : LOCATION
PROV.                                  : PROVINCE
CNTY.                                  : COUNTY
STAT.                                  : STATE
CTRY.                                  : COUNTRY
SRVC.                                  : SERVICE COMPANY
DATE.                                  : LOG DATE
UWI.                                   : UNIQUE WELL ID
XCOORD.M           607903.000          : SURFACE X
YCOORD.M           6077213.000         : SURFACE Y
#
~Curve Information Section
#MNEM.UNIT         API CODE            DESCRIPTION
#_________         ________            ___________
DEPT.M                                 : 0 Depth
AI.m/sxg/cc                            : 1 AI from well tie
RHOB.g/cc                              : 2 Density
DT.us/ft                               : 3 Sonic
#
~Parameter Information Section
#MNEM.UNIT           VALUE             DESCRIPTION
#_________         __________          ___________
EKB.M              28.6400             : Elevation Kelly Bushing
EGL.M              -999.25             : Elevation Ground Level
#
~Other Information Section
#
~Ascii Data Section
# ...
   1453.3157     4220.9404        2.0758      155.3491
   1453.4680     4225.6353        2.0761      155.2989
   1453.6205     4230.3330        2.0804      154.5381
   1453.7728     4235.0278        2.0911      152.6958
   1453.9253     4229.7998        2.1048      150.3094
   1454.0776     4222.1558        2.1164      148.3029
   1454.2301     4214.5054        2.1235      147.0801
   1454.3824     4206.8613        2.1244      146.9178
   1454.5349     4199.2114        2.1188      147.8886
   1454.6873     4191.5669        2.1102      149.3814
   1454.8396     4184.8486        2.1034      150.5573
   1454.9921     4190.8047        2.0969      151.6865
   1455.1444     4196.7554        2.0896      152.9491
   1455.2969     4202.7119        2.0817      154.3157
   1455.4492     4208.6631        2.0732      155.7922
   1455.6017     4214.6187        2.0692      156.4691
   1455.7540     4220.5698        2.0717      156.0506
   1455.9065     4227.4395        2.0773      155.0848
   1456.0588     4234.9067        2.0889      153.0650
   1456.2113     4242.3799        2.1052      150.2431
   1456.3636     4249.8477        2.1160      148.3757
   1456.5161     4257.3213        2.1213      147.4511
   1456.6685     4264.7886        2.1216      147.3979
   1456.8208     4272.2554        2.1176      148.0960
   1456.9733     4262.9976        2.1144      148.6539
   1457.1256     4252.1646        2.1091      149.5765
   1457.2781     4241.3223        2.1009      150.9819
   1457.4304     4230.4893        2.0935      152.2740
   1457.5829     4219.6475        2.0917      152.5892
   1457.7352     4208.8145        2.0942      152.1484
   1457.8877     4198.4595        2.1007      151.0311
   1458.0400     4189.2759        2.1012      150.9345
   1458.1925     4180.0854        2.0985      151.4076
   1458.3448     4170.9028        2.0952      151.9749
   1458.4973     4161.7119        2.0973      151.6157
   1458.6497     4152.5293        2.0982      151.4586
   1458.8020     4143.3462        2.0975      151.5761
   1458.9545     4132.0669        2.0933      152.3119
   1459.1068     4119.8843        2.0867      153.4385
   1459.2593     4107.6924        2.0878      153.2622
   1459.4116     4095.5095        2.0921      152.5269
   1459.5641     4083.3174        2.0897      152.9289
   1459.7164     4071.1348        2.0861      153.5536
   1459.8689     4064.5466        2.0776      155.0353
   1460.0212     4085.3538        2.0725      155.9026
   1460.1737     4106.1772        2.0694      156.4426
   1460.3260     4126.9849        2.0621      157.7128
   1460.4785     4147.8086        2.0520      159.4529
   1460.6309     4168.6162        2.0411      161.3500
   1460.7832     4189.4233        2.0546      159.0016
   1460.9357     4202.5024        2.0699      156.3463
   1461.0880     4214.2163        2.0919      152.5558
   1461.2405     4225.9404        2.1142      148.6881
   1461.3928     4237.6548        2.1280      146.3071
   1461.5453     4249.3784        2.1303      145.8962
   1461.6976     4261.0933        2.1250      146.8064
   1461.8501     4267.3516        2.1111      149.2229
   1462.0024     4242.2007        2.1005      151.0525
   1462.1549     4217.0293        2.1003      151.0949
   1462.3073     4191.8784        2.1071      149.9205
   1462.4597     4166.7070        2.1092      149.5467
   1462.6121     4141.5557        2.1047      150.3246
   1462.7644     4116.4043        2.0979      151.5020
   1462.9169     4104.5210        2.0931      152.3434
   1463.0692     4105.4038        2.0870      153.3908
   1463.2217     4106.2871        2.0777      155.0047
   1463.3740     4107.1699        2.0694      156.4425
   1463.5265     4108.0532        2.0647      157.2502
   1463.6788     4108.9355        2.0612      157.8521
   1463.8313     4110.7710        2.0582      158.3736
   1463.9836     4120.5913        2.0590      158.2395
   1464.1361     4130.4194        2.0694      156.4367
   1464.2885     4140.2397        2.0835      153.9996
   1464.4408     4150.0596        2.0947      152.0594
   1464.5933     4159.8877        2.1013      150.9228
   1464.7456     4169.7080        2.1028      150.6609
   1464.8981     4174.1787        2.1013      150.9243
   1465.0504     4175.0122        2.0956      151.9187
   1465.2029     4175.8472        2.0889      153.0778
   1465.3552     4176.6807        2.0831      154.0767
   1465.5077     4177.5151        2.0797      154.6588
   1465.6600     4178.3491        2.0808      154.4761
   1465.8125     4178.9619        2.0836      153.9865
   1465.9648     4176.9678        2.0864      153.5060
   1466.1173     4174.9722        2.0900      152.8709
   1466.2697     4172.9780        2.0955      151.9227
   1466.4220     4170.9839        2.1020      150.8026
   1466.5745     4168.9888        2.1046      150.3547
   1466.7268     4166.9946        2.1029      150.6519
   1466.8793     4164.3428        2.0985      151.4118
   1467.0316     4160.9937        2.0942      152.1604
   1467.1841     4157.6406        2.0906      152.7668
   1467.3364     4154.2905        2.0875      153.3214
   1467.4889     4150.9385        2.0856      153.6431
   1467.6412     4147.5884        2.0854      153.6850
   1467.7937     4144.2354        2.0835      153.9991
   1467.9460     4149.6802        2.0792      154.7547
   1468.0985     4155.5586        2.0764      155.2347
   1468.2509     4161.4321        2.0771      155.1226
   1468.4032     4167.3052        2.0805      154.5213
   1468.5557     4173.1831        2.0846      153.8109
   1468.7080     4179.0566        2.0917      152.5859
   1468.8605     4184.1763        2.0986      151.3827
   1469.0128     4188.4180        2.0998      151.1709
   1469.1653     4192.6626        2.0964      151.7688
   1469.3176     4196.9038        2.0927      152.4046
   1469.4701     4201.1494        2.0894      152.9848
   1469.6224     4205.3906        2.0909      152.7166
   1469.7749     4209.6353        2.0916      152.6061
   1469.9272     4207.2134        2.0930      152.3622
   1470.0797     4203.9946        2.0953      151.9739
   1470.2321     4200.7778        2.0975      151.5840
   1470.3844     4197.5615        2.1008      151.0146
   1470.5369     4194.3423        2.1053      150.2182
   1470.6892     4191.1255        2.1063      150.0617
   1470.8417     4187.5420        2.1026      150.6980
   1470.9940     4183.0186        2.0976      151.5562
   1471.1465     4178.4917        2.0935      152.2695
   1471.2988     4173.9678        2.0892      153.0182
   1471.4513     4169.4409        2.0854      153.6806
   1471.6036     4164.9175        2.0843      153.8645
   1471.7561     4160.3901        2.0853      153.6964
   1471.9084     4161.3105        2.0860      153.5782
   1472.0609     4164.1187        2.0870      153.4055
   1472.2133     4166.9238        2.0885      153.1378
   1472.3656     4169.7295        2.0911      152.6984
   1472.5181     4172.5371        2.0939      152.1993
   1472.6704     4175.3428        2.0947      152.0532
   1472.8229     4178.8931        2.0927      152.4025
   1472.9752     4185.4932        2.0903      152.8273
   1473.1277     4192.0996        2.0884      153.1592
   1473.2800     4198.7007        2.0875      153.3132
   1473.4325     4205.3062        2.0873      153.3492
   1473.5848     4211.9067        2.0872      153.3695
   1473.7373     4218.5132        2.0875      153.3121
   1473.8896     4216.8706        2.0882      153.1874
   1474.0421     4211.1016        2.0941      152.1692
   1474.1945     4205.3374        2.1026      150.7006
   1474.3468     4199.5728        2.1083      149.7062
   1474.4993     4193.8037        2.1130      148.8969
   1474.6516     4188.0396        2.1153      148.4933
   1474.8041     4182.1992        2.1135      148.7979
   1474.9564     4163.6821        2.1057      150.1495
   1475.1089     4145.1494        2.0939      152.1922
   1475.2612     4126.6323        2.0841      153.9006
   1475.4137     4108.1001        2.0795      154.6864
