~Version Information Section
VERS.              2.0  : CWLS LOG ASCII STANDARD - VERSION 2.0
WRAP.              NO   : ONE LINE PER DEPTH STEP
CREA.              21-jan-2025
#
~Well Information Section
#MNEM.UNIT         VALUE/NAME          DESCRIPTION
#_________         __________          ___________
STRT.M             29.2900             : START DEPTH
STOP.M             1699.9900           : STOP DEPTH
STEP.M             0.1524              : STEP
NULL.              -999.2500           : NULL VALUE
COMP.                                  : COMPANY
WELL.              F06-1               : WELL NAME
FLD.                                   : FIELD
LOC.                                   : LOCATION
PROV.                                  : PROVINCE
CNTY.                                  : COUNTY
STAT.                                  : STATE
CTRY.                                  : COUNTRY
SRVC.                                  : SERVICE COMPANY
DATE.                                  : LOG DATE
UWI.                                   : UNIQUE WELL ID
XCOORD.M           607903.000          : SURFACE X
YCOORD.M           6077213.000         : SURFACE Y
#
~Curve Information Section
#MNEM.UNIT         API CODE            DESCRIPTION
#_________         ________            ___________
DEPT.M                                 : 0 Depth
AI.m/sxg/cc                            : 1 AI from well tie
RHOB.g/cc                              : 2 Density
DT.us/ft                               : 3 Sonic
#
~Parameter Information Section
#MNEM.UNIT           VALUE             DESCRIPTION
#_________         __________          ___________
EKB.M              28.6400             : Elevation Kelly Bushing
EGL.M              -999.25             : Elevation Ground Level
#
~Other Information Section
#
~Ascii Data Section
# ...
   1609.0685     4697.3379        2.1770      137.8169
   1609.2208     4699.5386        2.1773      137.7514
   1609.3733     4701.8389        2.1729      138.5184
   1609.5256     4704.1382        2.1660      139.7074
   1609.6781     4706.4390        2.1571      141.2475
   1609.8304     4708.7378        2.1511      142.2879
   1609.9829     4711.0386        2.1472      142.9603
   1610.1353     4713.3374        2.1518      142.1730
   1610.2876     4731.5044        2.1629      140.2461
   1610.4401     4759.2793        2.1633      140.1741
   1610.5924     4787.0327        2.1525      142.0547
   1610.7449     4814.8081        2.1366      144.8190
   1610.8972     4842.5605        2.1486      142.7328
   1611.0497     4870.3364        2.1536      141.8717
   1611.2020     4898.0889        2.1630      140.2338
   1611.3545     4922.2178        2.1859      136.2684
   1611.5068     4943.3857        2.1943      134.8159
   1611.6593     4964.5703        2.2051      132.9435
   1611.8116     4985.7373        2.1991      133.9839
   1611.9641     5006.9219        2.2225      129.9446
   1612.1165     5028.0894        2.2209      130.2100
   1612.2688     5049.2568        2.2119      131.7611
   1612.4213     5070.7534        2.2016      133.5668
   1612.5736     5108.8447        2.1986      134.0695
   1612.7261     5146.9668        2.1903      135.5125
   1612.8784     5185.0576        2.1864      136.1858
   1613.0309     5223.1797        2.1922      135.1818
   1613.1832     5261.2710        2.2049      132.9872
   1613.3357     5299.3931        2.2080      132.4478
   1613.4880     5337.4844        2.2083      132.3847
   1613.6405     5403.4429        2.2062      132.7471
   1613.7928     5491.3765        2.2097      132.1517
   1613.9453     5579.3804        2.2179      130.7269
   1614.0977     5667.3140        2.2352      127.7326
   1614.2500     5755.2476        2.2599      123.4589
   1614.4025     5843.2515        2.2703      121.6553
   1614.5548     5931.1846        2.2662      122.3547
   1614.7073     6019.1890        2.2581      123.7714
   1614.8596     6085.5811        2.2565      124.0484
   1615.0121     6140.2871        2.2638      122.7797
   1615.1644     6194.9492        2.2773      120.4492
   1615.3169     6249.6553        2.2923      117.8534
   1615.4692     6304.3174        2.3044      115.7607
   1615.6217     6359.0225        2.3153      113.8667
   1615.7740     6413.6851        2.3283      111.6247
   1615.9265     6468.3906        2.3400      109.5941
   1616.0789     6523.4644        2.3481      108.1847
   1616.2312     6642.3242        2.3509      107.7012
   1616.3837     6761.2783        2.3485      108.1175
   1616.5360     6880.1382        2.3449      108.7457
   1616.6885     6999.0923        2.3398      109.6256
   1616.8408     7117.9521        2.3321      110.9669
   1616.9933     7236.9062        2.3263      111.9742
   1617.1456     7355.7661        2.3249      112.2112
   1617.2981     7474.7212        2.3249      112.2112
   1617.4504     7593.5801        2.3249      112.2112
   1617.6029     7725.1899        2.3322      110.9492
   1617.7552     7858.0254        2.3420      109.2419
   1617.9077     7990.9678        2.3710      104.2234
   1618.0601     8123.8037        2.4252       94.8395
   1618.2124     8256.6396        2.4420       91.9226
   1618.3649     8389.5830        2.4473       91.0058
   1618.5172     8522.4189        2.4577       89.2089
   1618.6697     8655.3613        2.4608       88.6795
   1618.8220     8788.1963        2.4700       87.0835
   1618.9745     8921.1396        2.4774       85.8011
   1619.1268     9029.2559        2.4790       85.5279
   1619.2793     9087.4453        2.4726       86.6397
   1619.4316     9145.5879        2.4675       87.5149
   1619.5841     9203.7754        2.4641       88.0977
   1619.7365     9261.9180        2.4711       86.8836
   1619.8889     9320.1064        2.4864       84.2474
   1620.0413     9378.2490        2.4949       82.7753
   1620.1936     9436.3896        2.5015       81.6138
   1620.3461     9494.5791        2.4986       82.1282
   1620.4984     9552.7207        2.4927       83.1496
   1620.6509     9610.9092        2.4876       84.0323
   1620.8032     9669.0508        2.4918       83.3065
   1620.9557     9705.9434        2.5038       81.2272
   1621.1080     9720.4473        2.5126       79.7175
   1621.2605     9734.9619        2.5182       78.7404
   1621.4128     9749.4639        2.5191       78.5930
   1621.5653     9763.9795        2.5233       77.8693
   1621.7177     9778.4814        2.5267       77.2792
   1621.8701     9792.9961        2.5352       75.7969
   1622.0225     9807.4980        2.5449       74.1159
   1622.1748     9822.0020        2.5498       73.2749
   1622.3273     9836.5166        2.5490       73.4138
   1622.4796     9851.0186        2.5494       73.3345
   1622.6321     9865.5332        2.5371       75.4704
   1622.7844     9880.0371        2.5161       79.0956
   1622.9369     9886.6855        2.5046       81.0866
   1623.0892     9883.9707        2.4961       82.5700
   1623.2417     9881.2520        2.5012       81.6809
   1623.3940     9878.5352        2.5141       79.4478
   1623.5465     9875.8184        2.5240       77.7331
   1623.6989     9873.1025        2.5228       77.9372
   1623.8513     9870.3828        2.5130       79.6396
   1624.0037     9867.6680        2.5029       81.3924
   1624.1560     9864.9521        2.4947       82.7991
   1624.3085     9862.2334        2.4885       83.8848
   1624.4608     9859.5176        2.4890       83.7840
   1624.6133     9856.7988        2.4952       82.7183
   1624.7656     9851.1250        2.5061       80.8350
   1624.9181     9828.3359        2.5224       78.0024
   1625.0704     9805.5645        2.5422       74.5850
   1625.2229     9782.7744        2.5569       72.0268
   1625.3752     9760.0029        2.5594       71.5961
   1625.5277     9737.2119        2.5501       73.2231
   1625.6801     9714.4414        2.5375       75.3930
   1625.8325     9691.6514        2.5313       76.4658
   1625.9849     9668.8799        2.5355       75.7337
   1626.1372     9646.1074        2.5441       74.2485
   1626.2897     9623.3184        2.5505       73.1357
   1626.4420     9600.5459        2.5529       72.7291
   1626.5945     9577.7559        2.5484       73.5035
   1626.7468     9554.9844        2.5391       75.1183
   1626.8993     9517.5674        2.5283       76.9803
   1627.0516     9474.0049        2.5174       78.8763
   1627.2041     9430.4072        2.5027       81.4225
   1627.3564     9386.8457        2.4877       84.0137
   1627.5089     9343.2471        2.4822       84.9754
   1627.6613     9299.6846        2.4790       85.5228
   1627.8136     9256.1221        2.4768       85.9078
   1627.9661     9212.5244        2.4807       85.2213
   1628.1184     9168.9619        2.4896       83.6863
   1628.2709     9125.3643        2.4985       82.1424
   1628.4232     9081.8027        2.5068       80.7096
   1628.5757     9038.2041        2.5096       80.2314
   1628.7280     9012.6133        2.5067       80.7307
   1628.8805     8999.1035        2.4990       82.0523
   1629.0328     8985.6035        2.4947       82.7931
   1629.1853     8972.0938        2.4926       83.1619
   1629.3376     8958.5957        2.4912       83.4073
   1629.4901     8945.0859        2.4889       83.8033
   1629.6425     8931.5869        2.4866       84.2055
   1629.7948     8918.0879        2.4826       84.9041
   1629.9473     8904.5781        2.4720       86.7311
   1630.0996     8891.0791        2.4655       87.8614
   1630.2521     8877.5693        2.4593       88.9354
   1630.4044     8864.0713        2.4593       88.9355
   1630.5569     8866.7959        2.4658       87.8085
   1630.7092     8873.0254        2.4803       85.2987
   1630.8617     8879.2598        2.4920       83.2619
   1631.0140     8885.4893        2.4988       82.0960
   1631.1665     8891.7236        2.4988       82.0855
