~Version Information Section
VERS.              2.0  : CWLS LOG ASCII STANDARD - VERSION 2.0
WRAP.              NO   : ONE LINE PER DEPTH STEP
CREA.              21-jan-2025
#
~Well Information Section
#MNEM.UNIT         VALUE/NAME          DESCRIPTION
#_________         __________          ___________
STRT.M             29.2900             : START DEPTH
STOP.M             1699.9900           : STOP DEPTH
STEP.M             0.1524              : STEP
NULL.              -999.2500           : NULL VALUE
COMP.                                  : COMPANY
WELL.              F06-1               : WELL NAME
FLD.                                   : FIELD
LOC.                                   : LOCATION
PROV.                                  : PROVINCE
CNTY.                                  : COUNTY
STAT.                                  : STATE
CTRY.                                  : COUNTRY
SRVC.                                  : SERVICE COMPANY
DATE.                                  : LOG DATE
UWI.                                   : UNIQUE WELL ID
XCOORD.M           607903.000          : SURFACE X
YCOORD.M           6077213.000         : SURFACE Y
#
~Curve Information Section
#MNEM.UNIT         API CODE            DESCRIPTION
#_________         ________            ___________
DEPT.M                                 : 0 Depth
AI.m/sxg/cc                            : 1 AI from well tie
RHOB.g/cc                              : 2 Density
DT.us/ft                               : 3 Sonic
#
~Parameter Information Section
#MNEM.UNIT           VALUE             DESCRIPTION
#_________         __________          ___________
EKB.M              28.6400             : Elevation Kelly Bushing
EGL.M              -999.25             : Elevation Ground Level
#
~Other Information Section
#
~Ascii Data Section
# ...
    585.5500     -999.2500        2.0971     -999.2500
    585.7024     -999.2500        2.0971     -999.2500
    585.8548     -999.2500        2.0971     -999.2500
    586.0072     -999.2500        2.0971     -999.2500
    586.1596     -999.2500        2.0972     -999.2500
    586.3120     -999.2500        2.0972     -999.2500
    586.4644     -999.2500        2.0972     -999.2500
    586.6168     -999.2500        2.0972     -999.2500
    586.7692     -999.2500        2.0972     -999.2500
    586.9216     -999.2500        2.0972     -999.2500
    587.0740     -999.2500        2.0972     -999.2500
    587.2264     -999.2500        2.0972     -999.2500
    587.3788     -999.2500        2.0973     -999.2500
    587.5312     -999.2500        2.0973     -999.2500
    587.6836     -999.2500        2.0973     -999.2500
    587.8360     -999.2500        2.0973     -999.2500
    587.9884     -999.2500        2.0973     -999.2500
    588.1408     -999.2500        2.0973     -999.2500
    588.2932     -999.2500        2.0973     -999.2500
    588.4456     -999.2500        2.0974     -999.2500
    588.5980     -999.2500        2.0974     -999.2500
    588.7504     -999.2500        2.0974     -999.2500
    588.9028     -999.2500        2.0974     -999.2500
    589.0552     -999.2500        2.0974     -999.2500
    589.2076     -999.2500        2.0974     -999.2500
    589.3600     -999.2500        2.0974     -999.2500
    589.5124     -999.2500        2.0974     -999.2500
    589.6648     -999.2500        2.0975     -999.2500
    589.8172     -999.2500        2.0975     -999.2500
    589.9696     -999.2500        2.0975     -999.2500
    590.1220     -999.2500        2.0975     -999.2500
    590.2744     -999.2500        2.0975     -999.2500
    590.4268     -999.2500        2.0975     -999.2500
    590.5792     -999.2500        2.0975     -999.2500
    590.7316     -999.2500        2.0976     -999.2500
    590.8840     -999.2500        2.0976     -999.2500
    591.0364     -999.2500        2.0976     -999.2500
    591.1888     -999.2500        2.0976     -999.2500
    591.3412     -999.2500        2.0976     -999.2500
    591.4936     -999.2500        2.0976     -999.2500
    591.6460     -999.2500        2.0976     -999.2500
    591.7984     -999.2500        2.0976     -999.2500
    591.9508     -999.2500        2.0977     -999.2500
    592.1032     -999.2500        2.0977     -999.2500
    592.2556     -999.2500        2.0977     -999.2500
    592.4080     -999.2500        2.0977     -999.2500
    592.5604     -999.2500        2.0977     -999.2500
    592.7128     -999.2500        2.0977     -999.2500
    592.8652     -999.2500        2.0977     -999.2500
    593.0176     -999.2500        2.0978     -999.2500
    593.1700     -999.2500        2.0978     -999.2500
    593.3224     -999.2500        2.0978     -999.2500
    593.4748     -999.2500        2.0978     -999.2500
    593.6272     -999.2500        2.0871     -999.2500
    593.7796     -999.2500        2.0540      159.1125
    593.9320     3968.5361        2.0522      159.4223
    594.0844     3970.8516        2.0522      159.4223
    594.2368     3973.1660        2.0522      159.4223
    594.3892     3975.4817        2.0522      159.4223
    594.5416     3977.7971        2.0529      159.3058
    594.6940     3980.1125        2.0543      159.0620
    594.8464     3982.4285        2.0545      159.0239
    594.9988     3984.7439        2.0556      158.8360
    595.1512     3987.0596        2.0579      158.4322
    595.3036     3989.3752        2.0593      158.1865
    595.4560     3988.6736        2.0601      158.0534
    595.6084     3986.1477        2.0606      157.9607
    595.7608     3983.6218        2.0628      157.5844
    595.9132     3981.0955        2.0657      157.0763
    596.0656     3978.5696        2.0677      156.7228
    596.2180     3976.0439        2.0691      156.4935
    596.3704     3973.5181        2.0686      156.5750
    596.5228     3968.7668        2.0674      156.7718
    596.6752     3957.9958        2.0659      157.0454
    596.8276     3947.2256        2.0630      157.5506
    596.9800     3936.4551        2.0604      158.0059
    597.1324     3925.6843        2.0576      158.4802
    597.2848     3914.9141        2.0544      159.0419
    597.4372     3904.1431        2.0521      159.4314
    597.5896     3901.2834        2.0504      159.7314
    597.7420     3898.8579        2.0487      160.0298
    597.8944     3896.4324        2.0478      160.1897
    598.0468     3894.0071        2.0476      160.2190
    598.1992     3891.5828        2.0468      160.3546
    598.3516     3889.1570        2.0456      160.5630
    598.5040     3895.5388        2.0445      160.7492
    598.6564     3905.5173        2.0433      160.9654
    598.8088     3915.4951        2.0430      161.0158
    598.9612     3925.4734        2.0423      161.1404
    599.1136     3935.4517        2.0424      161.1278
    599.2660     3945.4297        2.0452      160.6385
    599.4184     3954.5559        2.0466      160.3790
    599.5708     3962.8071        2.0504      159.7318
    599.7232     3971.0583        2.0577      158.4536
    599.8756     3979.3093        2.0607      157.9496
    600.0280     3987.5608        2.0629      157.5513
    600.1804     3995.8088        2.0653      157.1533
    600.3328     4000.9595        2.0670      156.8470
    600.4852     3991.4141        2.0671      156.8327
    600.6376     3981.8682        2.0671      156.8327
    600.7900     3972.3228        2.0671      156.8327
    600.9424     3962.7766        2.0671      156.8332
    601.0948     3953.2307        2.0669      156.8712
    601.2472     3943.6851        2.0657      157.0729
    601.3996     3934.2588        2.0642      157.3438
    601.5520     3924.8618        2.0611      157.8831
    601.7044     3915.4648        2.0579      158.4341
    601.8568     3906.0684        2.0476      160.2220
    602.0092     3896.6753        2.0472      160.2933
    602.1616     3887.2783        2.0453      160.6174
    602.3140     3885.9436        2.0453      160.6174
    602.4664     3892.0674        2.0453      160.6174
    602.6188     3898.1917        2.0453      160.6174
    602.7712     3904.3159        2.0453      160.6174
    602.9236     3910.4399        2.0450      160.6607
    603.0760     3916.5640        2.0441      160.8123
    603.2284     3925.6565        2.0441      160.8168
    603.3808     3941.6248        2.0447      160.7168
    603.5332     3957.5933        2.0463      160.4403
    603.6856     3973.5618        2.0483      160.0946
    603.8380     3989.5298        2.0528      159.3116
    603.9904     4005.4917        2.0546      158.9933
    604.1428     4021.0986        2.0592      158.2040
    604.2952     4028.2166        2.0635      157.4686
    604.4476     4035.3347        2.0651      157.1903
    604.6000     4042.4531        2.0673      156.8013
    604.7524     4049.5715        2.0708      156.2017
    604.9048     4056.6892        2.0730      155.8213
    605.0572     4063.8076        2.0743      155.5969
    605.2096     4061.3269        2.0758      155.3301
    605.3620     4053.6587        2.0772      155.0957
    605.5144     4045.9905        2.0775      155.0399
    605.6668     4038.3225        2.0775      155.0399
    605.8192     4030.6545        2.0771      155.1100
    605.9716     4022.9895        2.0761      155.2793
    606.1240     4015.4158        2.0754      155.4077
    606.2764     4008.2131        2.0744      155.5802
    606.4288     4001.0107        2.0716      156.0589
    606.5812     3993.8081        2.0682      156.6516
    606.7336     3986.6057        2.0655      157.1120
    606.8860     3979.4031        2.0628      157.5809
    607.0384     3972.2007        2.0595      158.1473
    607.1908     3975.7146        2.0573      158.5350
    607.3432     3981.4084        2.0568      158.6255
    607.4956     3987.1018        2.0568      158.6255
    607.6480     3992.7957        2.0568      158.6255
