~Version Information Section
VERS.              2.0  : CWLS LOG ASCII STANDARD - VERSION 2.0
WRAP.              NO   : ONE LINE PER DEPTH STEP
CREA.              21-jan-2025
#
~Well Information Section
#MNEM.UNIT         VALUE/NAME          DESCRIPTION
#_________         __________          ___________
STRT.M             29.2900             : START DEPTH
STOP.M             1699.9900           : STOP DEPTH
STEP.M             0.1524              : STEP
NULL.              -999.2500           : NULL VALUE
COMP.                                  : COMPANY
WELL.              F06-1               : WELL NAME
FLD.                                   : FIELD
LOC.                                   : LOCATION
PROV.                                  : PROVINCE
CNTY.                                  : COUNTY
STAT.                                  : STATE
CTRY.                                  : COUNTRY
SRVC.                                  : SERVICE COMPANY
DATE.                                  : LOG DATE
UWI.                                   : UNIQUE WELL ID
XCOORD.M           607903.000          : SURFACE X
YCOORD.M           6077213.000         : SURFACE Y
#
~Curve Information Section
#MNEM.UNIT         API CODE            DESCRIPTION
#_________         ________            ___________
DEPT.M                                 : 0 Depth
AI.m/sxg/cc                            : 1 AI from well tie
RHOB.g/cc                              : 2 Density
DT.us/ft                               : 3 Sonic
#
~Parameter Information Section
#MNEM.UNIT           VALUE             DESCRIPTION
#_________         __________          ___________
EKB.M              28.6400             : Elevation Kelly Bushing
EGL.M              -999.25             : Elevation Ground Level
#
~Other Information Section
#
~Ascii Data Section
# ...
    808.0540     4764.0933        2.1722      138.6392
    808.2064     4761.5264        2.1732      138.4664
    808.3588     4757.9639        2.1740      138.3310
    808.5112     4754.4014        2.1741      138.3070
    808.6636     4750.8384        2.1741      138.3070
    808.8160     4747.2754        2.1731      138.4848
    808.9684     4743.7129        2.1703      138.9644
    809.1208     4740.1504        2.1686      139.2690
    809.2732     4735.6626        2.1684      139.3027
    809.4256     4730.7251        2.1684      139.3027
    809.5780     4725.7881        2.1684      139.3028
    809.7304     4720.8501        2.1684      139.3027
    809.8828     4715.9131        2.1684      139.3027
    810.0352     4710.9756        2.1684      139.3028
    810.1876     4706.0400        2.1682      139.3441
    810.3400     4704.4473        2.1668      139.5797
    810.4924     4705.7412        2.1640      140.0535
    810.6448     4707.0352        2.1603      140.6972
    810.7972     4708.3301        2.1603      140.6972
    810.9496     4709.6240        2.1603      140.6972
    811.1020     4710.9180        2.1603      140.6972
    811.2544     4712.2124        2.1603      140.6972
    811.4068     4717.5747        2.1603      140.6972
    811.5592     4726.9111        2.1603      140.6946
    811.7116     4736.2480        2.1607      140.6226
    811.8640     4745.5845        2.1626      140.2976
    812.0164     4754.9175        2.1630      140.2225
    812.1688     4764.2539        2.1649      139.9005
    812.3212     4773.5908        2.1661      139.6961
    812.4736     4781.0430        2.1706      138.9146
    812.6260     4786.4707        2.1707      138.9044
    812.7784     4791.8984        2.1713      138.8087
    812.9308     4797.3271        2.1729      138.5237
    813.0832     4802.7554        2.1742      138.2979
    813.2356     4808.1831        2.1773      137.7610
    813.3880     4813.6118        2.1776      137.7092
    813.5404     4815.8208        2.1776      137.7092
    813.6928     4813.2671        2.1776      137.7092
    813.8452     4810.7134        2.1776      137.7092
    813.9976     4808.1602        2.1776      137.7092
    814.1500     4805.6064        2.1776      137.7092
    814.3024     4803.0527        2.1776      137.7092
    814.4548     4800.4990        2.1776      137.7092
    814.6072     4797.7520        2.1776      137.7092
    814.7596     4794.0605        2.1776      137.7092
    814.9120     4790.3696        2.1776      137.7092
    815.0644     4786.6792        2.1776      137.7092
    815.2168     4782.9883        2.1768      137.8484
    815.3692     4779.2974        2.1748      138.1881
    815.5216     4775.6064        2.1725      138.5865
    815.6740     4771.8979        2.1711      138.8432
    815.8264     4767.1274        2.1707      138.9044
    815.9788     4762.3594        2.1707      138.9044
    816.1312     4757.5894        2.1707      138.9044
    816.2836     4752.8193        2.1707      138.9044
    816.4360     4748.0488        2.1707      138.9044
    816.5884     4743.2788        2.1707      138.9044
    816.7408     4738.5083        2.1707      138.9044
    816.8932     4732.8408        2.1707      138.9044
    817.0456     4727.0151        2.1707      138.9044
    817.1980     4721.1899        2.1707      138.9044
    817.3504     4715.3647        2.1702      138.9979
    817.5028     4709.5396        2.1686      139.2651
    817.6552     4703.7144        2.1666      139.6162
    817.8076     4697.8892        2.1645      139.9788
    817.9600     4698.3320        2.1623      140.3618
    818.1124     4700.6860        2.1606      140.6495
    818.2648     4703.0400        2.1603      140.6972
    818.4172     4705.3940        2.1603      140.6972
    818.5696     4707.7476        2.1603      140.6972
    818.7220     4710.1016        2.1603      140.6972
    818.8744     4712.4556        2.1603      140.6972
    819.0268     4718.4854        2.1603      140.6972
    819.1792     4725.8770        2.1603      140.6972
    819.3316     4733.2690        2.1608      140.6028
    819.4840     4740.6606        2.1633      140.1758
    819.6364     4748.0522        2.1660      139.7121
    819.7888     4755.4414        2.1670      139.5409
    819.9412     4762.8330        2.1707      138.9044
    820.0936     4766.3140        2.1707      138.9044
    820.2460     4768.1724        2.1707      138.9022
    820.3984     4770.0308        2.1711      138.8300
    820.5508     4771.8892        2.1730      138.5060
    820.7032     4773.7471        2.1730      138.5060
    820.8556     4775.6060        2.1730      138.5060
    821.0080     4777.4644        2.1730      138.5060
    821.1604     4776.4248        2.1730      138.5060
    821.3128     4773.1514        2.1730      138.5060
    821.4652     4769.8774        2.1730      138.5060
    821.6176     4766.6040        2.1730      138.5060
    821.7700     4763.3315        2.1730      138.5060
    821.9224     4760.0581        2.1730      138.5060
    822.0748     4756.7842        2.1730      138.5060
    822.2272     4752.0605        2.1725      138.5994
    822.3796     4744.9697        2.1708      138.8887
    822.5320     4737.8794        2.1707      138.9044
    822.6844     4730.7886        2.1707      138.9044
    822.8368     4723.6982        2.1707      138.9044
    822.9892     4716.6084        2.1700      139.0176
    823.1416     4709.5176        2.1686      139.2679
    823.2940     4702.8608        2.1677      139.4226
    823.4464     4697.2939        2.1653      139.8443
    823.5988     4691.7275        2.1630      140.2331
    823.7512     4686.1631        2.1622      140.3627
    823.9036     4680.5967        2.1612      140.5385
    824.0560     4675.0303        2.1605      140.6716
    824.2084     4669.4634        2.1599      140.7643
    824.3608     4667.4316        2.1589      140.9369
    824.5132     4671.8491        2.1582      141.0673
    824.6656     4676.2666        2.1580      141.0956
    824.8180     4680.6846        2.1572      141.2354
    824.9704     4685.1021        2.1560      141.4338
    825.1228     4689.5190        2.1557      141.4939
    825.2752     4693.9365        2.1565      141.3522
    825.4276     4695.1528        2.1576      141.1575
    825.5800     4691.8750        2.1584      141.0244
    825.7324     4688.5991        2.1602      140.7142
    825.8848     4685.3213        2.1629      140.2497
    826.0372     4682.0439        2.1650      139.8913
    826.1896     4678.7666        2.1667      139.5911
    826.3420     4675.4893        2.1681      139.3626
    826.4944     4669.6597        2.1684      139.3028
    826.6468     4660.9761        2.1684      139.3027
    826.7992     4652.2920        2.1684      139.3027
    826.9516     4643.6084        2.1649      139.9041
    827.1040     4634.9248        2.1586      140.9908
    827.2564     4626.2412        2.1556      141.5083
    827.4088     4617.5576        2.1529      141.9869
    827.5612     4617.1309        2.1484      142.7618
    827.7136     4625.1636        2.1451      143.3440
    827.8660     4633.2007        2.1423      143.8231
    828.0184     4641.2373        2.1399      144.2273
    828.1708     4649.2734        2.1415      143.9464
    828.3232     4657.3105        2.1469      143.0157
    828.4756     4665.3472        2.1519      142.1631
    828.6280     4667.3506        2.1581      141.0742
    828.7804     4666.7500        2.1605      140.6674
    828.9328     4666.1489        2.1617      140.4591
    829.0852     4665.5479        2.1633      140.1727
    829.2376     4664.9473        2.1661      139.7085
    829.3900     4664.3467        2.1661      139.7011
    829.5424     4663.7461        2.1661      139.7011
    829.6948     4660.7305        2.1661      139.7011
    829.8472     4656.7539        2.1661      139.7048
    829.9996     4652.7769        2.1654      139.8228
    830.1520     4648.8003        2.1611      140.5605
