~Version Information Section
VERS.              2.0  : CWLS LOG ASCII STANDARD - VERSION 2.0
WRAP.              NO   : ONE LINE PER DEPTH STEP
CREA.              21-jan-2025
#
~Well Information Section
#MNEM.UNIT         VALUE/NAME          DESCRIPTION
#_________         __________          ___________
STRT.M             30.1500             : START DEPTH
STOP.M             1859.5500           : STOP DEPTH
STEP.M             0.1524              : STEP
NULL.              -999.2500           : NULL VALUE
COMP.                                  : COMPANY
WELL.              F03-4               : WELL NAME
FLD.                                   : FIELD
LOC.                                   : LOCATION
PROV.                                  : PROVINCE
CNTY.                                  : COUNTY
STAT.                                  : STATE
CTRY.                                  : COUNTRY
SRVC.                                  : SERVICE COMPANY
DATE.                                  : LOG DATE
UWI.                                   : UNIQUE WELL ID
XCOORD.M           623255.980          : SURFACE X
YCOORD.M           6082586.870         : SURFACE Y
#
~Curve Information Section
#MNEM.UNIT         API CODE            DESCRIPTION
#_________         ________            ___________
DEPT.M                                 : 0 Depth
AI.m/sxg/cc                            : 1 AI from well tie
RHOB.g/cc                              : 2 Density
DT.us/ft                               : 3 Sonic
#
~Parameter Information Section
#MNEM.UNIT           VALUE             DESCRIPTION
#_________         __________          ___________
EKB.M              34.1000             : Elevation Kelly Bushing
EGL.M              -999.25             : Elevation Ground Level
#
~Other Information Section
#
~Ascii Data Section
# ...
    764.4132     4570.8848        2.1156      148.4493
    764.5656     4603.6182        2.1247      146.8622
    764.7180     4636.3516        2.1309      145.7872
    764.8704     4669.0850        2.1346      145.1529
    765.0228     4701.8179        2.1442      143.4953
    765.1752     4734.5508        2.1563      141.3983
    765.3276     4767.2842        2.1620      140.4125
    765.4800     4783.8906        2.1713      138.8096
    765.6324     4792.0708        2.1802      137.2576
    765.7849     4800.2505        2.1828      136.8122
    765.9373     4808.4307        2.1828      136.8122
    766.0897     4816.6104        2.1828      136.8122
    766.2420     4824.7871        2.1828      136.8122
    766.3944     4832.9668        2.1828      136.8122
    766.5468     4836.4639        2.1828      136.8122
    766.6992     4832.3872        2.1828      136.8122
    766.8516     4828.3105        2.1828      136.8122
    767.0040     4824.2334        2.1828      136.8122
    767.1564     4820.1567        2.1828      136.8122
    767.3088     4816.0801        2.1813      137.0646
    767.4612     4812.0029        2.1771      137.7897
    767.6136     4806.1938        2.1743      138.2702
    767.7661     4786.8315        2.1745      138.2556
    767.9185     4767.4683        2.1746      138.2355
    768.0709     4748.1055        2.1747      138.2169
    768.2232     4728.7505        2.1748      138.1984
    768.3756     4709.3872        2.1749      138.1798
    768.5280     4690.0249        2.1750      138.1612
    768.6804     4670.6621        2.1751      138.1426
    768.8328     4659.3047        2.1752      138.1240
    768.9852     4649.0732        2.1753      138.1065
    769.1376     4638.8423        2.1754      138.0948
    769.2900     4628.6113        2.1740      138.3336
    769.4424     4618.3804        2.1661      139.6974
    769.5948     4608.1489        2.1519      142.1605
    769.7473     4597.9185        2.1374      144.6720
    769.8997     4618.3105        2.1247      146.8686
    770.0521     4649.6606        2.1222      147.3006
    770.2044     4680.9980        2.1315      145.6793
    770.3568     4712.3481        2.1359      144.9299
    770.5092     4743.6978        2.1405      144.1296
    770.6616     4775.0474        2.1445      143.4324
    770.8140     4806.3975        2.1472      142.9797
    770.9664     4830.9526        2.1659      139.7342
    771.1188     4854.2192        2.1719      138.6985
    771.2712     4877.4858        2.1796      137.3635
    771.4236     4900.7529        2.1882      135.8746
    771.5760     4924.0186        2.1905      135.4705
    771.7285     4947.2856        2.1929      135.0534
    771.8809     4970.5522        2.1933      134.9854
    772.0332     4981.1685        2.1938      134.9070
    772.1856     4979.7183        2.1943      134.8156
    772.3380     4978.2676        2.1953      134.6462
    772.4904     4976.8169        2.1959      134.5421
    772.6428     4975.3662        2.1982      134.1387
    772.7952     4973.9150        2.1995      133.9168
    772.9476     4972.4648        2.2005      133.7332
    773.1000     4970.7983        2.2011      133.6280
    773.2524     4965.7769        2.2012      133.6131
    773.4048     4960.7554        2.2017      133.5401
    773.5573     4955.7344        2.2015      133.5577
    773.7097     4950.7129        2.2012      133.6175
    773.8621     4945.6914        2.1996      133.9072
    774.0144     4940.6729        2.1936      134.9391
    774.1668     4935.6514        2.1886      135.8045
    774.3192     4931.7441        2.1868      136.1084
    774.4716     4928.5449        2.1847      136.4725
    774.6240     4925.3457        2.1849      136.4454
    774.7764     4922.1470        2.1869      136.0920
    774.9288     4918.9478        2.1883      135.8577
    775.0812     4915.7490        2.1889      135.7595
    775.2336     4912.5498        2.1901      135.5482
    775.3860     4906.3081        2.1913      135.3375
    775.5385     4891.3457        2.1936      134.9323
    775.6909     4876.3838        2.1946      134.7664
    775.8433     4861.4219        2.1934      134.9761
    775.9956     4846.4658        2.1923      135.1678
    776.1480     4831.5039        2.1908      135.4265
    776.3004     4816.5415        2.1879      135.9214
    776.4528     4801.5801        2.1857      136.2959
    776.6052     4777.4272        2.1840      136.6032
    776.7576     4751.8950        2.1817      136.9969
    776.9100     4726.3623        2.1800      137.3042
    777.0624     4700.8301        2.1777      137.6823
    777.2148     4675.2974        2.1751      138.1278
    777.3672     4649.7646        2.1716      138.7373
    777.5197     4624.2319        2.1678      139.4036
    777.6721     4612.3638        2.1657      139.7683
    777.8245     4608.7720        2.1594      140.8619
    777.9768     4605.1826        2.1436      143.5877
    778.1292     4601.5908        2.1263      146.5841
    778.2816     4598.0000        2.1096      149.4806
    778.4340     4594.4087        2.1078      149.7849
    778.5864     4590.8174        2.1310      145.7750
    778.7388     4574.8813        2.1471      142.9836
    778.8912     4554.6470        2.1608      140.6227
    779.0436     4534.4116        2.1798      137.3175
    779.1960     4514.1772        2.1862      136.2264
    779.3484     4493.9419        2.1838      136.6416
    779.5009     4473.7075        2.1804      137.2193
    779.6533     4453.4722        2.1762      137.9533
    779.8057     4425.6064        2.1525      142.0469
    779.9580     4390.4741        2.1210      147.5027
    780.1104     4355.3281        2.1116      149.1342
    780.2628     4320.1816        2.1073      149.8740
    780.4152     4285.0361        2.1058      150.1315
    780.5676     4249.8901        2.1032      150.5878
    780.7200     4214.7441        2.1024      150.7210
    780.8724     4217.1475        2.1005      151.0552
    781.0248     4228.3486        2.0963      151.7951
    781.1772     4239.5498        2.0945      152.1013
    781.3297     4250.7515        2.0908      152.7365
    781.4821     4261.9521        2.0897      152.9279
    781.6345     4273.1538        2.0881      153.2038
    781.7868     4295.2383        2.0878      153.2473
    781.9392     4349.5239        2.0923      152.4685
    782.0916     4403.8096        2.0936      152.2525
    782.2440     4458.0947        2.1057      150.1565
    782.3964     4512.3804        2.1147      148.5940
    782.5488     4566.6655        2.1165      148.2906
    782.7012     4620.9517        2.1190      147.8462
    782.8536     4667.7168        2.1202      147.6504
    783.0060     4709.0420        2.1281      146.2781
    783.1584     4750.3677        2.1384      144.4857
    783.3109     4791.6929        2.1439      143.5506
    783.4633     4833.0186        2.1806      137.1873
    783.6157     4874.3442        2.1916      135.2791
    783.7680     4915.6533        2.1916      135.2791
    783.9204     4936.8042        2.1917      135.2695
    784.0728     4934.5898        2.1920      135.2144
    784.2252     4932.3755        2.1928      135.0766
    784.3776     4930.1616        2.1982      134.1371
    784.5300     4927.9473        2.2007      133.7057
    784.6824     4925.7329        2.2007      133.7057
    784.8348     4923.5186        2.2007      133.7057
    784.9872     4921.2935        2.2003      133.7719
    785.1396     4918.5674        2.1987      134.0501
    785.2921     4915.8408        2.1973      134.2884
    785.4445     4913.1147        2.1947      134.7371
    785.5969     4910.3882        2.1870      136.0849
    785.7492     4907.6626        2.1814      137.0599
    785.9016     4904.9365        2.1802      137.2698
    786.0540     4902.2100        2.1785      137.5464
    786.2064     4907.3521        2.1775      137.7260
    786.3588     4916.5186        2.1782      137.5998
    786.5112     4925.6851        2.1805      137.2054
