~Version Information Section
VERS.              2.0  : CWLS LOG ASCII STANDARD - VERSION 2.0
WRAP.              NO   : ONE LINE PER DEPTH STEP
CREA.              21-jan-2025
#
~Well Information Section
#MNEM.UNIT         VALUE/NAME          DESCRIPTION
#_________         __________          ___________
STRT.M             30.1500             : START DEPTH
STOP.M             1859.5500           : STOP DEPTH
STEP.M             0.1524              : STEP
NULL.              -999.2500           : NULL VALUE
COMP.                                  : COMPANY
WELL.              F03-4               : WELL NAME
FLD.                                   : FIELD
LOC.                                   : LOCATION
PROV.                                  : PROVINCE
CNTY.                                  : COUNTY
STAT.                                  : STATE
CTRY.                                  : COUNTRY
SRVC.                                  : SERVICE COMPANY
DATE.                                  : LOG DATE
UWI.                                   : UNIQUE WELL ID
XCOORD.M           623255.980          : SURFACE X
YCOORD.M           6082586.870         : SURFACE Y
#
~Curve Information Section
#MNEM.UNIT         API CODE            DESCRIPTION
#_________         ________            ___________
DEPT.M                                 : 0 Depth
AI.m/sxg/cc                            : 1 AI from well tie
RHOB.g/cc                              : 2 Density
DT.us/ft                               : 3 Sonic
#
~Parameter Information Section
#MNEM.UNIT           VALUE             DESCRIPTION
#_________         __________          ___________
EKB.M              34.1000             : Elevation Kelly Bushing
EGL.M              -999.25             : Elevation Ground Level
#
~Other Information Section
#
~Ascii Data Section
# ...
   1654.4292     3801.8960        2.0323      162.8568
   1654.5817     3799.4097        2.0345      162.4826
   1654.7340     3796.9253        2.0361      162.1999
   1654.8865     3794.4387        2.0374      161.9854
   1655.0388     3786.0376        2.0381      161.8591
   1655.1913     3773.2866        2.0402      161.4901
   1655.3436     3760.5464        2.0423      161.1353
   1655.4961     3747.7954        2.0387      161.7538
   1655.6484     3735.0552        2.0300      163.2759
   1655.8009     3722.3042        2.0231      164.4609
   1655.9532     3717.0269        2.0186      165.2494
   1656.1056     3721.8601        2.0160      165.6863
   1656.2581     3726.6970        2.0143      165.9909
   1656.4104     3731.5303        2.0126      166.2811
   1656.5629     3736.3674        2.0117      166.4240
   1656.7152     3741.2004        2.0116      166.4519
   1656.8677     3746.9890        2.0112      166.5201
   1657.0200     3754.1643        2.0120      166.3707
   1657.1725     3761.3457        2.0147      165.9167
   1657.3248     3768.5212        2.0190      165.1588
   1657.4773     3775.7024        2.0238      164.3360
   1657.6296     3782.8777        2.0280      163.6087
   1657.7821     3784.7266        2.0387      161.7731
   1657.9344     3776.2061        2.0413      161.3055
   1658.0868     3767.6858        2.0370      162.0503
   1658.2393     3759.1587        2.0362      162.1787
   1658.3916     3750.6382        2.0288      163.4832
   1658.5441     3742.1111        2.0275      163.6999
   1658.6964     3733.5847        2.0260      163.9649
   1658.8489     3725.0249        2.0247      164.1826
   1659.0012     3716.4722        2.0215      164.7301
   1659.1537     3707.9131        2.0181      165.3333
   1659.3060     3699.3606        2.0160      165.6862
   1659.4585     3690.8010        2.0148      165.8993
   1659.6108     3682.6726        2.0146      165.9448
   1659.7632     3677.2175        2.0141      166.0251
   1659.9156     3671.7578        2.0134      166.1376
   1660.0680     3666.3027        2.0121      166.3558
   1660.2205     3660.8430        2.0106      166.6248
   1660.3728     3655.3882        2.0094      166.8295
   1660.5253     3650.6831        2.0083      167.0247
   1660.6776     3651.0779        2.0070      167.2396
   1660.8301     3651.4731        2.0056      167.4908
   1660.9824     3651.8684        2.0047      167.6491
   1661.1349     3652.2634        2.0042      167.7366
   1661.2872     3652.6587        2.0039      167.7812
   1661.4397     3653.5891        2.0035      167.8523
   1661.5920     3657.3408        2.0031      167.9222
   1661.7444     3661.0923        2.0034      167.8677
   1661.8969     3664.8469        2.0046      167.6637
   1662.0492     3668.5981        2.0065      167.3392
   1662.2017     3672.3528        2.0081      167.0531
   1662.3540     3675.6624        2.0088      166.9370
   1662.5065     3677.1165        2.0093      166.8512
   1662.6588     3678.5696        2.0101      166.6992
   1662.8113     3680.0239        2.0110      166.5465
   1662.9636     3681.4771        2.0118      166.4125
   1663.1161     3682.9312        2.0122      166.3452
   1663.2684     3683.5405        2.0119      166.3975
   1663.4209     3680.4321        2.0111      166.5323
   1663.5732     3677.3257        2.0112      166.5131
   1663.7256     3674.2197        2.0127      166.2574
   1663.8781     3671.1111        2.0137      166.0898
   1664.0304     3668.0051        2.0133      166.1582
   1664.1829     3664.6565        2.0120      166.3823
   1664.3352     3660.1514        2.0105      166.6325
   1664.4877     3655.6431        2.0093      166.8466
   1664.6400     3651.1384        2.0090      166.8976
   1664.7925     3646.6299        2.0086      166.9787
   1664.9448     3642.1250        2.0068      167.2866
   1665.0973     3637.9380        2.0047      167.6487
   1665.2496     3635.1707        2.0027      167.9920
   1665.4021     3632.4009        2.0012      168.2517
   1665.5544     3629.6333        1.9999      168.4810
   1665.7068     3626.8657        2.0005      168.3653
   1665.8593     3624.0957        2.0035      167.8502
   1666.0116     3622.4270        2.0037      167.8213
   1666.1641     3624.2939        2.0033      167.8902
   1666.3164     3626.1597        2.0015      168.1987
   1666.4689     3628.0266        2.0001      168.4506
   1666.6212     3629.8923        1.9979      168.8065
   1666.7737     3631.7593        1.9980      168.7984
   1666.9260     3634.2866        1.9986      168.6963
   1667.0785     3638.3689        1.9997      168.5077
   1667.2308     3642.4478        2.0004      168.3908
   1667.3833     3646.5300        2.0010      168.2891
   1667.5356     3650.6089        2.0036      167.8412
   1667.6880     3654.6880        2.0055      167.5085
   1667.8405     3656.7117        2.0078      167.1163
   1667.9928     3654.8291        2.0096      166.7977
   1668.1453     3652.9453        2.0084      167.0119
   1668.2976     3651.0627        2.0076      167.1415
   1668.4501     3649.1787        2.0070      167.2435
   1668.6024     3647.2964        2.0071      167.2333
   1668.7549     3644.1797        2.0075      167.1622
   1668.9072     3638.8711        2.0089      166.9146
   1669.0597     3633.5583        2.0088      166.9390
   1669.2120     3628.2498        2.0080      167.0772
   1669.3645     3622.9368        2.0048      167.6221
   1669.5168     3617.6282        2.0028      167.9711
   1669.6692     3611.9377        2.0000      168.4576
   1669.8217     3605.6340        1.9979      168.8082
   1669.9740     3599.3362        1.9975      168.8811
   1670.1265     3593.0327        1.9982      168.7649
   1670.2788     3586.7344        1.9991      168.6106
   1670.4313     3580.4312        1.9993      168.5852
   1670.5836     3575.5898        1.9968      169.0193
   1670.7361     3572.4734        1.9928      169.7151
   1670.8884     3569.3594        1.9900      170.1965
   1671.0409     3566.2429        1.9891      170.3438
   1671.1932     3563.1287        1.9895      170.2763
   1671.3457     3560.0120        1.9896      170.2679
   1671.4980     3561.2866        1.9887      170.4275
   1671.6504     3565.7488        1.9869      170.7315
   1671.8029     3570.2139        1.9857      170.9314
   1671.9552     3574.6755        1.9868      170.7411
   1672.1077     3579.1411        1.9885      170.4556
   1672.2600     3583.6028        1.9895      170.2678
   1672.4125     3591.4500        1.9910      170.0152
   1672.5648     3600.6377        1.9922      169.8197
   1672.7173     3609.8330        1.9926      169.7307
   1672.8696     3619.0208        1.9937      169.5533
   1673.0221     3628.2161        1.9957      169.2011
   1673.1744     3637.4038        1.9981      168.7793
   1673.3269     3651.2661        2.0006      168.3529
   1673.4792     3666.1929        2.0021      168.0874
   1673.6316     3681.1194        2.0027      167.9858
   1673.7841     3696.0579        2.0036      167.8377
   1673.9364     3710.9844        2.0056      167.4984
   1674.0889     3725.9229        2.0085      166.9848
   1674.2412     3736.8999        2.0118      166.4181
   1674.3937     3747.1941        2.0169      165.5362
   1674.5460     3757.4795        2.0222      164.6137
   1674.6985     3767.7737        2.0255      164.0375
   1674.8508     3778.0593        2.0267      163.8345
   1675.0033     3788.3530        2.0271      163.7798
   1675.1556     3790.7986        2.0282      163.5766
   1675.3081     3790.9348        2.0299      163.2917
   1675.4604     3791.0706        2.0318      162.9557
   1675.6128     3791.2061        2.0335      162.6509
   1675.7653     3791.3420        2.0345      162.4940
   1675.9176     3791.4778        2.0358      162.2599
   1676.0701     3790.3684        2.0342      162.5304
   1676.2224     3788.5393        2.0305      163.1774
   1676.3749     3786.7090        2.0283      163.5540
   1676.5272     3784.8804        2.0271      163.7762
