~Version Information Section
VERS.              2.0  : CWLS LOG ASCII STANDARD - VERSION 2.0
WRAP.              NO   : ONE LINE PER DEPTH STEP
CREA.              21-jan-2025
#
~Well Information Section
#MNEM.UNIT         VALUE/NAME          DESCRIPTION
#_________         __________          ___________
STRT.M             30.1500             : START DEPTH
STOP.M             1859.5500           : STOP DEPTH
STEP.M             0.1524              : STEP
NULL.              -999.2500           : NULL VALUE
COMP.                                  : COMPANY
WELL.              F03-4               : WELL NAME
FLD.                                   : FIELD
LOC.                                   : LOCATION
PROV.                                  : PROVINCE
CNTY.                                  : COUNTY
STAT.                                  : STATE
CTRY.                                  : COUNTRY
SRVC.                                  : SERVICE COMPANY
DATE.                                  : LOG DATE
UWI.                                   : UNIQUE WELL ID
XCOORD.M           623255.980          : SURFACE X
YCOORD.M           6082586.870         : SURFACE Y
#
~Curve Information Section
#MNEM.UNIT         API CODE            DESCRIPTION
#_________         ________            ___________
DEPT.M                                 : 0 Depth
AI.m/sxg/cc                            : 1 AI from well tie
RHOB.g/cc                              : 2 Density
DT.us/ft                               : 3 Sonic
#
~Parameter Information Section
#MNEM.UNIT           VALUE             DESCRIPTION
#_________         __________          ___________
EKB.M              34.1000             : Elevation Kelly Bushing
EGL.M              -999.25             : Elevation Ground Level
#
~Other Information Section
#
~Ascii Data Section
# ...
   1209.4213     4413.4106        2.1386      144.4722
   1209.5736     4399.5576        2.1304      145.8770
   1209.7261     4385.6934        2.1200      147.6806
   1209.8784     4371.8398        2.1118      149.0900
   1210.0309     4357.9756        2.1109      149.2567
   1210.1832     4355.8501        2.1111      149.2265
   1210.3357     4356.3047        2.1113      149.1927
   1210.4880     4356.7583        2.1198      147.7136
   1210.6404     4357.2129        2.1272      146.4300
   1210.7928     4357.6670        2.1323      145.5562
   1210.9452     4358.1211        2.1145      148.6361
   1211.0977     4358.3511        2.1084      149.6990
   1211.2500     4354.8569        2.1311      145.7480
   1211.4025     4351.3594        2.1132      148.8621
   1211.5548     4347.8652        2.1014      150.9058
   1211.7073     4344.3682        2.1042      150.4273
   1211.8596     4340.8735        2.1111      149.2210
   1212.0121     4337.3760        2.1155      148.4641
   1212.1644     4333.8062        2.1193      147.8080
   1212.3169     4330.0884        2.1228      147.1956
   1212.4692     4326.3730        2.1253      146.7563
   1212.6216     4322.6582        2.1196      147.7508
   1212.7740     4318.9404        2.1138      148.7524
   1212.9264     4315.2251        2.1122      149.0386
   1213.0789     4311.5073        2.1118      149.0954
   1213.2312     4306.8730        2.1115      149.1491
   1213.3837     4301.5977        2.1112      149.2030
   1213.5360     4296.3271        2.1109      149.2567
   1213.6885     4291.0518        2.1106      149.3104
   1213.8408     4285.7798        2.1102      149.3643
   1213.9933     4280.5049        2.1099      149.4182
   1214.1456     4275.2339        2.1096      149.4720
   1214.2981     4277.9331        2.1093      149.5257
   1214.4504     4281.6040        2.1090      149.5795
   1214.6028     4285.2754        2.1087      149.6333
   1214.7552     4288.9492        2.1067      149.9907
   1214.9076     4292.6201        2.1043      150.3954
   1215.0601     4296.2944        2.1083      149.7125
   1215.2124     4299.9785        2.1084      149.6932
   1215.3649     4303.7148        2.0992      151.2804
   1215.5172     4307.4487        2.0921      152.5081
   1215.6697     4311.1851        2.0903      152.8225
   1215.8220     4314.9185        2.0955      151.9170
   1215.9745     4318.6548        2.1072      149.8935
   1216.1268     4322.3882        2.1187      147.8978
   1216.2793     4318.4141        2.1277      146.3545
   1216.4316     4308.9106        2.1288      146.1564
   1216.5840     4299.4082        2.1252      146.7874
   1216.7365     4289.8970        2.1231      147.1336
   1216.8888     4280.3936        2.1220      147.3313
   1217.0413     4270.8828        2.1200      147.6711
   1217.1936     4261.3804        2.1159      148.3976
   1217.3461     4256.1226        2.1058      150.1356
   1217.4984     4252.0361        2.0984      151.4164
   1217.6509     4247.9463        2.0927      152.4157
   1217.8032     4243.8599        2.0918      152.5632
   1217.9557     4239.7700        2.0923      152.4786
   1218.1080     4235.6836        2.0966      151.7268
   1218.2605     4233.4385        2.0980      151.4846
   1218.4128     4238.4497        2.0987      151.3652
   1218.5652     4243.4619        2.0990      151.3198
   1218.7177     4248.4775        2.0990      151.3198
   1218.8700     4253.4897        2.0990      151.3198
   1219.0225     4258.5054        2.0992      151.2859
   1219.1748     4263.5171        2.1112      149.2016
   1219.3273     4276.4058        2.1057      150.1604
   1219.4796     4295.0825        2.0993      151.2696
   1219.6321     4313.7739        2.1021      150.7823
   1219.7844     4332.4507        2.1085      149.6688
   1219.9369     4351.1421        2.1175      148.1087
   1220.0892     4369.8188        2.1218      147.3549
   1220.2417     4388.5107        2.1089      149.6043
   1220.3940     4395.2153        2.0952      151.9799
   1220.5464     4400.3833        2.0942      152.1559
   1220.6989     4405.5552        2.0988      151.3559
   1220.8512     4410.7227        2.1061      150.0879
   1221.0037     4415.8950        2.1211      147.4917
   1221.1560     4421.0625        2.1326      145.5013
   1221.3085     4425.7559        2.1434      143.6286
   1221.4608     4428.1689        2.1507      142.3640
   1221.6133     4430.5850        2.1553      141.5620
   1221.7656     4432.9980        2.1499      142.4957
   1221.9181     4435.4131        2.1399      144.2410
   1222.0704     4437.8267        2.1258      146.6848
   1222.2228     4440.2397        2.1126      148.9559
   1222.3752     4450.3301        2.1002      151.1092
   1222.5276     4480.3457        2.1000      151.1578
   1222.6801     4510.3857        2.1096      149.4963
   1222.8324     4540.4014        2.1276      146.3618
   1222.9849     4570.4414        2.1391      144.3804
   1223.1372     4600.4570        2.1345      145.1740
   1223.2897     4630.4966        2.1336      145.3165
   1223.4420     4645.8643        2.1392      144.3474
   1223.5945     4645.1040        2.1448      143.3766
   1223.7468     4644.3442        2.1504      142.4064
   1223.8993     4643.5840        2.1560      141.4360
   1224.0516     4642.8242        2.1616      140.4831
   1224.2040     4642.0640        2.1661      139.7103
   1224.3564     4641.3042        2.1687      139.2514
   1224.5088     4632.7656        2.1709      138.8642
   1224.6613     4611.8071        2.1735      138.4183
   1224.8136     4590.8652        2.1772      137.7800
   1224.9661     4569.9067        2.1804      137.2228
   1225.1184     4548.9648        2.1796      137.3629
   1225.2709     4528.0063        2.1698      139.0546
   1225.4232     4507.0645        2.1488      142.6889
   1225.5757     4486.2339        2.1243      146.9422
   1225.7280     4465.8691        2.1065      150.0147
   1225.8805     4445.4883        2.1038      150.4827
   1226.0328     4425.1240        2.1106      149.3008
   1226.1852     4404.7593        2.1218      147.3616
   1226.3376     4384.3784        2.1335      145.3434
   1226.4900     4364.0137        2.1374      144.6703
   1226.6425     4345.9829        2.1374      144.6696
   1226.7948     4330.8657        2.1373      144.6975
   1226.9473     4315.7363        2.1301      145.9354
   1227.0996     4300.6191        2.1137      148.7679
   1227.2521     4285.4897        2.0991      151.2897
   1227.4044     4270.3730        2.0909      152.7213
   1227.5569     4255.2432        2.0944      152.1102
   1227.7092     4247.9834        2.1003      151.0860
   1227.8617     4243.5327        2.1082      149.7162
   1228.0140     4239.0850        2.1134      148.8134
   1228.1664     4234.6377        2.1158      148.4070
   1228.3188     4230.1870        2.1112      149.2049
   1228.4712     4225.7397        2.1054      150.2054
   1228.6237     4221.4214        2.1076      149.8302
   1228.7760     4219.7749        2.0990      151.3266
   1228.9285     4218.1274        2.0923      152.4893
   1229.0808     4216.4810        2.0904      152.8114
   1229.2333     4214.8335        2.0892      153.0154
   1229.3856     4213.1875        2.0885      153.1316
   1229.5381     4211.5396        2.0919      152.5396
   1229.6904     4211.1904        2.0935      152.2634
   1229.8429     4212.1777        2.0954      151.9421
   1229.9952     4213.1641        2.0973      151.6047
   1230.1476     4214.1504        2.0988      151.3554
   1230.3000     4215.1367        2.0993      151.2652
   1230.4524     4216.1235        2.0996      151.2135
   1230.6049     4217.1108        2.0998      151.1648
   1230.7572     4203.4731        2.1001      151.1254
   1230.9097     4188.0654        2.1000      151.1413
   1231.0620     4172.6685        2.0999      151.1666
   1231.2145     4157.2607        2.0997      151.1913
   1231.3668     4141.8643        2.1006      151.0404
   1231.5193     4126.4561        2.1080      149.7614
