~Version Information Section
VERS.              2.0  : CWLS LOG ASCII STANDARD - VERSION 2.0
WRAP.              NO   : ONE LINE PER DEPTH STEP
CREA.              21-jan-2025
#
~Well Information Section
#MNEM.UNIT         VALUE/NAME          DESCRIPTION
#_________         __________          ___________
STRT.M             30.1500             : START DEPTH
STOP.M             1859.5500           : STOP DEPTH
STEP.M             0.1524              : STEP
NULL.              -999.2500           : NULL VALUE
COMP.                                  : COMPANY
WELL.              F03-4               : WELL NAME
FLD.                                   : FIELD
LOC.                                   : LOCATION
PROV.                                  : PROVINCE
CNTY.                                  : COUNTY
STAT.                                  : STATE
CTRY.                                  : COUNTRY
SRVC.                                  : SERVICE COMPANY
DATE.                                  : LOG DATE
UWI.                                   : UNIQUE WELL ID
XCOORD.M           623255.980          : SURFACE X
YCOORD.M           6082586.870         : SURFACE Y
#
~Curve Information Section
#MNEM.UNIT         API CODE            DESCRIPTION
#_________         ________            ___________
DEPT.M                                 : 0 Depth
AI.m/sxg/cc                            : 1 AI from well tie
RHOB.g/cc                              : 2 Density
DT.us/ft                               : 3 Sonic
#
~Parameter Information Section
#MNEM.UNIT           VALUE             DESCRIPTION
#_________         __________          ___________
EKB.M              34.1000             : Elevation Kelly Bushing
EGL.M              -999.25             : Elevation Ground Level
#
~Other Information Section
#
~Ascii Data Section
# ...
   1565.4276     3643.4607        2.0059      167.4442
   1565.5801     3644.9519        2.0073      167.2017
   1565.7324     3646.4417        2.0084      167.0129
   1565.8849     3646.5942        2.0088      166.9400
   1566.0372     3641.7349        2.0089      166.9126
   1566.1897     3636.8713        2.0082      167.0394
   1566.3420     3632.0117        2.0067      167.2971
   1566.4944     3627.1523        2.0049      167.6125
   1566.6469     3622.2888        2.0024      168.0477
   1566.7992     3617.4878        2.0011      168.2740
   1566.9517     3612.8752        2.0011      168.2740
   1567.1040     3608.2659        2.0012      168.2568
   1567.2565     3603.6531        2.0015      168.2059
   1567.4088     3599.0439        2.0016      168.1900
   1567.5613     3594.4312        2.0006      168.3637
   1567.7136     3591.1228        1.9984      168.7491
   1567.8661     3590.9490        1.9962      169.1251
   1568.0184     3590.7754        1.9936      169.5636
   1568.1709     3590.6008        1.9916      169.9161
   1568.3232     3590.4275        1.9917      169.8976
   1568.4756     3590.2534        1.9928      169.7112
   1568.6281     3595.6096        1.9936      169.5717
   1568.7804     3609.4641        1.9926      169.7436
   1568.9329     3623.3293        1.9914      169.9371
   1569.0852     3637.1836        1.9912      169.9819
   1569.2377     3651.0491        1.9915      169.9265
   1569.3900     3664.9033        1.9937      169.5458
   1569.5425     3679.1785        1.9974      168.9093
   1569.6948     3693.8420        2.0010      168.2837
   1569.8473     3708.5176        2.0041      167.7592
   1569.9996     3723.1809        2.0070      167.2459
   1570.1521     3737.8562        2.0123      166.3393
   1570.3044     3752.5203        2.0182      165.3159
   1570.4568     3760.4976        2.0238      164.3450
   1570.6093     3762.1243        2.0283      163.5526
   1570.7616     3763.7495        2.0310      163.1015
   1570.9141     3765.3762        2.0306      163.1705
   1571.0664     3767.0020        2.0290      163.4439
   1571.2189     3768.6287        2.0281      163.5865
   1571.3712     3767.8948        2.0277      163.6620
   1571.5237     3763.5803        2.0275      163.7003
   1571.6760     3759.2690        2.0275      163.7056
   1571.8285     3754.9546        2.0295      163.3601
   1571.9808     3750.6436        2.0298      163.3000
   1572.1333     3746.3293        2.0283      163.5596
   1572.2856     3744.7410        2.0240      164.2960
   1572.4380     3750.0845        2.0208      164.8464
   1572.5905     3755.4319        2.0174      165.4420
   1572.7428     3760.7756        2.0159      165.7036
   1572.8953     3766.1233        2.0162      165.6488
   1573.0476     3771.4668        2.0163      165.6346
   1573.2001     3776.1772        2.0178      165.3753
   1573.3524     3778.7590        2.0225      164.5589
   1573.5049     3781.3433        2.0263      163.9071
   1573.6572     3783.9253        2.0284      163.5413
   1573.8097     3786.5093        2.0310      163.0872
   1573.9620     3789.0913        2.0325      162.8230
   1574.1145     3789.8064        2.0340      162.5764
   1574.2668     3776.8362        2.0376      161.9421
   1574.4192     3763.8660        2.0400      161.5462
   1574.5717     3750.8853        2.0399      161.5627
   1574.7240     3737.9150        2.0359      162.2451
   1574.8765     3724.9346        2.0307      163.1401
   1575.0288     3711.9644        2.0261      163.9413
   1575.1813     3699.9531        2.0217      164.7025
   1575.3336     3687.9944        2.0173      165.4630
   1575.4861     3676.0261        2.0131      166.1892
   1575.6384     3664.0674        2.0101      166.7131
   1575.7909     3652.0991        2.0088      166.9385
   1575.9432     3640.1404        2.0082      167.0400
   1576.0957     3635.4543        2.0075      167.1579
   1576.2480     3631.2302        2.0061      167.3953
   1576.4004     3627.0059        2.0038      167.8063
   1576.5529     3622.7783        2.0018      168.1579
   1576.7052     3618.5540        2.0003      168.4117
   1576.8577     3614.3264        1.9990      168.6308
   1577.0100     3616.5779        1.9984      168.7306
   1577.1625     3618.9150        1.9984      168.7315
   1577.3148     3621.2502        1.9982      168.7657
   1577.4673     3623.5876        1.9976      168.8671
   1577.6196     3625.9226        1.9972      168.9339
   1577.7721     3628.7212        1.9977      168.8478
   1577.9244     3638.7271        1.9993      168.5757
   1578.0769     3648.7410        2.0010      168.2896
   1578.2292     3658.7478        2.0023      168.0509
   1578.3816     3668.7537        2.0032      167.9002
   1578.5341     3678.7681        2.0033      167.8835
   1578.6864     3688.6443        2.0032      167.9082
   1578.8389     3697.4822        2.0043      167.7124
   1578.9912     3706.3132        2.0079      167.0855
   1579.1437     3715.1511        2.0126      166.2861
   1579.2960     3723.9822        2.0165      165.5963
   1579.4485     3732.8201        2.0189      165.1878
   1579.6008     3741.1660        2.0204      164.9240
   1579.7533     3744.6436        2.0226      164.5390
   1579.9056     3748.1182        2.0237      164.3551
   1580.0580     3751.5930        2.0231      164.4551
   1580.2104     3755.0698        2.0220      164.6462
   1580.3628     3758.5447        2.0213      164.7792
   1580.5153     3762.0171        2.0221      164.6374
   1580.6676     3765.1462        2.0246      164.2065
   1580.8201     3768.2776        2.0261      163.9364
   1580.9724     3771.4065        2.0282      163.5676
   1581.1249     3774.5381        2.0311      163.0785
   1581.2772     3777.6675        2.0306      163.1672
   1581.4297     3780.7991        2.0284      163.5437
   1581.5820     3784.3645        2.0260      163.9496
   1581.7345     3787.9805        2.0232      164.4425
   1581.8868     3791.5933        2.0213      164.7758
   1582.0392     3795.2058        2.0235      164.3876
   1582.1917     3798.8218        2.0244      164.2302
   1582.3440     3802.4343        2.0275      163.6941
   1582.4965     3803.8508        2.0311      163.0864
   1582.6488     3804.7590        2.0370      162.0468
   1582.8013     3805.6682        2.0380      161.8801
   1582.9536     3806.5764        2.0365      162.1365
   1583.1061     3807.4856        2.0347      162.4413
   1583.2584     3808.3943        2.0331      162.7279
   1583.4109     3810.4631        2.0332      162.7057
   1583.5632     3813.1494        2.0337      162.6178
   1583.7157     3815.8384        2.0333      162.6827
   1583.8680     3818.5247        2.0324      162.8448
   1584.0204     3821.2112        2.0321      162.9030
   1584.1729     3823.8999        2.0317      162.9688
   1584.3252     3823.3352        2.0317      162.9836
   1584.4777     3819.6384        2.0322      162.8725
   1584.6300     3815.9448        2.0340      162.5628
   1584.7825     3812.2483        2.0367      162.1077
   1584.9348     3808.5547        2.0412      161.3293
   1585.0873     3804.8579        2.0431      161.0001
   1585.2396     3803.0042        2.0422      161.1452
   1585.3921     3804.8186        2.0395      161.6295
   1585.5444     3806.6313        2.0362      162.1883
   1585.6969     3808.4456        2.0338      162.6087
   1585.8492     3810.2583        2.0305      163.1813
   1586.0016     3812.0715        2.0246      164.2111
   1586.1541     3816.4941        2.0203      164.9429
   1586.3064     3831.5396        2.0199      165.0063
   1586.4589     3846.5974        2.0216      164.7167
   1586.6112     3861.6428        2.0253      164.0760
   1586.7637     3876.7007        2.0318      162.9599
   1586.9160     3891.7461        2.0393      161.6542
   1587.0685     3905.8660        2.0458      160.5332
   1587.2208     3907.3018        2.0508      159.6694
   1587.3733     3908.7388        2.0534      159.2025
   1587.5256     3910.1741        2.0548      158.9663
