~Version Information Section
VERS.              2.0  : CWLS LOG ASCII STANDARD - VERSION 2.0
WRAP.              NO   : ONE LINE PER DEPTH STEP
CREA.              21-jan-2025
#
~Well Information Section
#MNEM.UNIT         VALUE/NAME          DESCRIPTION
#_________         __________          ___________
STRT.M             30.1500             : START DEPTH
STOP.M             1859.5500           : STOP DEPTH
STEP.M             0.1524              : STEP
NULL.              -999.2500           : NULL VALUE
COMP.                                  : COMPANY
WELL.              F03-4               : WELL NAME
FLD.                                   : FIELD
LOC.                                   : LOCATION
PROV.                                  : PROVINCE
CNTY.                                  : COUNTY
STAT.                                  : STATE
CTRY.                                  : COUNTRY
SRVC.                                  : SERVICE COMPANY
DATE.                                  : LOG DATE
UWI.                                   : UNIQUE WELL ID
XCOORD.M           623255.980          : SURFACE X
YCOORD.M           6082586.870         : SURFACE Y
#
~Curve Information Section
#MNEM.UNIT         API CODE            DESCRIPTION
#_________         ________            ___________
DEPT.M                                 : 0 Depth
AI.m/sxg/cc                            : 1 AI from well tie
RHOB.g/cc                              : 2 Density
DT.us/ft                               : 3 Sonic
#
~Parameter Information Section
#MNEM.UNIT           VALUE             DESCRIPTION
#_________         __________          ___________
EKB.M              34.1000             : Elevation Kelly Bushing
EGL.M              -999.25             : Elevation Ground Level
#
~Other Information Section
#
~Ascii Data Section
# ...
   1120.4197     4958.9785        2.2037      133.1895
   1120.5720     4969.1328        2.2071      132.6090
   1120.7245     4979.2949        2.2070      132.6243
   1120.8768     4975.2964        2.2067      132.6709
   1121.0293     4964.0830        2.2057      132.8328
   1121.1816     4952.8794        2.2031      133.2908
   1121.3340     4941.6763        2.2006      133.7317
   1121.4865     4930.4629        2.1965      134.4353
   1121.6388     4919.2598        2.1880      135.9086
   1121.7913     4908.0469        2.1842      136.5670
   1121.9436     4896.7837        2.1857      136.3057
   1122.0961     4885.3027        2.1869      136.1051
   1122.2484     4873.8311        2.1889      135.7557
   1122.4009     4862.3506        2.1904      135.4908
   1122.5532     4850.8789        2.1906      135.4598
   1122.7057     4839.3984        2.1898      135.5864
   1122.8580     4827.9272        2.1890      135.7378
   1123.0105     4816.4468        2.1863      136.2003
   1123.1628     4812.4678        2.1818      136.9787
   1123.3152     4809.6626        2.1800      137.2901
   1123.4677     4806.8555        2.1761      137.9765
   1123.6200     4804.0503        2.1691      139.1791
   1123.7725     4801.2427        2.1686      139.2746
   1123.9248     4798.4385        2.1688      139.2384
   1124.0773     4795.6309        2.1708      138.8939
   1124.2296     4795.9746        2.1711      138.8324
   1124.3821     4798.1211        2.1711      138.8324
   1124.5344     4800.2661        2.1691      139.1789
   1124.6869     4802.4126        2.1688      139.2368
   1124.8392     4804.5571        2.1738      138.3711
   1124.9916     4806.7026        2.1746      138.2277
   1125.1440     4808.8491        2.1812      137.0985
   1125.2964     4806.3813        2.1823      136.9070
   1125.4489     4797.4282        2.1827      136.8171
   1125.6012     4788.4829        2.1833      136.7174
   1125.7537     4779.5303        2.1828      136.8026
   1125.9060     4770.5850        2.1785      137.5567
   1126.0585     4761.6318        2.1761      137.9650
   1126.2108     4752.6860        2.1752      138.1175
   1126.3633     4744.6304        2.1739      138.3600
   1126.5156     4742.1934        2.1732      138.4726
   1126.6681     4739.7544        2.1705      138.9421
   1126.8204     4737.3179        2.1673      139.4930
   1126.9728     4734.8809        2.1664      139.6447
   1127.1252     4732.4424        2.1660      139.7129
   1127.2776     4730.0054        2.1636      140.1233
   1127.4301     4727.5664        2.1616      140.4725
   1127.5824     4734.7939        2.1611      140.5585
   1127.7349     4742.2651        2.1611      140.5585
   1127.8872     4749.7310        2.1611      140.5585
   1128.0397     4757.2021        2.1608      140.6195
   1128.1920     4764.6675        2.1594      140.8538
   1128.3445     4772.1387        2.1606      140.6467
   1128.4968     4779.6045        2.1678      139.4063
   1128.6493     4776.2754        2.1727      138.5621
   1128.8016     4771.2251        2.1751      138.1336
   1128.9540     4766.1748        2.1798      137.3361
   1129.1064     4761.1211        2.1823      136.9034
   1129.2588     4756.0708        2.1818      136.9911
   1129.4113     4751.0166        2.1802      137.2607
   1129.5636     4745.9668        2.1786      137.5317
   1129.7161     4736.6211        2.1774      137.7515
   1129.8684     4724.3247        2.1752      138.1276
   1130.0209     4712.0181        2.1718      138.7191
   1130.1732     4699.7217        2.1691      139.1891
   1130.3257     4687.4150        2.1674      139.4798
   1130.4780     4675.1182        2.1646      139.9580
   1130.6305     4662.8115        2.1588      140.9590
   1130.7828     4654.4502        2.1549      141.6365
   1130.9352     4651.5796        2.1538      141.8231
   1131.0876     4648.7061        2.1537      141.8389
   1131.2400     4645.8359        2.1541      141.7768
   1131.3925     4642.9629        2.1541      141.7768
   1131.5448     4640.0923        2.1541      141.7768
   1131.6973     4637.2192        2.1544      141.7282
   1131.8496     4634.8936        2.1558      141.4818
   1132.0021     4633.5229        2.1565      141.3705
   1132.1544     4632.1528        2.1565      141.3705
   1132.3069     4630.7822        2.1565      141.3705
   1132.4592     4629.4126        2.1563      141.4014
   1132.6117     4628.0415        2.1546      141.6838
   1132.7640     4626.6719        2.1541      141.7768
   1132.9164     4626.2500        2.1540      141.7856
   1133.0688     4628.0464        2.1531      141.9400
   1133.2212     4629.8403        2.1529      141.9798
   1133.3737     4631.6372        2.1529      141.9798
   1133.5260     4633.4316        2.1529      141.9798
   1133.6785     4635.2271        2.1529      141.9798
   1133.8308     4637.0215        2.1529      141.9798
   1133.9833     4641.9824        2.1529      141.9798
   1134.1356     4656.0791        2.1524      142.0663
   1134.2881     4670.1875        2.1519      142.1675
   1134.4404     4684.2847        2.1518      142.1823
   1134.5929     4698.3926        2.1522      142.0960
   1134.7452     4712.4893        2.1528      141.9952
   1134.8976     4726.5864        2.1529      141.9800
   1135.0500     4739.7148        2.1549      141.6354
   1135.2024     4749.3154        2.1602      140.7231
   1135.3549     4758.9233        2.1623      140.3621
   1135.5072     4768.5244        2.1676      139.4508
   1135.6597     4778.1328        2.1688      139.2384
   1135.8120     4787.7334        2.1693      139.1531
   1135.9645     4797.3423        2.1752      138.1348
   1136.1168     4806.2168        2.1776      137.7104
   1136.2693     4791.3130        2.1828      136.8188
   1136.4216     4776.4214        2.1846      136.4974
   1136.5741     4761.5181        2.1842      136.5740
   1136.7264     4746.6265        2.1812      137.0868
   1136.8788     4731.7349        2.1779      137.6607
   1137.0312     4716.8311        2.1765      137.9031
   1137.1836     4701.9395        2.1755      138.0736
   1137.3361     4686.0239        2.1733      138.4628
   1137.4884     4669.7827        2.1716      138.7451
   1137.6409     4653.5288        2.1704      138.9572
   1137.7932     4637.2876        2.1670      139.5510
   1137.9457     4621.0337        2.1571      141.2581
   1138.0980     4604.7925        2.1485      142.7548
   1138.2505     4588.5381        2.1460      143.1821
   1138.4028     4587.7437        2.1455      143.2664
   1138.5553     4595.6060        2.1453      143.2996
   1138.7076     4603.4614        2.1455      143.2646
   1138.8600     4611.3174        2.1461      143.1637
   1139.0125     4619.1792        2.1467      143.0613
   1139.1648     4627.0352        2.1473      142.9606
   1139.3173     4634.8975        2.1477      142.8933
   1139.4696     4657.6572        2.1477      142.8933
   1139.6221     4688.5010        2.1477      142.8933
   1139.7744     4719.3198        2.1477      142.8933
   1139.9269     4750.1636        2.1481      142.8267
   1140.0792     4780.9824        2.1496      142.5687
   1140.2317     4811.8262        2.1527      142.0246
   1140.3840     4842.6455        2.1582      141.0670
   1140.5365     4847.0117        2.1625      140.3148
   1140.6888     4835.4668        2.1692      139.1685
   1140.8412     4823.9229        2.1802      137.2666
   1140.9937     4812.3687        2.1941      134.8584
   1141.1460     4800.8242        2.2000      133.8432
   1141.2985     4789.2700        2.2011      133.6347
   1141.4508     4777.7251        2.2011      133.6387
   1141.6033     4760.1929        2.1991      133.9786
   1141.7556     4724.9614        2.1973      134.2922
   1141.9081     4689.7007        2.1959      134.5426
   1142.0604     4654.4688        2.1927      135.0944
   1142.2129     4619.2085        2.1892      135.7030
   1142.3652     4583.9771        2.1615      140.4888
   1142.5176     4548.7446        2.1319      145.6196
