~Version Information Section
VERS.              2.0  : CWLS LOG ASCII STANDARD - VERSION 2.0
WRAP.              NO   : ONE LINE PER DEPTH STEP
CREA.              21-jan-2025
#
~Well Information Section
#MNEM.UNIT         VALUE/NAME          DESCRIPTION
#_________         __________          ___________
STRT.M             30.1500             : START DEPTH
STOP.M             1859.5500           : STOP DEPTH
STEP.M             0.1524              : STEP
NULL.              -999.2500           : NULL VALUE
COMP.                                  : COMPANY
WELL.              F03-4               : WELL NAME
FLD.                                   : FIELD
LOC.                                   : LOCATION
PROV.                                  : PROVINCE
CNTY.                                  : COUNTY
STAT.                                  : STATE
CTRY.                                  : COUNTRY
SRVC.                                  : SERVICE COMPANY
DATE.                                  : LOG DATE
UWI.                                   : UNIQUE WELL ID
XCOORD.M           623255.980          : SURFACE X
YCOORD.M           6082586.870         : SURFACE Y
#
~Curve Information Section
#MNEM.UNIT         API CODE            DESCRIPTION
#_________         ________            ___________
DEPT.M                                 : 0 Depth
AI.m/sxg/cc                            : 1 AI from well tie
RHOB.g/cc                              : 2 Density
DT.us/ft                               : 3 Sonic
#
~Parameter Information Section
#MNEM.UNIT           VALUE             DESCRIPTION
#_________         __________          ___________
EKB.M              34.1000             : Elevation Kelly Bushing
EGL.M              -999.25             : Elevation Ground Level
#
~Other Information Section
#
~Ascii Data Section
# ...
   1743.4308     4055.0110        2.0645      157.3015
   1743.5833     4068.3035        2.0705      156.2431
   1743.7356     4081.5852        2.0765      155.2087
   1743.8881     4094.8777        2.0823      154.2094
   1744.0404     4108.1597        2.0857      153.6322
   1744.1929     4121.4521        2.0861      153.5555
   1744.3452     4132.1055        2.0831      154.0725
   1744.4977     4140.3628        2.0796      154.6801
   1744.6500     4148.6138        2.0789      154.8036
   1744.8025     4156.8711        2.0787      154.8332
   1744.9548     4165.1226        2.0824      154.2012
   1745.1073     4173.3804        2.0833      154.0453
   1745.2596     4181.9102        2.0851      153.7189
   1745.4120     4196.6162        2.0872      153.3568
   1745.5645     4211.3345        2.0890      153.0443
   1745.7168     4226.0405        2.0926      152.4317
   1745.8693     4240.7583        2.0932      152.3199
   1746.0216     4255.4644        2.0926      152.4231
   1746.1741     4270.1821        2.0928      152.3901
   1746.3264     4281.1064        2.0975      151.5708
   1746.4789     4288.0811        2.1036      150.5076
   1746.6312     4295.0498        2.1065      150.0055
   1746.7837     4302.0239        2.1084      149.6945
   1746.9360     4308.9932        2.1114      149.1810
   1747.0885     4315.9673        2.1144      148.6506
   1747.2408     4322.9355        2.1158      148.4057
   1747.3932     4329.4175        2.1163      148.3300
   1747.5457     4335.7822        2.1160      148.3761
   1747.6980     4342.1416        2.1149      148.5597
   1747.8505     4348.5059        2.1133      148.8407
   1748.0028     4354.8657        2.1115      149.1492
   1748.1553     4361.2305        2.1106      149.3066
   1748.3076     4367.5693        2.1100      149.4099
   1748.4601     4373.6836        2.1094      149.5245
   1748.6124     4379.7939        2.1109      149.2655
   1748.7649     4385.9087        2.1157      148.4316
   1748.9172     4392.0181        2.1226      147.2319
   1749.0697     4398.1333        2.1281      146.2749
   1749.2220     4404.2427        2.1290      146.1243
   1749.3744     4406.6201        2.1278      146.3228
   1749.5269     4400.6885        2.1271      146.4440
   1749.6792     4394.7617        2.1263      146.5836
   1749.8317     4388.8301        2.1255      146.7231
   1749.9840     4382.9023        2.1247      146.8625
   1750.1365     4376.9712        2.1239      147.0021
   1750.2888     4371.0439        2.1231      147.1416
   1750.4413     4361.5239        2.1223      147.2811
   1750.5936     4348.3735        2.1215      147.4206
   1750.7461     4335.2134        2.1207      147.5603
   1750.8984     4322.0630        2.1199      147.6998
   1751.0509     4308.9023        2.1191      147.8359
   1751.2032     4295.7524        2.1183      147.9818
   1751.3556     4282.6025        2.1162      148.3457
   1751.5081     4255.3003        2.1124      149.0059
   1751.6604     4222.7559        2.1105      149.3216
   1751.8129     4190.1851        2.1119      149.0928
   1751.9652     4157.6411        2.1165      148.3029
   1752.1177     4125.0703        2.1162      148.3452
   1752.2700     4092.5261        2.1120      149.0740
   1752.4225     4059.9116        2.1049      150.3007
   1752.5748     4024.9792        2.0943      152.1203
   1752.7273     3990.0188        2.0796      154.6770
   1752.8796     3955.0864        2.0648      157.2354
   1753.0321     3920.1262        2.0572      158.5616
   1753.1844     3885.1938        2.0512      159.5939
   1753.3368     3850.2615        2.0473      160.2622
   1753.4893     3832.5474        2.0438      160.8729
   1753.6416     3823.8315        2.0383      161.8286
   1753.7941     3815.1086        2.0349      162.4088
   1753.9464     3806.3928        2.0325      162.8318
   1754.0989     3797.6697        2.0301      163.2385
   1754.2512     3788.9539        2.0303      163.2128
   1754.4037     3785.6853        2.0314      163.0296
   1754.5560     3787.7234        2.0316      162.9980
   1754.7085     3789.7629        2.0310      163.0953
   1754.8608     3791.8010        2.0289      163.4597
   1755.0133     3793.8406        2.0263      163.9035
   1755.1656     3795.8787        2.0257      164.0101
   1755.3180     3795.9744        2.0258      164.0015
   1755.4705     3793.0132        2.0266      163.8566
   1755.6228     3790.0537        2.0305      163.1897
   1755.7753     3787.0920        2.0358      162.2645
   1755.9276     3784.1328        2.0378      161.9059
   1756.0801     3781.1711        2.0379      161.8910
   1756.2324     3776.4856        2.0369      162.0724
   1756.3849     3766.2646        2.0334      162.6672
   1756.5372     3756.0520        2.0307      163.1507
   1756.6897     3745.8308        2.0285      163.5163
   1756.8420     3735.6179        2.0252      164.0864
   1756.9944     3725.4053        2.0215      164.7433
   1757.1469     3715.1914        2.0182      165.3064
   1757.2992     3705.0308        2.0172      165.4825
   1757.4517     3694.8625        2.0184      165.2762
   1757.6040     3684.7029        2.0197      165.0408
   1757.7565     3674.5344        2.0194      165.0967
   1757.9088     3664.3745        2.0172      165.4859
   1758.0613     3654.1951        2.0149      165.8912
   1758.2136     3643.9014        2.0128      166.2482
   1758.3661     3633.5994        2.0096      166.7915
   1758.5184     3623.3057        2.0057      167.4664
   1758.6709     3613.0039        2.0027      167.9895
   1758.8232     3602.7104        2.0004      168.3954
   1758.9756     3593.7896        1.9980      168.8047
   1759.1281     3595.3115        1.9968      169.0118
   1759.2804     3596.8323        1.9948      169.3510
   1759.4329     3598.3545        1.9929      169.6948
   1759.5852     3599.8755        1.9920      169.8506
   1759.7377     3601.3975        1.9914      169.9542
   1759.8900     3604.6345        1.9916      169.9058
   1760.0425     3614.0076        1.9924      169.7627
   1760.1948     3623.3733        1.9935      169.5822
   1760.3473     3632.7466        1.9953      169.2778
   1760.4996     3642.1123        1.9966      169.0518
   1760.6521     3651.4851        1.9974      168.9122
   1760.8044     3659.2087        2.0027      168.0017
   1760.9568     3663.2639        2.0061      167.4012
   1761.1093     3667.3225        2.0082      167.0437
   1761.2616     3671.3779        2.0093      166.8561
   1761.4141     3675.4368        2.0106      166.6147
   1761.5664     3679.4917        2.0111      166.5347
   1761.7189     3681.8782        2.0125      166.2968
   1761.8712     3680.6235        2.0138      166.0739
   1762.0237     3679.3679        2.0149      165.8750
   1762.1760     3678.1133        2.0132      166.1794
   1762.3285     3676.8569        2.0118      166.4163
   1762.4808     3675.6023        2.0096      166.7924
   1762.6333     3674.7351        2.0098      166.7650
   1762.7856     3674.7598        2.0103      166.6651
   1762.9380     3674.7844        2.0089      166.9105
   1763.0905     3674.8091        2.0077      167.1264
   1763.2428     3674.8337        2.0075      167.1566
   1763.3953     3674.8582        2.0080      167.0707
   1763.5476     3675.5422        2.0106      166.6244
   1763.7001     3677.7058        2.0120      166.3760
   1763.8524     3679.8682        2.0117      166.4313
   1764.0049     3682.0317        2.0111      166.5355
   1764.1572     3684.1938        2.0101      166.7164
   1764.3097     3686.3574        2.0095      166.8224
   1764.4620     3686.8972        2.0102      166.6870
   1764.6145     3683.7717        2.0109      166.5635
   1764.7668     3680.6484        2.0116      166.4426
   1764.9192     3677.5251        2.0133      166.1528
   1765.0717     3674.3992        2.0152      165.8285
   1765.2240     3671.2761        2.0156      165.7469
   1765.3765     3667.3738        2.0151      165.8454
   1765.5288     3661.5591        2.0136      166.1077
