~Version Information Section
VERS.              2.0  : CWLS LOG ASCII STANDARD - VERSION 2.0
WRAP.              NO   : ONE LINE PER DEPTH STEP
CREA.              21-jan-2025
#
~Well Information Section
#MNEM.UNIT         VALUE/NAME          DESCRIPTION
#_________         __________          ___________
STRT.M             30.1500             : START DEPTH
STOP.M             1859.5500           : STOP DEPTH
STEP.M             0.1524              : STEP
NULL.              -999.2500           : NULL VALUE
COMP.                                  : COMPANY
WELL.              F03-4               : WELL NAME
FLD.                                   : FIELD
LOC.                                   : LOCATION
PROV.                                  : PROVINCE
CNTY.                                  : COUNTY
STAT.                                  : STATE
CTRY.                                  : COUNTRY
SRVC.                                  : SERVICE COMPANY
DATE.                                  : LOG DATE
UWI.                                   : UNIQUE WELL ID
XCOORD.M           623255.980          : SURFACE X
YCOORD.M           6082586.870         : SURFACE Y
#
~Curve Information Section
#MNEM.UNIT         API CODE            DESCRIPTION
#_________         ________            ___________
DEPT.M                                 : 0 Depth
AI.m/sxg/cc                            : 1 AI from well tie
RHOB.g/cc                              : 2 Density
DT.us/ft                               : 3 Sonic
#
~Parameter Information Section
#MNEM.UNIT           VALUE             DESCRIPTION
#_________         __________          ___________
EKB.M              34.1000             : Elevation Kelly Bushing
EGL.M              -999.25             : Elevation Ground Level
#
~Other Information Section
#
~Ascii Data Section
# ...
    942.4164     5021.9932        2.2046      133.0331
    942.5688     5011.9668        2.2100      132.1019
    942.7213     5001.9409        2.2121      131.7318
    942.8737     4991.9150        2.2115      131.8468
    943.0261     4981.8887        2.2113      131.8781
    943.1784     4971.8667        2.2095      132.1904
    943.3308     4963.1938        2.2043      133.0993
    943.4832     4957.5786        2.1989      134.0252
    943.6356     4951.9639        2.1968      134.3930
    943.7880     4946.3491        2.1962      134.4890
    943.9404     4940.7344        2.1970      134.3630
    944.0928     4935.1187        2.1993      133.9552
    944.2452     4929.5034        2.1889      135.7591
    944.3976     4923.8887        2.1726      138.5645
    944.5500     4931.0605        2.1698      139.0602
    944.7025     4939.6875        2.1731      138.4911
    944.8549     4948.3135        2.1801      137.2726
    945.0073     4956.9399        2.1877      135.9462
    945.1596     4965.5630        2.1953      134.6459
    945.3120     4974.1890        2.2000      133.8296
    945.4644     4982.8154        2.1979      134.1880
    945.6168     4990.9116        2.1966      134.4152
    945.7692     4998.5742        2.1965      134.4449
    945.9216     5006.2368        2.1963      134.4686
    946.0740     5013.8994        2.1974      134.2876
    946.2264     5021.5615        2.1969      134.3625
    946.3788     5029.2246        2.1964      134.4479
    946.5312     5036.8867        2.1965      134.4426
    946.6837     5043.9819        2.1981      134.1669
    946.8361     5046.4175        2.2000      133.8396
    946.9885     5048.8530        2.2018      133.5250
    947.1408     5051.2871        2.2043      133.0881
    947.2932     5053.7227        2.2066      132.6950
    947.4456     5056.1577        2.2084      132.3817
    947.5980     5058.5928        2.2107      131.9771
    947.7504     5061.0288        2.2122      131.7098
    947.9028     5066.2153        2.2119      131.7731
    948.0552     5073.4478        2.2091      132.2502
    948.2076     5080.6812        2.2036      133.2030
    948.3600     5087.9141        2.1948      134.7225
    948.5125     5095.1465        2.1878      135.9454
    948.6649     5102.3794        2.1874      136.0131
    948.8173     5109.6123        2.1939      134.8879
    948.9697     5117.5752        2.2061      132.7768
    949.1220     5130.8179        2.2149      131.2648
    949.2744     5144.0659        2.2167      130.9494
    949.4268     5157.3140        2.2169      130.9178
    949.5792     5170.5625        2.2171      130.8711
    949.7316     5183.8105        2.2184      130.6505
    949.8840     5197.0591        2.2202      130.3428
    950.0364     5210.3071        2.2217      130.0776
    950.1888     5225.7891        2.2232      129.8249
    950.3412     5243.8169        2.2234      129.7831
    950.4937     5261.8452        2.2200      130.3773
    950.6461     5279.8730        2.2162      131.0249
    950.7985     5297.9014        2.2141      131.3876
    950.9508     5315.9219        2.2128      131.6094
    951.1032     5333.9502        2.2157      131.1115
    951.2556     5351.9780        2.2225      129.9251
    951.4080     5335.9756        2.2296      128.7064
    951.5604     5311.9570        2.2359      127.6226
    951.7128     5287.9390        2.2438      126.2530
    951.8652     5263.9209        2.2517      124.8800
    952.0176     5239.9028        2.2531      124.6450
    952.1700     5215.8848        2.2525      124.7435
    952.3224     5191.8667        2.2506      125.0581
    952.4749     5167.8481        2.2481      125.4983
    952.6273     5125.7437        2.2477      125.5736
    952.7797     5080.8560        2.2477      125.5736
    952.9320     5035.9854        2.2459      125.8850
    953.0844     4991.0977        2.2384      127.1852
    953.2368     4946.2095        2.2313      128.4090
    953.3892     4901.3208        2.2114      131.8607
    953.5416     4856.4331        2.1839      136.6208
    953.6940     4825.7471        2.1702      138.9784
    953.8464     4865.0952        2.1537      141.8419
    953.9988     4904.4434        2.1529      141.9910
    954.1512     4943.7915        2.1550      141.6251
    954.3036     4983.1387        2.1541      141.7905
    954.4561     5022.4863        2.1545      141.7179
    954.6085     5061.8345        2.1694      139.1390
    954.7609     5098.7534        2.1443      143.4684
    954.9132     5115.3799        2.1595      140.8306
    955.0656     5132.0127        2.2031      133.2895
    955.2180     5148.6455        2.2433      126.3229
    955.3704     5165.2788        2.2506      125.0745
    955.5228     5181.9116        2.2468      125.7359
    955.6752     5198.5439        2.2431      126.3800
    955.8276     5215.1772        2.2393      127.0240
    955.9800     5213.0688        2.2356      127.6680
    956.1324     5178.8901        2.2319      128.3120
    956.2849     5144.7114        2.2282      128.9561
    956.4373     5110.5327        2.2245      129.6001
    956.5897     5076.3540        2.2207      130.2440
    956.7421     5042.1753        2.2170      130.8879
    956.8944     5008.0103        2.2133      131.5319
    957.0468     4973.8315        2.2096      132.1758
    957.1992     4945.3701        2.2059      132.8196
    957.3516     4919.5200        2.2021      133.4638
    957.5040     4893.6694        2.1984      134.1080
    957.6564     4867.8193        2.1947      134.7520
    957.8088     4841.9692        2.1910      135.3959
    957.9612     4816.1196        2.1873      136.0286
    958.1136     4790.2690        2.1826      136.8454
    958.2661     4769.6675        2.1754      138.1009
    958.4185     4762.4082        2.1681      139.3484
    958.5709     4755.1479        2.1633      140.1826
    958.7232     4747.8916        2.1616      140.4834
    958.8756     4740.6318        2.1632      140.2101
    959.0280     4733.3721        2.1665      139.6359
    959.1804     4726.1123        2.1672      139.5086
    959.3328     4720.2236        2.1653      139.8427
    959.4852     4723.2104        2.1653      139.8385
    959.6376     4726.1973        2.1697      139.0806
    959.7900     4729.1846        2.1702      138.9950
    959.9424     4732.1714        2.1666      139.6192
    960.0948     4735.1587        2.1635      140.1486
    960.2473     4738.1450        2.1608      140.6277
    960.3997     4741.1328        2.1581      141.0853
    960.5521     4742.2871        2.1580      141.1118
    960.7044     4743.4072        2.1677      139.4199
    960.8568     4744.5273        2.1722      138.6458
    961.0092     4745.6479        2.1699      139.0494
    961.1616     4746.7681        2.1671      139.5212
    961.3140     4747.8887        2.1675      139.4617
    961.4664     4749.0088        2.1709      138.8666
    961.6188     4744.7383        2.1735      138.4169
    961.7712     4739.1943        2.1768      137.8437
    961.9236     4733.6509        2.1775      137.7308
    962.0760     4728.1069        2.1740      138.3412
    962.2285     4722.5630        2.1719      138.6897
    962.3809     4717.0195        2.1672      139.5089
    962.5333     4711.4756        2.1628      140.2657
    962.6856     4713.3335        2.1600      140.7627
    962.8380     4720.0244        2.1628      140.2844
    962.9904     4726.7163        2.1646      139.9617
    963.1428     4733.4072        2.1675      139.4521
    963.2952     4740.0981        2.1684      139.2946
    963.4476     4746.7900        2.1618      140.4454
    963.6000     4753.4810        2.1530      141.9672
    963.7524     4761.5498        2.1542      141.7508
    963.9048     4771.1113        2.1580      141.1014
    964.0573     4780.6733        2.1644      140.0012
    964.2097     4790.2344        2.1717      138.7291
    964.3621     4799.7969        2.1738      138.3630
    964.5145     4809.3579        2.1760      137.9910
