~Version Information Section
VERS.              2.0  : CWLS LOG ASCII STANDARD - VERSION 2.0
WRAP.              NO   : ONE LINE PER DEPTH STEP
CREA.              21-jan-2025
#
~Well Information Section
#MNEM.UNIT         VALUE/NAME          DESCRIPTION
#_________         __________          ___________
STRT.M             30.1500             : START DEPTH
STOP.M             1859.5500           : STOP DEPTH
STEP.M             0.1524              : STEP
NULL.              -999.2500           : NULL VALUE
COMP.                                  : COMPANY
WELL.              F03-4               : WELL NAME
FLD.                                   : FIELD
LOC.                                   : LOCATION
PROV.                                  : PROVINCE
CNTY.                                  : COUNTY
STAT.                                  : STATE
CTRY.                                  : COUNTRY
SRVC.                                  : SERVICE COMPANY
DATE.                                  : LOG DATE
UWI.                                   : UNIQUE WELL ID
XCOORD.M           623255.980          : SURFACE X
YCOORD.M           6082586.870         : SURFACE Y
#
~Curve Information Section
#MNEM.UNIT         API CODE            DESCRIPTION
#_________         ________            ___________
DEPT.M                                 : 0 Depth
AI.m/sxg/cc                            : 1 AI from well tie
RHOB.g/cc                              : 2 Density
DT.us/ft                               : 3 Sonic
#
~Parameter Information Section
#MNEM.UNIT           VALUE             DESCRIPTION
#_________         __________          ___________
EKB.M              34.1000             : Elevation Kelly Bushing
EGL.M              -999.25             : Elevation Ground Level
#
~Other Information Section
#
~Ascii Data Section
# ...
   1832.4325     5691.5356        2.3064      115.4033
   1832.5848     5627.6841        2.3054      115.5859
   1832.7373     5563.7817        2.3043      115.7688
   1832.8896     5499.9312        2.3028      116.0339
   1833.0420     5426.0635        2.3000      116.5119
   1833.1945     5351.6211        2.2981      116.8503
   1833.3468     5277.2383        2.2902      118.2177
   1833.4993     5202.7959        2.2635      122.8308
   1833.6516     5128.4131        2.2328      128.1576
   1833.8041     5053.9707        2.2079      132.4675
   1833.9564     4979.5879        2.1956      134.5902
   1834.1089     4905.1465        2.1943      134.8191
   1834.2612     4898.8716        2.1922      135.1870
   1834.4137     4893.0322        2.1878      135.9441
   1834.5660     4887.1973        2.1808      137.1515
   1834.7185     4881.3579        2.1764      137.9218
   1834.8708     4875.5225        2.1745      138.2431
   1835.0232     4869.6880        2.1726      138.5801
   1835.1757     4863.8481        2.1708      138.8876
   1835.3280     4870.4351        2.1695      139.1210
   1835.4805     4881.8535        2.1715      138.7710
   1835.6328     4893.2632        2.1797      137.3459
   1835.7853     4904.6816        2.1853      136.3817
   1835.9376     4916.0913        2.1864      136.1845
   1836.0901     4927.5098        2.1873      136.0207
   1836.2424     4938.9194        2.1898      135.5982
   1836.3949     4958.7642        2.1940      134.8608
   1836.5472     4990.9556        2.1957      134.5686
   1836.6997     5023.1729        2.1957      134.5686
   1836.8521     5055.3638        2.1957      134.5686
   1837.0044     5087.5552        2.1956      134.5809
   1837.1569     5119.7725        2.1951      134.6799
   1837.3092     5151.9639        2.1942      134.8280
   1837.4617     5184.1812        2.1933      134.9821
   1837.6140     5204.7061        2.1924      135.1363
   1837.7665     5225.0762        2.1916      135.2851
   1837.9188     5245.4302        2.1921      135.1991
   1838.0713     5265.8008        2.2124      131.6907
   1838.2236     5286.1543        2.2182      130.6671
   1838.3761     5306.5249        2.2541      124.4589
   1838.5284     5326.8789        2.2578      123.8337
   1838.6808     5334.9692        2.2549      124.3176
   1838.8333     5315.1362        2.2519      124.8523
   1838.9856     5295.3188        2.2455      125.9463
   1839.1381     5275.4863        2.2441      126.1947
   1839.2904     5255.6694        2.2391      127.0706
   1839.4429     5235.8364        2.2333      128.0726
   1839.5952     5216.0200        2.2320      128.2979
   1839.7477     5196.1870        2.2278      129.0149
   1839.9000     5185.8750        2.2271      129.1371
   1840.0525     5187.7471        2.2236      129.7507
   1840.2048     5189.6172        2.2217      130.0797
   1840.3573     5191.4883        2.2196      130.4396
   1840.5096     5193.3589        2.2183      130.6535
   1840.6620     5195.2295        2.2176      130.7725
   1840.8145     5197.1006        2.2120      131.7535
   1840.9668     5198.9712        2.2100      132.0906
   1841.1193     5203.2246        2.2086      132.3458
   1841.2716     5208.1284        2.2076      132.5218
   1841.4241     5213.0356        2.2061      132.7793
   1841.5764     5217.9395        2.2036      133.2026
   1841.7289     5222.8467        2.2069      132.6388
   1841.8812     5227.7505        2.2281      128.9636
   1842.0337     5232.6582        2.2389      127.0886
   1842.1860     5234.1582        2.2393      127.0216
   1842.3385     5214.9116        2.2397      126.9550
   1842.4908     5195.6807        2.2401      126.8790
   1842.6432     5176.4502        2.2403      126.8529
   1842.7957     5157.2036        2.2403      126.8529
   1842.9480     5137.9727        2.2403      126.8529
   1843.1005     5118.7261        2.2403      126.8529
   1843.2528     5099.4951        2.2310      128.4628
   1843.4053     5085.1309        2.2033      133.2563
   1843.5576     5077.0181        2.1864      136.1803
   1843.7101     5068.8989        2.1907      135.4344
   1843.8624     5060.7861        2.1952      134.6622
   1844.0149     5052.6670        2.1993      133.9645
   1844.1672     5044.5542        2.2060      132.7864
   1844.3197     5036.4341        2.2100      132.1038
   1844.4720     5028.3218        2.2081      132.4340
   1844.6244     5021.2876        2.2040      133.1466
   1844.7769     5014.2783        2.2012      133.6270
   1844.9292     5007.2749        2.1990      134.0112
   1845.0817     5000.2656        2.1936      134.9353
   1845.2340     4993.2617        2.1901      135.5462
   1845.3865     4986.2534        2.1900      135.5737
   1845.5388     4979.2500        2.1954      134.6231
   1845.6913     4972.3550        2.2080      132.4377
   1845.8436     4965.5635        2.2129      131.5930
   1845.9961     4958.7666        2.2098      132.1346
   1846.1484     4951.9751        2.2074      132.5542
   1846.3009     4945.1787        2.2062      132.7624
   1846.4532     4938.3867        2.2044      133.0587
   1846.6056     4931.5957        2.1982      134.1481
   1846.7581     4924.9790        2.1883      135.8532
   1846.9104     4927.9922        2.1848      136.4660
   1847.0629     4931.0068        2.1784      137.5671
   1847.2152     4934.0195        2.1760      137.9805
   1847.3677     4937.0347        2.1758      138.0172
   1847.5200     4940.0469        2.1738      138.3730
   1847.6725     4943.0620        2.1730      138.5052
   1847.8248     4946.0747        2.1912      135.3476
   1847.9773     4947.5444        2.2008      133.7025
   1848.1296     4948.4604        2.2026      133.3674
   1848.2821     4949.3774        2.2091      132.2500
   1848.4344     4950.2935        2.2075      132.5331
   1848.5868     4951.2095        2.2057      132.8411
   1848.7393     4952.1265        2.1965      134.4433
   1848.8916     4953.0425        2.1945      134.7804
   1849.0441     4952.4106        2.1921      135.1977
   1849.1964     4947.0684        2.1899      135.5701
   1849.3489     4941.7222        2.1874      136.0186
   1849.5012     4936.3804        2.1843      136.5420
   1849.6537     4931.0342        2.1851      136.4020
   1849.8060     4925.6924        2.1855      136.3351
   1849.9585     4920.3457        2.1885      135.8207
   1850.1108     4915.0044        2.1913      135.3486
   1850.2633     4902.0918        2.1929      135.0729
   1850.4156     4888.2886        2.2000      133.8223
   1850.5680     4874.4854        2.2026      133.3776
   1850.7205     4860.6709        2.2013      133.6059
   1850.8728     4846.8677        2.1954      134.6304
   1851.0253     4833.0527        2.1892      135.7078
   1851.1776     4819.2495        2.1849      136.4403
   1851.3301     4811.6431        2.1827      136.8225
   1851.4824     4811.1055        2.1791      137.4485
   1851.6349     4810.5674        2.1763      137.9309
   1851.7872     4810.0303        2.1726      138.5866
   1851.9397     4809.4922        2.1693      139.1396
   1852.0920     4808.9546        2.1680      139.3641
   1852.2445     4808.4170        2.1662      139.6840
   1852.3969     4808.2661        2.1647      139.9371
   1852.5492     4809.2324        2.1671      139.5247
   1852.7017     4810.1992        2.1749      138.1757
   1852.8540     4811.1660        2.1808      137.1434
   1853.0065     4812.1328        2.1837      136.6555
   1853.1588     4813.0996        2.1853      136.3711
   1853.3113     4814.0669        2.1849      136.4481
   1853.4636     4815.0332        2.1839      136.6162
   1853.6161     4811.1860        2.1820      136.9548
   1853.7684     4807.2402        2.1790      137.4700
   1853.9209     4803.2910        2.1771      137.8028
   1854.0732     4799.3452        2.1765      137.8940
   1854.2256     4795.3984        2.1755      138.0608
   1854.3781     4791.4492        2.1734      138.4309
   1854.5304     4787.5029        2.1711      138.8263
