~Version Information Section
VERS.              2.0  : CWLS LOG ASCII STANDARD - VERSION 2.0
WRAP.              NO   : ONE LINE PER DEPTH STEP
CREA.              21-jan-2025
#
~Well Information Section
#MNEM.UNIT         VALUE/NAME          DESCRIPTION
#_________         __________          ___________
STRT.M             30.1500             : START DEPTH
STOP.M             1859.5500           : STOP DEPTH
STEP.M             0.1524              : STEP
NULL.              -999.2500           : NULL VALUE
COMP.                                  : COMPANY
WELL.              F03-4               : WELL NAME
FLD.                                   : FIELD
LOC.                                   : LOCATION
PROV.                                  : PROVINCE
CNTY.                                  : COUNTY
STAT.                                  : STATE
CTRY.                                  : COUNTRY
SRVC.                                  : SERVICE COMPANY
DATE.                                  : LOG DATE
UWI.                                   : UNIQUE WELL ID
XCOORD.M           623255.980          : SURFACE X
YCOORD.M           6082586.870         : SURFACE Y
#
~Curve Information Section
#MNEM.UNIT         API CODE            DESCRIPTION
#_________         ________            ___________
DEPT.M                                 : 0 Depth
AI.m/sxg/cc                            : 1 AI from well tie
RHOB.g/cc                              : 2 Density
DT.us/ft                               : 3 Sonic
#
~Parameter Information Section
#MNEM.UNIT           VALUE             DESCRIPTION
#_________         __________          ___________
EKB.M              34.1000             : Elevation Kelly Bushing
EGL.M              -999.25             : Elevation Ground Level
#
~Other Information Section
#
~Ascii Data Section
# ...
   1476.4260     3797.3254        2.0328      162.7758
   1476.5785     3799.9929        2.0327      162.7919
   1476.7308     3802.6582        2.0327      162.7919
   1476.8833     3805.3259        2.0322      162.8785
   1477.0356     3807.9912        2.0317      162.9798
   1477.1880     3816.1433        2.0316      162.9944
   1477.3405     3826.4338        2.0320      162.9081
   1477.4928     3836.7161        2.0317      162.9805
   1477.6453     3847.0066        2.0320      162.9080
   1477.7976     3857.2888        2.0326      162.8072
   1477.9501     3867.5791        2.0337      162.6194
   1478.1024     3876.6956        2.0354      162.3331
   1478.2549     3884.9609        2.0361      162.1982
   1478.4072     3893.2197        2.0367      162.0928
   1478.5597     3901.4854        2.0381      161.8640
   1478.7120     3909.7439        2.0436      160.9095
   1478.8645     3918.0093        2.0518      159.4834
   1479.0168     3919.4448        2.0609      157.9180
   1479.1692     3909.1919        2.0633      157.4907
   1479.3217     3898.9309        2.0611      157.8759
   1479.4740     3888.6782        2.0593      158.1862
   1479.6265     3878.4170        2.0562      158.7182
   1479.7788     3868.1643        2.0556      158.8245
   1479.9313     3858.1665        2.0555      158.8495
   1480.0836     3853.3928        2.0502      159.7718
   1480.2361     3848.6150        2.0419      161.2080
   1480.3884     3843.8418        2.0353      162.3468
   1480.5409     3839.0642        2.0338      162.6121
   1480.6932     3834.2905        2.0336      162.6427
   1480.8457     3829.5132        2.0328      162.7760
   1480.9980     3842.5747        2.0323      162.8609
   1481.1504     3858.1658        2.0321      162.8934
   1481.3029     3873.7693        2.0321      162.8934
   1481.4552     3889.3601        2.0322      162.8761
   1481.6077     3904.9641        2.0333      162.6854
   1481.7600     3920.5552        2.0372      162.0196
   1481.9125     3925.8689        2.0435      160.9205
   1482.0648     3927.1914        2.0503      159.7529
   1482.2173     3928.5149        2.0575      158.4993
   1482.3696     3929.8379        2.0642      157.3394
   1482.5221     3931.1614        2.0668      156.8869
   1482.6744     3932.4839        2.0662      157.0032
   1482.8268     3924.5591        2.0625      157.6404
   1482.9792     3902.5029        2.0584      158.3524
   1483.1316     3880.4639        2.0589      158.2624
   1483.2841     3858.4075        2.0619      157.7358
   1483.4364     3836.3689        2.0606      157.9661
   1483.5889     3814.3123        2.0544      159.0439
   1483.7412     3793.5310        2.0451      160.6533
   1483.8937     3785.3730        2.0328      162.7765
   1484.0460     3777.2217        2.0204      164.9243
   1484.1985     3769.0640        2.0159      165.7078
   1484.3508     3760.9126        2.0157      165.7359
   1484.5033     3752.7544        2.0159      165.6952
   1484.6556     3745.1077        2.0177      165.3996
   1484.8080     3754.4429        2.0197      165.0566
   1484.9604     3763.7856        2.0215      164.7402
   1485.1128     3773.1211        2.0230      164.4641
   1485.2653     3782.4639        2.0243      164.2415
   1485.4176     3791.7993        2.0259      163.9685
   1485.5701     3801.1421        2.0265      163.8648
   1485.7224     3804.1372        2.0282      163.5646
   1485.8749     3806.7629        2.0296      163.3331
   1486.0272     3809.3867        2.0308      163.1275
   1486.1797     3812.0125        2.0336      162.6346
   1486.3320     3814.6367        2.0344      162.4982
   1486.4845     3817.2625        2.0375      161.9672
   1486.6368     3814.6787        2.0390      161.7074
   1486.7892     3810.8354        2.0400      161.5262
   1486.9417     3806.9895        2.0399      161.5636
   1487.0940     3803.1462        2.0372      162.0064
   1487.2465     3799.3003        2.0343      162.5125
   1487.3988     3795.4570        2.0329      162.7607
   1487.5513     3792.8586        2.0318      162.9655
   1487.7036     3790.9893        2.0296      163.3313
   1487.8561     3789.1182        2.0292      163.4012
   1488.0084     3787.2488        2.0292      163.4056
   1488.1609     3785.3777        2.0288      163.4758
   1488.3132     3783.5081        2.0291      163.4231
   1488.4657     3782.2144        2.0292      163.4089
   1488.6180     3781.4792        2.0287      163.4782
   1488.7704     3780.7439        2.0285      163.5215
   1488.9229     3780.0083        2.0278      163.6532
   1489.0752     3779.2734        2.0276      163.6943
   1489.2277     3778.5376        2.0279      163.6196
   1489.3800     3776.8801        2.0287      163.4926
   1489.5325     3773.7937        2.0299      163.2880
   1489.6848     3770.7100        2.0301      163.2454
   1489.8373     3767.6235        2.0291      163.4242
   1489.9896     3764.5398        2.0278      163.6467
   1490.1421     3761.4531        2.0271      163.7756
   1490.2944     3756.3167        2.0269      163.8071
   1490.4469     3745.8635        2.0269      163.8071
   1490.5992     3735.4189        2.0270      163.7903
   1490.7516     3724.9744        2.0272      163.7556
   1490.9041     3714.5210        2.0268      163.8257
   1491.0564     3704.0767        2.0252      164.0985
   1491.2089     3693.4746        2.0225      164.5742
   1491.3612     3682.1973        2.0190      165.1648
   1491.5137     3670.9106        2.0162      165.6544
   1491.6660     3659.6335        2.0138      166.0800
   1491.8185     3648.3467        2.0106      166.6196
   1491.9708     3637.0696        2.0081      167.0580
   1492.1233     3628.2117        2.0060      167.4144
   1492.2756     3631.7209        2.0033      167.8887
   1492.4281     3635.2324        2.0005      168.3632
   1492.5804     3638.7417        1.9978      168.8296
   1492.7328     3642.2505        1.9945      169.4072
   1492.8853     3645.7620        1.9932      169.6344
   1493.0376     3650.7388        1.9950      169.3253
   1493.1901     3660.4021        1.9986      168.7088
   1493.3424     3670.0581        2.0036      167.8394
   1493.4949     3679.7217        2.0069      167.2615
   1493.6472     3689.3774        2.0081      167.0598
   1493.7997     3699.0413        2.0096      166.8047
   1493.9520     3706.4292        2.0136      166.1184
   1494.1045     3707.5090        2.0173      165.4675
   1494.2568     3708.5879        2.0189      165.1862
   1494.4093     3709.6680        2.0187      165.2273
   1494.5616     3710.7468        2.0173      165.4700
   1494.7140     3711.8257        2.0165      165.6030
   1494.8665     3712.8608        2.0172      165.4890
   1495.0188     3713.7385        2.0185      165.2585
   1495.1713     3714.6169        2.0199      165.0140
   1495.3236     3715.4946        2.0208      164.8531
   1495.4761     3716.3730        2.0175      165.4206
   1495.6284     3717.2507        2.0159      165.7054
   1495.7809     3718.0347        2.0122      166.3411
   1495.9332     3718.3738        2.0116      166.4449
   1496.0857     3718.7131        2.0151      165.8392
   1496.2380     3719.0525        2.0163      165.6409
   1496.3905     3719.3918        2.0173      165.4597
   1496.5428     3719.7312        2.0205      164.9128
   1496.6952     3719.5635        2.0215      164.7377
   1496.8477     3716.0667        2.0216      164.7208
   1497.0000     3712.5728        2.0216      164.7206
   1497.1525     3709.0759        2.0216      164.7206
   1497.3048     3705.5820        2.0216      164.7258
   1497.4573     3702.0854        2.0204      164.9204
   1497.6096     3698.7273        2.0161      165.6682
   1497.7621     3697.2080        2.0136      166.1082
   1497.9144     3695.6899        2.0110      166.5503
   1498.0669     3694.1702        2.0095      166.8136
   1498.2192     3692.6521        2.0091      166.8927
   1498.3716     3691.1338        2.0105      166.6410
   1498.5240     3689.4766        2.0115      166.4624
