~Version Information Section
VERS.              2.0  : CWLS LOG ASCII STANDARD - VERSION 2.0
WRAP.              NO   : ONE LINE PER DEPTH STEP
CREA.              21-jan-2025
#
~Well Information Section
#MNEM.UNIT         VALUE/NAME          DESCRIPTION
#_________         __________          ___________
STRT.M             30.1500             : START DEPTH
STOP.M             1859.5500           : STOP DEPTH
STEP.M             0.1524              : STEP
NULL.              -999.2500           : NULL VALUE
COMP.                                  : COMPANY
WELL.              F03-4               : WELL NAME
FLD.                                   : FIELD
LOC.                                   : LOCATION
PROV.                                  : PROVINCE
CNTY.                                  : COUNTY
STAT.                                  : STATE
CTRY.                                  : COUNTRY
SRVC.                                  : SERVICE COMPANY
DATE.                                  : LOG DATE
UWI.                                   : UNIQUE WELL ID
XCOORD.M           623255.980          : SURFACE X
YCOORD.M           6082586.870         : SURFACE Y
#
~Curve Information Section
#MNEM.UNIT         API CODE            DESCRIPTION
#_________         ________            ___________
DEPT.M                                 : 0 Depth
AI.m/sxg/cc                            : 1 AI from well tie
RHOB.g/cc                              : 2 Density
DT.us/ft                               : 3 Sonic
#
~Parameter Information Section
#MNEM.UNIT           VALUE             DESCRIPTION
#_________         __________          ___________
EKB.M              34.1000             : Elevation Kelly Bushing
EGL.M              -999.25             : Elevation Ground Level
#
~Other Information Section
#
~Ascii Data Section
# ...
   1298.4229     4352.5215        2.0847      153.7896
   1298.5752     4397.2285        2.0989      151.3327
   1298.7277     4441.9717        2.1133      148.8380
   1298.8800     4484.2432        2.1245      146.8971
   1299.0325     4520.2446        2.1340      145.2488
   1299.1848     4556.2173        2.1431      143.6844
   1299.3373     4592.2188        2.1494      142.5951
   1299.4896     4628.1914        2.1515      142.2387
   1299.6421     4664.1924        2.1508      142.3544
   1299.7944     4700.1650        2.1471      142.9909
   1299.9469     4728.0156        2.1432      143.6656
   1300.0992     4736.8628        2.1420      143.8734
   1300.2516     4745.7104        2.1445      143.4336
   1300.4041     4754.5649        2.1565      141.3602
   1300.5564     4763.4116        2.1729      138.5316
   1300.7089     4772.2661        2.1819      136.9619
   1300.8612     4781.1138        2.1866      136.1564
   1301.0137     4784.0669        2.1893      135.6854
   1301.1660     4751.5391        2.1893      135.6854
   1301.3185     4718.9858        2.1893      135.6854
   1301.4708     4686.4580        2.1893      135.6854
   1301.6233     4653.9043        2.1834      136.7097
   1301.7756     4621.3770        2.1654      139.8139
   1301.9281     4588.8232        2.1547      141.6642
   1302.0804     4556.2954        2.1579      141.1179
   1302.2328     4516.8657        2.1600      140.7615
   1302.3853     4477.0674        2.1598      140.7920
   1302.5376     4437.3013        2.1591      140.9172
   1302.6901     4397.5039        2.1545      141.7005
   1302.8424     4357.7373        2.1387      144.4508
   1302.9949     4317.9395        2.1298      145.9888
   1303.1472     4278.1733        2.1282      146.2674
   1303.2997     4253.9927        2.1263      146.6053
   1303.4520     4230.4683        2.1224      147.2633
   1303.6045     4206.9258        2.1089      149.5966
   1303.7568     4183.4014        2.0926      152.4174
   1303.9092     4159.8770        2.0837      153.9727
   1304.0616     4136.3345        2.0820      154.2642
   1304.2140     4123.9775        2.0816      154.3304
   1304.3665     4133.3315        2.0763      155.2381
   1304.5188     4142.6772        2.0739      155.6682
   1304.6713     4152.0312        2.0705      156.2553
   1304.8236     4161.3779        2.0721      155.9679
   1304.9761     4170.7314        2.0776      155.0336
   1305.1284     4180.0776        2.0855      153.6647
   1305.2809     4180.6543        2.0909      152.7161
   1305.4332     4180.2383        2.0960      151.8525
   1305.5857     4179.8218        2.1009      150.9889
   1305.7380     4179.4053        2.1044      150.3894
   1305.8904     4178.9893        2.1068      149.9605
   1306.0428     4178.5728        2.1057      150.1599
   1306.1952     4173.0034        2.1010      150.9808
   1306.3477     4153.8218        2.0977      151.5469
   1306.5000     4134.6548        2.0892      153.0026
   1306.6525     4115.4736        2.0859      153.5891
   1306.8048     4096.3066        2.0851      153.7277
   1306.9573     4077.1250        2.0869      153.4155
   1307.1096     4057.9585        2.0882      153.1774
   1307.2621     4044.3760        2.0824      154.1832
   1307.4144     4032.7805        2.0793      154.7320
   1307.5669     4021.1755        2.0768      155.1648
   1307.7192     4009.5798        2.0721      155.9638
   1307.8716     3997.9846        2.0692      156.4753
   1308.0240     3986.3796        2.0637      157.4246
   1308.1764     3979.0188        2.0595      158.1446
   1308.3289     3980.4102        2.0572      158.5649
   1308.4812     3981.8003        2.0581      158.4007
   1308.6337     3983.1912        2.0634      157.4923
   1308.7860     3984.5815        2.0658      157.0649
   1308.9385     3985.9724        2.0628      157.5785
   1309.0908     3987.3625        2.0567      158.6422
   1309.2433     4006.2996        2.0517      159.5105
   1309.3956     4025.2917        2.0532      159.2431
   1309.5481     4044.2988        2.0577      158.4693
   1309.7004     4063.2910        2.0606      157.9648
   1309.8528     4082.2832        2.0621      157.6974
   1310.0052     4101.2905        2.0642      157.3310
   1310.1576     4119.1294        2.0686      156.5737
   1310.3101     4136.4355        2.0736      155.7201
   1310.4624     4153.7275        2.0780      154.9524
   1310.6149     4171.0342        2.0830      154.0862
   1310.7672     4188.3262        2.0881      153.1926
   1310.9197     4205.6323        2.0924      152.4649
   1311.0720     4221.2129        2.0962      151.8054
   1311.2245     4229.4209        2.0995      151.2316
   1311.3768     4237.6221        2.1010      150.9775
   1311.5293     4245.8296        2.0999      151.1538
   1311.6816     4254.0303        2.0981      151.4798
   1311.8340     4262.2319        2.0981      151.4773
   1311.9865     4270.4395        2.1002      151.1118
   1312.1388     4270.1543        2.1030      150.6310
   1312.2913     4263.4341        2.1061      150.0818
   1312.4436     4256.7183        2.1082      149.7282
   1312.5961     4249.9980        2.1094      149.5128
   1312.7484     4243.2832        2.1111      149.2137
   1312.9009     4236.5625        2.1134      148.8279
   1313.0532     4229.8472        2.1135      148.7956
   1313.2057     4215.3433        2.1113      149.1859
   1313.3580     4199.7900        2.1060      150.1059
   1313.5105     4184.2236        2.1001      151.1337
   1313.6628     4168.6704        2.0913      152.6491
   1313.8152     4153.1167        2.0880      153.2154
   1313.9677     4137.5508        2.0870      153.4032
   1314.1200     4126.4531        2.0876      153.2849
   1314.2725     4126.1372        2.0883      153.1719
   1314.4248     4125.8208        2.0860      153.5713
   1314.5773     4125.5049        2.0840      153.9133
   1314.7296     4125.1885        2.0817      154.3049
   1314.8821     4124.8721        2.0799      154.6244
   1315.0344     4124.5562        2.0794      154.7022
   1315.1869     4131.0908        2.0792      154.7349
   1315.3392     4139.3169        2.0791      154.7667
   1315.4917     4147.5498        2.0830      154.0773
   1315.6440     4155.7754        2.0862      153.5299
   1315.7964     4164.0015        2.0876      153.2805
   1315.9489     4172.2339        2.0858      153.5940
   1316.1012     4178.3325        2.0850      153.7390
   1316.2537     4179.5918        2.0860      153.5698
   1316.4060     4180.8496        2.0908      152.7504
   1316.5585     4182.1084        2.0999      151.1657
   1316.7108     4183.3657        2.1023      150.7485
   1316.8633     4184.6245        2.1007      151.0159
   1317.0156     4185.8823        2.0958      151.8672
   1317.1681     4199.0557        2.0908      152.7345
   1317.3204     4216.7617        2.0893      153.0011
   1317.4729     4234.4824        2.0900      152.8842
   1317.6252     4252.1885        2.0904      152.8023
   1317.7776     4269.8950        2.0890      153.0469
   1317.9301     4287.6152        2.0864      153.5046
   1318.0824     4305.0679        2.0872      153.3729
   1318.2349     4321.4678        2.0908      152.7494
   1318.3872     4337.8550        2.0955      151.9362
   1318.5397     4354.2554        2.1023      150.7436
   1318.6920     4370.6426        2.1098      149.4571
   1318.8445     4387.0425        2.1160      148.3681
   1318.9968     4403.4292        2.1224      147.2626
   1319.1493     4404.9307        2.1301      145.9283
   1319.3016     4392.7993        2.1389      144.4149
   1319.4540     4380.6680        2.1435      143.6201
   1319.6064     4368.5269        2.1445      143.4489
   1319.7588     4356.3960        2.1443      143.4801
   1319.9113     4344.2544        2.1379      144.5923
   1320.0636     4332.1230        2.1264      146.5673
   1320.2161     4321.8667        2.1152      148.5095
   1320.3684     4312.8628        2.1064      150.0381
   1320.5209     4303.8516        2.1025      150.7096
