~Version Information Section
VERS.              2.0  : CWLS LOG ASCII STANDARD - VERSION 2.0
WRAP.              NO   : ONE LINE PER DEPTH STEP
CREA.              21-jan-2025
#
~Well Information Section
#MNEM.UNIT         VALUE/NAME          DESCRIPTION
#_________         __________          ___________
STRT.M             30.1500             : START DEPTH
STOP.M             1859.5500           : STOP DEPTH
STEP.M             0.1524              : STEP
NULL.              -999.2500           : NULL VALUE
COMP.                                  : COMPANY
WELL.              F03-4               : WELL NAME
FLD.                                   : FIELD
LOC.                                   : LOCATION
PROV.                                  : PROVINCE
CNTY.                                  : COUNTY
STAT.                                  : STATE
CTRY.                                  : COUNTRY
SRVC.                                  : SERVICE COMPANY
DATE.                                  : LOG DATE
UWI.                                   : UNIQUE WELL ID
XCOORD.M           623255.980          : SURFACE X
YCOORD.M           6082586.870         : SURFACE Y
#
~Curve Information Section
#MNEM.UNIT         API CODE            DESCRIPTION
#_________         ________            ___________
DEPT.M                                 : 0 Depth
AI.m/sxg/cc                            : 1 AI from well tie
RHOB.g/cc                              : 2 Density
DT.us/ft                               : 3 Sonic
#
~Parameter Information Section
#MNEM.UNIT           VALUE             DESCRIPTION
#_________         __________          ___________
EKB.M              34.1000             : Elevation Kelly Bushing
EGL.M              -999.25             : Elevation Ground Level
#
~Other Information Section
#
~Ascii Data Section
# ...
    675.4116     4764.6069        2.1707      138.8959
    675.5640     4768.3838        2.1720      138.6793
    675.7164     4771.7646        2.1739      138.3499
    675.8688     4767.2520        2.1743      138.2740
    676.0212     4762.7388        2.1743      138.2740
    676.1736     4758.2256        2.1743      138.2748
    676.3260     4753.7124        2.1739      138.3510
    676.4785     4749.1992        2.1724      138.5983
    676.6309     4744.6865        2.1718      138.7171
    676.7832     4740.1748        2.1717      138.7307
    676.9356     4736.6387        2.1690      139.1991
    677.0880     4733.3091        2.1681      139.3548
    677.2404     4729.9800        2.1676      139.4482
    677.3928     4726.6504        2.1670      139.5395
    677.5452     4723.3213        2.1660      139.7085
    677.6976     4719.9922        2.1645      139.9689
    677.8500     4716.6626        2.1643      140.0102
    678.0024     4716.8335        2.1643      140.0102
    678.1548     4718.7715        2.1643      140.0102
    678.3073     4720.7104        2.1643      140.0102
    678.4597     4722.6489        2.1643      140.0102
    678.6121     4724.5869        2.1643      140.0102
    678.7644     4726.5244        2.1643      140.0102
    678.9168     4728.4634        2.1643      140.0102
    679.0692     4732.7202        2.1643      140.0020
    679.2216     4739.1157        2.1647      139.9329
    679.3740     4745.5107        2.1653      139.8415
    679.5264     4751.9062        2.1659      139.7396
    679.6788     4758.3018        2.1666      139.6040
    679.8312     4764.6968        2.1670      139.5414
    679.9836     4771.0923        2.1675      139.4637
    680.1360     4775.4312        2.1683      139.3206
    680.2885     4776.0972        2.1690      139.2020
    680.4409     4776.7627        2.1705      138.9434
    680.5933     4777.4282        2.1743      138.2803
    680.7456     4778.0938        2.1764      137.9086
    680.8980     4778.7588        2.1763      137.9236
    681.0504     4779.4243        2.1760      137.9857
    681.2028     4779.3062        2.1756      138.0616
    681.3552     4773.9160        2.1753      138.1071
    681.5076     4768.5259        2.1749      138.1841
    681.6600     4763.1357        2.1740      138.3366
    681.8124     4757.7461        2.1727      138.5509
    681.9648     4752.3555        2.1713      138.7925
    682.1172     4746.9648        2.1705      138.9295
    682.2697     4741.5747        2.1703      138.9749
    682.4221     4737.1748        2.1698      139.0514
    682.5745     4732.8667        2.1689      139.2202
    682.7268     4728.5615        2.1678      139.4026
    682.8792     4724.2534        2.1673      139.4911
    683.0316     4719.9458        2.1668      139.5866
    683.1840     4715.6387        2.1663      139.6586
    683.3364     4711.3315        2.1660      139.7212
    683.4888     4711.1265        2.1654      139.8256
    683.6412     4712.3564        2.1645      139.9806
    683.7936     4713.5869        2.1634      140.1633
    683.9460     4714.8174        2.1625      140.3236
    684.0984     4716.0479        2.1622      140.3756
    684.2509     4717.2783        2.1622      140.3756
    684.4033     4718.5083        2.1623      140.3576
    684.5556     4719.4575        2.1630      140.2393
    684.7080     4720.2261        2.1634      140.1781
    684.8604     4720.9951        2.1641      140.0530
    685.0128     4721.7632        2.1644      139.9882
    685.1652     4722.5322        2.1660      139.7227
    685.3176     4723.3003        2.1664      139.6411
    685.4700     4724.0684        2.1669      139.5589
    685.6224     4723.1016        2.1691      139.1777
    685.7748     4720.0840        2.1696      139.0964
    685.9272     4717.0669        2.1696      139.0964
    686.0797     4714.0503        2.1678      139.4073
    686.2321     4711.0327        2.1670      139.5390
    686.3845     4708.0161        2.1665      139.6311
    686.5368     4705.0000        2.1655      139.8003
    686.6892     4703.2236        2.1627      140.2946
    686.8416     4704.4399        2.1622      140.3732
    686.9940     4705.6567        2.1622      140.3756
    687.1464     4706.8721        2.1622      140.3756
    687.2988     4708.0889        2.1622      140.3756
    687.4512     4709.3052        2.1622      140.3756
    687.6036     4710.5215        2.1622      140.3756
    687.7560     4711.8960        2.1622      140.3756
    687.9084     4714.1235        2.1622      140.3757
    688.0609     4716.3501        2.1623      140.3555
    688.2133     4718.5771        2.1638      140.0899
    688.3657     4720.8047        2.1643      140.0102
    688.5180     4723.0308        2.1643      140.0024
    688.6704     4725.2583        2.1649      139.9068
    688.8228     4727.4346        2.1664      139.6379
    688.9752     4725.8159        2.1674      139.4760
    689.1276     4724.1973        2.1679      139.3846
    689.2800     4722.5796        2.1684      139.2933
    689.4324     4720.9609        2.1691      139.1776
    689.5848     4719.3428        2.1696      139.0964
    689.7372     4717.7246        2.1676      139.4382
    689.8896     4716.1064        2.1660      139.7218
    690.0421     4714.0322        2.1655      139.8132
    690.1945     4711.8701        2.1648      139.9335
    690.3469     4709.7075        2.1638      140.1055
    690.4992     4707.5459        2.1633      140.1931
    690.6516     4705.3838        2.1633      140.1931
    690.8040     4703.2212        2.1633      140.1931
    690.9564     4701.0586        2.1633      140.1931
    691.1088     4702.8081        2.1633      140.1931
    691.2612     4706.2378        2.1631      140.2247
    691.4136     4709.6665        2.1626      140.3151
    691.5660     4713.0952        2.1616      140.4702
    691.7184     4716.5254        2.1598      140.7897
    691.8708     4719.9541        2.1578      141.1233
    692.0233     4723.3828        2.1587      140.9829
    692.1757     4724.7920        2.1633      140.1791
    692.3280     4724.7915        2.1667      139.5855
    692.4804     4724.7910        2.1680      139.3669
    692.6328     4724.7910        2.1693      139.1540
    692.7852     4724.7900        2.1696      139.0964
    692.9376     4724.7900        2.1696      139.0964
    693.0900     4724.7896        2.1696      139.0964
    693.2424     4721.6143        2.1695      139.1208
    693.3948     4713.8057        2.1688      139.2381
    693.5472     4705.9961        2.1680      139.3776
    693.6996     4698.1865        2.1667      139.5901
    693.8521     4690.3774        2.1656      139.7883
    694.0045     4682.5679        2.1649      139.9126
    694.1569     4674.7583        2.1640      140.0640
    694.3092     4667.3037        2.1633      140.1849
    694.4616     4660.9238        2.1624      140.3458
    694.6140     4654.5444        2.1612      140.5384
    694.7664     4648.1646        2.1594      140.8521
    694.9188     4641.7847        2.1586      141.0031
    695.0712     4635.4053        2.1575      141.1752
    695.2236     4629.0254        2.1548      141.6523
    695.3760     4624.3428        2.1543      141.7463
    695.5284     4628.6382        2.1525      142.0567
    695.6808     4632.9336        2.1517      142.1890
    695.8333     4637.2290        2.1503      142.4366
    695.9857     4641.5249        2.1501      142.4762
    696.1381     4645.8203        2.1501      142.4772
    696.2904     4650.1138        2.1501      142.4772
    696.4428     4655.2383        2.1501      142.4772
    696.5952     4665.9824        2.1519      142.1659
    696.7476     4676.7261        2.1558      141.4907
    696.9000     4687.4702        2.1578      141.1483
    697.0524     4698.2144        2.1588      140.9527
    697.2048     4708.9580        2.1595      140.8417
    697.3572     4719.7017        2.1608      140.6070
    697.5096     4730.2104        2.1616      140.4808
