~Version Information Section
VERS.              2.0  : CWLS LOG ASCII STANDARD - VERSION 2.0
WRAP.              NO   : ONE LINE PER DEPTH STEP
CREA.              21-jan-2025
#
~Well Information Section
#MNEM.UNIT         VALUE/NAME          DESCRIPTION
#_________         __________          ___________
STRT.M             30.1500             : START DEPTH
STOP.M             1859.5500           : STOP DEPTH
STEP.M             0.1524              : STEP
NULL.              -999.2500           : NULL VALUE
COMP.                                  : COMPANY
WELL.              F03-4               : WELL NAME
FLD.                                   : FIELD
LOC.                                   : LOCATION
PROV.                                  : PROVINCE
CNTY.                                  : COUNTY
STAT.                                  : STATE
CTRY.                                  : COUNTRY
SRVC.                                  : SERVICE COMPANY
DATE.                                  : LOG DATE
UWI.                                   : UNIQUE WELL ID
XCOORD.M           623255.980          : SURFACE X
YCOORD.M           6082586.870         : SURFACE Y
#
~Curve Information Section
#MNEM.UNIT         API CODE            DESCRIPTION
#_________         ________            ___________
DEPT.M                                 : 0 Depth
AI.m/sxg/cc                            : 1 AI from well tie
RHOB.g/cc                              : 2 Density
DT.us/ft                               : 3 Sonic
#
~Parameter Information Section
#MNEM.UNIT           VALUE             DESCRIPTION
#_________         __________          ___________
EKB.M              34.1000             : Elevation Kelly Bushing
EGL.M              -999.25             : Elevation Ground Level
#
~Other Information Section
#
~Ascii Data Section
# ...
    497.4084     -999.2500        2.1452     -999.2500
    497.5608     -999.2500        2.1452     -999.2500
    497.7132     -999.2500        2.1453     -999.2500
    497.8656     -999.2500        2.1453     -999.2500
    498.0180     -999.2500        2.1453     -999.2500
    498.1704     -999.2500        2.1453     -999.2500
    498.3228     -999.2500        2.1454     -999.2500
    498.4752     -999.2500        2.1454     -999.2500
    498.6276     -999.2500        2.1454     -999.2500
    498.7800     -999.2500        2.1454     -999.2500
    498.9324     -999.2500        2.1454     -999.2500
    499.0848     -999.2500        2.1455     -999.2500
    499.2372     -999.2500        2.1455     -999.2500
    499.3896     -999.2500        2.1455     -999.2500
    499.5420     -999.2500        2.1455     -999.2500
    499.6944     -999.2500        2.1456     -999.2500
    499.8468     -999.2500        2.1395     -999.2500
    499.9992     -999.2500        2.1200     -999.2500
    500.1516     -999.2500        2.1078     -999.2500
    500.3040     -999.2500        2.1078     -999.2500
    500.4564     -999.2500        2.1078     -999.2500
    500.6088     -999.2500        2.1078     -999.2500
    500.7612     -999.2500        2.1078     -999.2500
    500.9136     -999.2500        2.1078     -999.2500
    501.0660     -999.2500        2.1078     -999.2500
    501.2184     -999.2500        2.1078     -999.2500
    501.3708     -999.2500        2.1078     -999.2500
    501.5232     -999.2500        2.1078     -999.2500
    501.6756     -999.2500        2.1078     -999.2500
    501.8280     -999.2500        2.1078     -999.2500
    501.9804     -999.2500        2.1079     -999.2500
    502.1328     -999.2500        2.1085     -999.2500
    502.2852     -999.2500        2.1097     -999.2500
    502.4376     -999.2500        2.1109     -999.2500
    502.5900     -999.2500        2.1127      148.9344
    502.7424     -999.2500        2.1138      148.7412
    502.8948     4390.5972        2.1154      148.4753
    503.0472     4378.4678        2.1183      147.9666
    503.1996     4366.3413        2.1196      147.7438
    503.3520     4354.2124        2.1204      147.6175
    503.5044     4342.0830        2.1220      147.3326
    503.6568     4329.9546        2.1318      145.6377
    503.8092     4317.8247        2.1395      144.3005
    503.9616     4297.6558        2.1393      144.3382
    504.1140     4275.3276        2.1324      145.5330
    504.2664     4253.0039        2.1218      147.3625
    504.4188     4230.6758        2.1122      149.0325
    504.5712     4208.3477        2.1030      150.6250
    504.7236     4186.0195        2.0938      152.2152
    504.8760     4164.6719        2.0866      153.4687
    505.0284     4154.2534        2.0865      153.4824
    505.1808     4143.8369        2.0862      153.5384
    505.3332     4133.4185        2.0864      153.5044
    505.4856     4122.9995        2.0867      153.4335
    505.6380     4112.5811        2.0872      153.3601
    505.7904     4102.1626        2.0877      153.2636
    505.9428     4115.8687        2.0848      153.7687
    506.0952     4148.1279        2.0852      153.7086
    506.2476     4180.3813        2.0864      153.5030
    506.4000     4212.6401        2.0876      153.2885
    506.5524     4244.8999        2.1045      150.3605
    506.7048     4277.1587        2.0801      154.5994
    506.8572     4310.1943        2.0621      157.7077
    507.0096     4355.4595        2.0480      160.1502
    507.1620     4400.7158        2.0418      161.2267
    507.3144     4445.9810        2.0938      152.2228
    507.4668     4491.2461        2.1252      146.7835
    507.6192     4536.5117        2.1419      143.8866
    507.7716     4581.7769        2.1485      142.7384
    507.9240     4612.6152        2.1497      142.5469
    508.0764     4623.3394        2.1501      142.4748
    508.2288     4634.0659        2.1512      142.2821
    508.3812     4644.7920        2.1529      141.9881
    508.5336     4655.5186        2.1547      141.6697
    508.6860     4666.2451        2.1565      141.3628
    508.8384     4676.9712        2.1569      141.2872
    508.9908     4686.4292        2.1553      141.5668
    509.1432     4693.6958        2.1576      141.1748
    509.2956     4700.9639        2.1601      140.7452
    509.4480     4708.2324        2.1607      140.6426
    509.6004     4715.5000        2.1618      140.4371
    509.7528     4722.7686        2.1630      140.2355
    509.9052     4730.0371        2.1641      140.0494
    510.0576     4736.6821        2.1650      139.8968
    510.2100     4741.4595        2.1658      139.7455
    510.3624     4746.2373        2.1666      139.6096
    510.5148     4751.0142        2.1672      139.5091
    510.6672     4755.7915        2.1676      139.4417
    510.8196     4760.5693        2.1680      139.3723
    510.9720     4765.3457        2.1692      139.1518
    511.1244     4769.5112        2.1703      138.9671
    511.2768     4766.5166        2.1706      138.9174
    511.4292     4763.5215        2.1709      138.8651
    511.5816     4760.5269        2.1714      138.7847
    511.7340     4757.5322        2.1724      138.6077
    511.8864     4754.5371        2.1734      138.4428
    512.0388     4751.5425        2.1739      138.3413
    512.1912     4748.5474        2.1745      138.2398
    512.3436     4725.5894        2.1750      138.1513
    512.4960     4699.3882        2.1745      138.2342
    512.6484     4673.1865        2.1712      138.8054
    512.8008     4646.9854        2.1690      139.2056
    512.9532     4620.7939        2.1679      139.3985
    513.1056     4594.5923        2.1669      139.5542
    513.2580     4568.3911        2.1652      139.8582
    513.4104     4544.7773        2.1640      140.0771
    513.5628     4522.4106        2.1609      140.6082
    513.7152     4500.0435        2.1582      141.0757
    513.8676     4477.6768        2.1371      144.7238
    514.0200     4455.3101        2.1254      146.7411
    514.1724     4432.9429        2.1239      147.0002
    514.3248     4410.5762        2.1239      147.0002
    514.4772     4407.4575        2.1239      147.0002
    514.6296     4406.7891        2.1239      147.0002
    514.7820     4406.1206        2.1239      147.0002
    514.9344     4405.4521        2.1239      147.0002
    515.0868     4404.7842        2.1239      147.0002
    515.2392     4404.1157        2.1239      147.0002
    515.3916     4403.8359        2.1239      147.0002
    515.5440     4403.8359        2.1239      147.0002
    515.6964     4403.8359        2.1239      147.0002
    515.8488     4403.8359        2.1239      147.0002
    516.0012     4403.8359        2.1239      147.0002
    516.1536     4403.8359        2.1239      147.0002
    516.3060     4403.8359        2.1239      147.0002
    516.4584     4403.8359        2.1239      147.0002
    516.6108     4403.8359        2.1239      147.0002
    516.7632     4403.8359        2.1239      147.0002
    516.9156     4403.8359        2.1239      147.0002
    517.0680     4403.8359        2.1239      147.0002
    517.2204     4403.8359        2.1239      147.0002
    517.3728     4403.8359        2.1239      147.0002
    517.5252     4403.8359        2.1239      147.0002
    517.6776     4403.8359        2.1239      147.0002
    517.8300     4403.8359        2.1239      147.0002
    517.9824     4403.8359        2.1239      147.0002
    518.1348     4403.8359        2.1239      147.0002
    518.2872     4403.8359        2.1239      147.0002
    518.4396     4403.8359        2.1239      147.0002
    518.5920     4403.8359        2.1239      147.0002
    518.7444     4403.8359        2.1239      147.0002
    518.8968     4403.8359        2.1239      147.0002
    519.0492     4403.8359        2.1239      147.0002
    519.2016     4403.8359        2.1239      147.0002
    519.3540     4403.8359        2.1239      147.0002
    519.5064     4403.8359        2.1239      147.0002
