~Version Information Section
VERS.              2.0  : CWLS LOG ASCII STANDARD - VERSION 2.0
WRAP.              NO   : ONE LINE PER DEPTH STEP
CREA.              21-jan-2025
#
~Well Information Section
#MNEM.UNIT         VALUE/NAME          DESCRIPTION
#_________         __________          ___________
STRT.M             30.1500             : START DEPTH
STOP.M             1859.5500           : STOP DEPTH
STEP.M             0.1524              : STEP
NULL.              -999.2500           : NULL VALUE
COMP.                                  : COMPANY
WELL.              F03-4               : WELL NAME
FLD.                                   : FIELD
LOC.                                   : LOCATION
PROV.                                  : PROVINCE
CNTY.                                  : COUNTY
STAT.                                  : STATE
CTRY.                                  : COUNTRY
SRVC.                                  : SERVICE COMPANY
DATE.                                  : LOG DATE
UWI.                                   : UNIQUE WELL ID
XCOORD.M           623255.980          : SURFACE X
YCOORD.M           6082586.870         : SURFACE Y
#
~Curve Information Section
#MNEM.UNIT         API CODE            DESCRIPTION
#_________         ________            ___________
DEPT.M                                 : 0 Depth
AI.m/sxg/cc                            : 1 AI from well tie
RHOB.g/cc                              : 2 Density
DT.us/ft                               : 3 Sonic
#
~Parameter Information Section
#MNEM.UNIT           VALUE             DESCRIPTION
#_________         __________          ___________
EKB.M              34.1000             : Elevation Kelly Bushing
EGL.M              -999.25             : Elevation Ground Level
#
~Other Information Section
#
~Ascii Data Section
# ...
   1387.4244     4462.0093        2.1293      146.0717
   1387.5768     4457.5903        2.1364      144.8354
   1387.7292     4453.1680        2.1406      144.1116
   1387.8816     4448.7495        2.1404      144.1434
   1388.0341     4444.3276        2.1386      144.4529
   1388.1864     4435.3809        2.1341      145.2426
   1388.3389     4426.2651        2.1314      145.7052
   1388.4912     4417.1567        2.1305      145.8607
   1388.6437     4408.0410        2.1275      146.3837
   1388.7960     4398.9326        2.1258      146.6873
   1388.9485     4389.8169        2.1245      146.9050
   1389.1008     4379.4658        2.1228      147.1875
   1389.2533     4360.4023        2.1219      147.3540
   1389.4056     4341.3545        2.1209      147.5213
   1389.5580     4322.3062        2.1199      147.6977
   1389.7104     4303.2427        2.1170      148.1950
   1389.8628     4284.1943        2.1170      148.2121
   1390.0153     4265.1309        2.1178      148.0777
   1390.1676     4247.4595        2.1192      147.8203
   1390.3201     4232.1753        2.1205      147.6020
   1390.4724     4216.9043        2.1203      147.6336
   1390.6249     4201.6201        2.0952      151.9721
   1390.7772     4186.3481        2.0897      152.9286
   1390.9297     4171.0649        2.0891      153.0305
   1391.0820     4155.7930        2.0880      153.2185
   1391.2345     4150.0171        2.0878      153.2479
   1391.3868     4147.6006        2.0878      153.2486
   1391.5392     4145.1841        2.0878      153.2486
   1391.6917     4142.7661        2.0878      153.2486
   1391.8440     4140.3501        2.0878      153.2486
   1391.9965     4137.9321        2.0875      153.3075
   1392.1488     4135.2563        2.0870      153.3954
   1392.3013     4131.6201        2.0865      153.4870
   1392.4536     4127.9863        2.0860      153.5784
   1392.6061     4124.3501        2.0854      153.6701
   1392.7584     4120.7163        2.0849      153.7617
   1392.9109     4117.0801        2.0844      153.8534
   1393.0632     4113.4468        2.0838      153.9450
   1393.2157     4110.1416        2.0833      154.0368
   1393.3680     4106.9751        2.0828      154.1284
   1393.5204     4103.8096        2.0823      154.2200
   1393.6729     4100.6411        2.0817      154.3114
   1393.8252     4097.4746        2.0812      154.4030
   1393.9777     4094.3064        2.0807      154.4948
   1394.1300     4091.0227        2.0801      154.5864
   1394.2825     4087.3420        2.0796      154.6780
   1394.4348     4083.6650        2.0791      154.7695
   1394.5873     4079.9841        2.0786      154.8614
   1394.7396     4076.3069        2.0780      154.9528
   1394.8921     4072.6265        2.0775      155.0445
   1395.0444     4068.9490        2.0770      155.1361
   1395.1969     4065.6816        2.0764      155.2278
   1395.3492     4062.5405        2.0759      155.3194
   1395.5016     4059.3989        2.0754      155.4110
   1395.6541     4056.2551        2.0748      155.5025
   1395.8064     4053.1135        2.0743      155.5941
   1395.9589     4049.9695        2.0738      155.6858
   1396.1112     4046.6550        2.0733      155.7774
   1396.2637     4042.9976        2.0727      155.8692
   1396.4160     4039.3430        2.0722      155.9608
   1396.5685     4035.6858        2.0717      156.0523
   1396.7208     4032.0312        2.0711      156.1438
   1396.8733     4028.3740        2.0706      156.2355
   1397.0256     4024.7195        2.0701      156.3271
   1397.1781     4021.5635        2.0696      156.4188
   1397.3304     4018.4451        2.0690      156.5105
   1397.4828     4015.3269        2.0685      156.6019
   1397.6353     4012.2065        2.0680      156.6935
   1397.7876     4009.0881        2.0674      156.7851
   1397.9401     4005.9675        2.0669      156.8768
   1398.0924     4002.5730        2.0664      156.9684
   1398.2449     3998.9487        2.0658      157.0601
   1398.3972     3995.3279        2.0653      157.1518
   1398.5497     3991.7034        2.0648      157.2435
   1398.7020     3988.0823        2.0643      157.3349
   1398.8545     3984.4583        2.0637      157.4265
   1399.0068     3980.9341        2.0632      157.5181
   1399.1593     3977.8311        2.0627      157.6099
   1399.3116     3974.7307        2.0621      157.7015
   1399.4640     3971.6306        2.0616      157.7929
   1399.6165     3968.5273        2.0611      157.8845
   1399.7688     3965.4270        2.0606      157.9761
   1399.9213     3962.3245        2.0600      158.0679
   1400.0736     3959.0139        2.0595      158.1595
   1400.2261     3955.6653        2.0590      158.2517
   1400.3784     3952.3193        2.0584      158.3439
   1400.5309     3948.9705        2.0579      158.4357
   1400.6832     3945.6245        2.0574      158.5274
   1400.8357     3942.2759        2.0569      158.6191
   1400.9880     3938.9390        2.0563      158.7107
   1401.1404     3935.6096        2.0558      158.8023
   1401.2928     3932.2778        2.0553      158.8937
   1401.4452     3928.9487        2.0547      158.9857
   1401.5977     3925.6167        2.0542      159.0771
   1401.7500     3922.2874        2.0537      159.1687
   1401.9025     3919.0227        2.0531      159.2604
   1402.0548     3915.9629        2.0526      159.3520
   1402.2073     3912.9011        2.0521      159.4438
   1402.3596     3909.8416        2.0516      159.5354
   1402.5121     3906.7795        2.0510      159.6270
   1402.6644     3903.7200        2.0505      159.7184
   1402.8169     3900.6577        2.0500      159.8101
   1402.9692     3897.3545        2.0494      159.9018
   1403.1216     3894.0459        2.0489      159.9934
   1403.2740     3890.7349        2.0484      160.0850
   1403.4264     3887.4265        2.0479      160.1764
   1403.5789     3884.1152        2.0473      160.2681
   1403.7312     3880.8069        2.0468      160.3597
   1403.8837     3877.5068        2.0463      160.4514
   1404.0360     3874.2134        2.0457      160.5431
   1404.1885     3870.9172        2.0452      160.6347
   1404.3408     3867.6243        2.0447      160.7264
   1404.4933     3864.3281        2.0441      160.8180
   1404.6456     3861.0347        2.0436      160.9094
   1404.7981     3857.9773        2.0431      161.0011
   1404.9504     3855.1484        2.0426      161.0927
   1405.1028     3852.3198        2.0420      161.1844
   1405.2552     3849.4885        2.0415      161.2761
   1405.4076     3846.6599        2.0410      161.3677
   1405.5601     3843.8289        2.0404      161.4593
   1405.7124     3841.3484        2.0399      161.5507
   1405.8649     3839.6421        2.0394      161.6425
   1406.0172     3837.9370        2.0389      161.7341
   1406.1697     3836.2307        2.0383      161.8258
   1406.3220     3834.5261        2.0378      161.9174
   1406.4745     3832.8193        2.0373      162.0034
   1406.6268     3831.3174        2.0369      162.0626
   1406.7793     3831.1450        2.0368      162.0814
   1406.9316     3830.9727        2.0368      162.0814
   1407.0840     3830.8003        2.0368      162.0814
   1407.2365     3830.6279        2.0368      162.0814
   1407.3888     3830.4553        2.0368      162.0814
   1407.5413     3830.2827        2.0368      162.0814
   1407.6936     3830.2786        2.0368      162.0814
   1407.8461     3830.2786        2.0368      162.0814
   1407.9984     3830.2786        2.0368      162.0814
   1408.1509     3830.2786        2.0368      162.0814
   1408.3032     3830.2786        2.0368      162.0814
   1408.4557     3830.2786        2.0368      162.0814
   1408.6080     3828.5615        2.0368      162.0814
   1408.7605     3826.4648        2.0368      162.0814
   1408.9128     3824.3701        2.0368      162.0814
   1409.0652     3822.2754        2.0368      162.0814
   1409.2177     3820.1787        2.0368      162.0814
   1409.3700     3818.0840        2.0368      162.0814
   1409.5225     3814.7456        2.0368      162.0814
