~Version Information Section
VERS.              2.0  : CWLS LOG ASCII STANDARD - VERSION 2.0
WRAP.              NO   : ONE LINE PER DEPTH STEP
CREA.              21-jan-2025
#
~Well Information Section
#MNEM.UNIT         VALUE/NAME          DESCRIPTION
#_________         __________          ___________
STRT.M             30.1500             : START DEPTH
STOP.M             1859.5500           : STOP DEPTH
STEP.M             0.1524              : STEP
NULL.              -999.2500           : NULL VALUE
COMP.                                  : COMPANY
WELL.              F03-4               : WELL NAME
FLD.                                   : FIELD
LOC.                                   : LOCATION
PROV.                                  : PROVINCE
CNTY.                                  : COUNTY
STAT.                                  : STATE
CTRY.                                  : COUNTRY
SRVC.                                  : SERVICE COMPANY
DATE.                                  : LOG DATE
UWI.                                   : UNIQUE WELL ID
XCOORD.M           623255.980          : SURFACE X
YCOORD.M           6082586.870         : SURFACE Y
#
~Curve Information Section
#MNEM.UNIT         API CODE            DESCRIPTION
#_________         ________            ___________
DEPT.M                                 : 0 Depth
AI.m/sxg/cc                            : 1 AI from well tie
RHOB.g/cc                              : 2 Density
DT.us/ft                               : 3 Sonic
#
~Parameter Information Section
#MNEM.UNIT           VALUE             DESCRIPTION
#_________         __________          ___________
EKB.M              34.1000             : Elevation Kelly Bushing
EGL.M              -999.25             : Elevation Ground Level
#
~Other Information Section
#
~Ascii Data Section
# ...
    586.4100     4172.1982        2.1053      153.6549
    586.5624     4171.8745        2.1053      153.6548
    586.7148     4172.1255        2.1053      153.6549
    586.8672     4172.3770        2.1053      153.6548
    587.0197     4172.6279        2.1055      153.6549
    587.1721     4172.8794        2.1059      153.6549
    587.3244     4173.1304        2.1062      153.6549
    587.4768     4173.3818        2.1062      153.6549
    587.6292     4173.8120        2.1062      153.6549
    587.7816     4174.3564        2.1016      153.6549
    587.9340     4174.9004        2.0874      153.6549
    588.0864     4175.4448        2.0850      153.6548
    588.2388     4175.9893        2.0963      153.6549
    588.3912     4176.5337        2.1071      153.6548
    588.5436     4177.0571        2.1127      153.6549
    588.6960     4177.1099        2.1141      153.6548
    588.8484     4177.1631        2.1142      153.6549
    589.0009     4177.2158        2.1118      153.6549
    589.1533     4177.2690        2.1082      153.6549
    589.3056     4177.3218        2.1068      153.6549
    589.4580     4177.3745        2.1069      153.6548
    589.6104     4177.3486        2.1053      153.6549
    589.7628     4177.2373        2.0999      153.6549
    589.9152     4177.1250        2.0968      153.6549
    590.0676     4177.0127        2.0943      153.6549
    590.2200     4176.9004        2.0944      153.6549
    590.3724     4176.7881        2.1006      153.6549
    590.5248     4176.6763        2.1072      153.6549
    590.6772     4175.9482        2.1137      153.6548
    590.8297     4175.1572        2.1198      153.6549
    590.9821     4174.3662        2.1182      153.6549
    591.1345     4173.5752        2.1142      153.6549
    591.2868     4172.7842        2.1029      153.6548
    591.4392     4171.9932        2.1012      153.6549
    591.5916     4171.5376        2.1011      153.6549
    591.7440     4171.7363        2.1011      153.6549
    591.8964     4171.9346        2.1011      153.6548
    592.0488     4172.1323        2.1011      153.6549
    592.2012     4172.3315        2.1016      153.6549
    592.3536     4172.5298        2.1030      153.6548
    592.5060     4172.7275        2.1030      153.6549
    592.6584     4173.2261        2.1030      153.6549
    592.8109     4173.8115        2.1030      153.6549
    592.9633     4174.3979        2.1030      153.6548
    593.1157     4174.9844        2.1031      153.6549
    593.2680     4175.5703        2.1043      153.6549
    593.4204     4176.1572        2.1050      153.6549
    593.5728     4176.7500        2.1050      153.6548
    593.7252     4177.3687        2.1050      153.6549
    593.8776     4177.9873        2.1050      153.6549
    594.0300     4178.6064        2.1050      153.6549
    594.1824     4179.2256        2.1054      153.6549
    594.3348     4179.8442        2.1068      153.6549
    594.4872     4180.4629        2.1069      153.6549
    594.6396     4180.3037        2.1069      153.6549
    594.7921     4179.6982        2.1069      153.6548
    594.9445     4179.0933        2.1069      153.6549
    595.0968     4178.4883        2.1071      153.6549
    595.2492     4177.8833        2.1079      153.6549
    595.4016     4177.2783        2.1089      153.6549
    595.5540     4177.4917        2.1089      153.6548
    595.7064     4188.9097        2.1089      153.6549
    595.8588     4200.3271        2.1089      153.6548
    596.0112     4211.7451        2.1089      153.6549
    596.1636     4223.1631        2.1091      153.6548
    596.3160     4234.5806        2.1096      153.6549
    596.4684     4245.9985        2.1098      153.6549
    596.6208     4258.1396        2.1026      153.6549
    596.7733     4271.0024        2.0843      153.6549
    596.9257     4283.8647        2.0837      152.9492
    597.0780     4296.7222        2.1038      150.4864
    597.2304     4309.5850        2.1169      148.2159
    597.3828     4322.4478        2.1195      147.7760
    597.5352     4335.3101        2.1168      148.2348
    597.6876     4340.2192        2.1130      148.9066
    597.8400     4343.5703        2.1089      149.6078
    597.9924     4346.9219        2.1102      149.3759
    598.1448     4350.2729        2.1145      148.6257
    598.2972     4353.6240        2.1192      147.8247
    598.4496     4356.9756        2.1208      147.5407
    598.6021     4359.8701        2.1166      148.2747
    598.7545     4358.8013        2.1115      149.1558
    598.9069     4357.7329        2.1101      149.3910
    599.0592     4356.6650        2.1101      149.3910
    599.2116     4355.5967        2.1112      149.2019
    599.3640     4354.5283        2.1231      147.1494
    599.5164     4353.4595        2.1255      146.7386
    599.6688     4352.8755        2.1238      147.0225
    599.8212     4353.1597        2.1222      147.3065
    599.9736     4353.4434        2.1206      147.5903
    600.1260     4353.7280        2.1189      147.8759
    600.2784     4354.0122        2.1172      148.1624
    600.4308     4354.2959        2.1156      148.4467
    600.5833     4354.5796        2.1139      148.7307
    600.7357     4364.2764        2.1123      149.0147
    600.8881     4380.0630        2.1104      149.3410
    601.0404     4395.8438        2.1092      149.5627
    601.1928     4411.6304        2.1115      149.1599
    601.3452     4427.4180        2.1144      148.6555
    601.4976     4443.2046        2.1028      150.6515
    601.6500     4458.9912        2.1166      148.2608
    601.8024     4472.1982        2.1270      146.4666
    601.9548     4485.1318        2.1381      144.5400
    602.1072     4498.0649        2.1320      145.6124
    602.2596     4510.9990        2.1373      144.6889
    602.4120     4523.9321        2.1439      143.5376
    602.5645     4536.8657        2.1453      143.3068
    602.7169     4549.7993        2.1446      143.4153
    602.8692     4552.6270        2.1427      143.7494
    603.0216     4555.2993        2.1424      143.8062
    603.1740     4557.9717        2.1428      143.7295
    603.3264     4560.6445        2.1433      143.6527
    603.4788     4563.3169        2.1437      143.5761
    603.6312     4565.9897        2.1442      143.4993
    603.7836     4568.6743        2.1446      143.4226
    603.9360     4572.0283        2.1451      143.3461
    604.0884     4575.3823        2.1455      143.2692
    604.2408     4578.7363        2.1459      143.1925
    604.3932     4582.0903        2.1463      143.1159
    604.5457     4585.4443        2.1468      143.0392
    604.6981     4588.7983        2.1473      142.9627
    604.8504     4592.1587        2.1477      142.8860
    605.0028     4595.7681        2.1482      142.8094
    605.1552     4599.3774        2.1486      142.7326
    605.3076     4602.9873        2.1490      142.6559
    605.4600     4606.5972        2.1495      142.5793
    605.6124     4610.2061        2.1499      142.5025
    605.7648     4613.8159        2.1504      142.4258
    605.9172     4617.4209        2.1508      142.3492
    606.0696     4620.8018        2.1512      142.2725
    606.2220     4624.1821        2.1517      142.1959
    606.3745     4627.5625        2.1521      142.1191
    606.5269     4630.9424        2.1526      142.0424
    606.6793     4634.3232        2.1530      141.9657
    606.8316     4637.7026        2.1534      141.8892
    606.9840     4641.0825        2.1539      141.8125
    607.1364     4644.7144        2.1544      141.7357
    607.2888     4648.3516        2.1548      141.6591
    607.4412     4651.9883        2.1552      141.5824
    607.5936     4655.6255        2.1556      141.5056
    607.7460     4659.2627        2.1561      141.4290
    607.8984     4662.8999        2.1565      141.3523
    608.0508     4666.5366        2.1570      141.2757
    608.2032     4669.9678        2.1574      141.1990
    608.3557     4673.3789        2.1579      141.1222
    608.5081     4676.7900        2.1583      141.0456
