~Version Information Section
VERS.              2.0  : CWLS LOG ASCII STANDARD - VERSION 2.0
WRAP.              NO   : ONE LINE PER DEPTH STEP
CREA.              21-jan-2025
#
~Well Information Section
#MNEM.UNIT         VALUE/NAME          DESCRIPTION
#_________         __________          ___________
STRT.M             30.1500             : START DEPTH
STOP.M             1859.5500           : STOP DEPTH
STEP.M             0.1524              : STEP
NULL.              -999.2500           : NULL VALUE
COMP.                                  : COMPANY
WELL.              F03-4               : WELL NAME
FLD.                                   : FIELD
LOC.                                   : LOCATION
PROV.                                  : PROVINCE
CNTY.                                  : COUNTY
STAT.                                  : STATE
CTRY.                                  : COUNTRY
SRVC.                                  : SERVICE COMPANY
DATE.                                  : LOG DATE
UWI.                                   : UNIQUE WELL ID
XCOORD.M           623255.980          : SURFACE X
YCOORD.M           6082586.870         : SURFACE Y
#
~Curve Information Section
#MNEM.UNIT         API CODE            DESCRIPTION
#_________         ________            ___________
DEPT.M                                 : 0 Depth
AI.m/sxg/cc                            : 1 AI from well tie
RHOB.g/cc                              : 2 Density
DT.us/ft                               : 3 Sonic
#
~Parameter Information Section
#MNEM.UNIT           VALUE             DESCRIPTION
#_________         __________          ___________
EKB.M              34.1000             : Elevation Kelly Bushing
EGL.M              -999.25             : Elevation Ground Level
#
~Other Information Section
#
~Ascii Data Section
# ...
    853.4149     4898.3687        2.1896      135.6244
    853.5673     4896.1318        2.1896      135.6244
    853.7196     4891.3101        2.1895      135.6400
    853.8720     4886.4868        2.1888      135.7629
    854.0244     4881.6636        2.1873      136.0233
    854.1768     4876.8403        2.1865      136.1724
    854.3292     4872.0166        2.1863      136.2019
    854.4816     4867.1938        2.1857      136.3117
    854.6340     4862.5503        2.1849      136.4459
    854.7864     4859.6924        2.1841      136.5730
    854.9388     4856.8340        2.1837      136.6553
    855.0912     4853.9756        2.1828      136.8076
    855.2437     4851.1177        2.1813      137.0712
    855.3961     4848.2598        2.1806      137.1890
    855.5485     4845.4014        2.1803      137.2438
    855.7008     4842.5444        2.1800      137.2790
    855.8532     4841.0625        2.1798      137.3183
    856.0056     4839.9380        2.1804      137.2240
    856.1580     4838.8140        2.1808      137.1630
    856.3104     4837.6899        2.1815      137.0376
    856.4628     4836.5659        2.1817      136.9893
    856.6152     4835.4414        2.1822      136.9229
    856.7676     4834.3174        2.1822      136.9139
    856.9200     4840.1094        2.1810      137.1280
    857.0724     4852.9233        2.1802      137.2594
    857.2249     4865.7383        2.1777      137.6888
    857.3773     4878.5522        2.1757      138.0429
    857.5297     4891.3662        2.1754      138.0915
    857.6820     4904.1758        2.1736      138.4029
    857.8344     4916.9897        2.1733      138.4557
    857.9868     4932.2344        2.1724      138.6129
    858.1392     4954.7139        2.1813      137.0782
    858.2916     4977.1929        2.1841      136.5864
    858.4440     4999.6724        2.1870      136.0716
    858.5964     5022.1514        2.1884      135.8357
    858.7488     5044.6304        2.1931      135.0308
    858.9012     5067.1094        2.1996      133.8922
    859.0536     5089.5889        2.2018      133.5198
    859.2061     5082.3262        2.2102      132.0711
    859.3585     5070.7241        2.2169      130.9014
    859.5109     5059.1221        2.2187      130.5930
    859.6632     5047.5239        2.2208      130.2361
    859.8156     5035.9224        2.2218      130.0580
    859.9680     5024.3198        2.2223      129.9664
    860.1204     5012.7178        2.2196      130.4351
    860.2728     5000.5464        2.2152      131.2047
    860.4252     4986.3320        2.2120      131.7493
    860.5776     4972.1177        2.2029      133.3234
    860.7300     4957.9038        2.1869      136.0985
    860.8824     4943.6895        2.1811      137.1045
    861.0349     4929.4756        2.1829      136.7908
    861.1873     4915.2612        2.1842      136.5631
    861.3397     4901.0469        2.1865      136.1751
    861.4920     4899.2690        2.1902      135.5429
    861.6444     4900.0928        2.1918      135.2590
    861.7968     4900.9175        2.1917      135.2738
    861.9492     4901.7417        2.1908      135.4266
    862.1016     4902.5659        2.1885      135.8125
    862.2540     4903.3896        2.1868      136.1128
    862.4064     4904.2144        2.1865      136.1725
    862.5588     4908.4404        2.1865      136.1724
    862.7112     4916.7490        2.1864      136.1884
    862.8636     4925.0581        2.1861      136.2337
    863.0161     4933.3672        2.1855      136.3270
    863.1685     4941.6758        2.1845      136.5086
    863.3209     4949.9849        2.1842      136.5582
    863.4732     4958.2905        2.1857      136.2906
    863.6256     4966.2676        2.1879      135.9233
    863.7780     4971.7729        2.1899      135.5807
    863.9304     4977.2778        2.1919      135.2381
    864.0828     4982.7832        2.1939      134.8953
    864.2352     4988.2876        2.1958      134.5525
    864.3876     4993.7930        2.1978      134.2098
    864.5400     4999.2979        2.1998      133.8671
    864.6924     5004.8027        2.2018      133.5244
    864.8448     4999.8369        2.2035      133.2292
    864.9973     4990.0078        2.2044      133.0722
    865.1497     4980.1787        2.2062      132.7541
    865.3021     4970.3491        2.2054      132.9014
    865.4544     4960.5234        2.2051      132.9478
    865.6068     4950.6938        2.2045      133.0596
    865.7592     4940.8647        2.2022      133.4481
    865.9116     4932.9419        2.1995      133.9108
    866.0640     4934.1313        2.1963      134.4684
    866.2164     4935.3213        2.1905      135.4730
    866.3688     4936.5112        2.1815      137.0287
    866.5212     4937.7007        2.1783      137.5768
    866.6736     4938.8901        2.1798      137.3292
    866.8260     4940.0801        2.1820      136.9612
    866.9785     4941.2695        2.1845      136.5152
    867.1309     4949.2944        2.1845      136.5251
    867.2833     4958.5840        2.1848      136.4600
    867.4356     4967.8701        2.1903      135.5111
    867.5880     4977.1602        2.1939      134.8869
    867.7404     4986.4492        2.1993      133.9463
    867.8928     4995.7393        2.2015      133.5672
    868.0452     5005.0288        2.2018      133.5237
    868.1976     5012.1904        2.2018      133.5228
    868.3500     5016.4658        2.2004      133.7556
    868.5024     5020.7412        2.1975      134.2549
    868.6548     5025.0171        2.1970      134.3405
    868.8073     5029.2925        2.1979      134.1971
    868.9597     5033.5679        2.1982      134.1443
    869.1121     5037.8438        2.1998      133.8695
    869.2644     5042.1182        2.2007      133.7067
    869.4168     5045.5186        2.2020      133.4792
    869.5692     5048.8882        2.2033      133.2574
    869.7216     5052.2583        2.2045      133.0555
    869.8740     5055.6279        2.2057      132.8535
    870.0264     5058.9980        2.2067      132.6670
    870.1788     5062.3682        2.2072      132.5978
    870.3312     5065.7383        2.2073      132.5675
    870.4836     5066.4429        2.2068      132.6598
    870.6360     5063.7402        2.2059      132.8169
    870.7885     5061.0381        2.2045      133.0465
    870.9409     5058.3359        2.2041      133.1295
    871.0933     5055.6333        2.2048      132.9888
    871.2456     5052.9321        2.2062      132.7582
    871.3980     5050.2300        2.2076      132.5165
    871.5504     5047.5278        2.2091      132.2554
    871.7028     5041.8398        2.2095      132.1834
    871.8552     5035.8457        2.2078      132.4759
    872.0076     5029.8516        2.2055      132.8873
    872.1600     5023.8569        2.2031      133.2975
    872.3124     5017.8628        2.2008      133.6939
    872.4648     5011.8687        2.1994      133.9320
    872.6172     5005.8740        2.2000      133.8251
    872.7697     5000.6133        2.2015      133.5675
    872.9221     4996.4355        2.2020      133.4770
    873.0745     4992.2568        2.2020      133.4930
    873.2268     4988.0806        2.2016      133.5528
    873.3792     4983.9028        2.2004      133.7644
    873.5316     4979.7246        2.1981      134.1618
    873.6840     4975.5464        2.1976      134.2482
    873.8364     4971.3687        2.1982      134.1354
    873.9888     4957.5679        2.1957      134.5685
    874.1412     4942.9922        2.1878      135.9380
    874.2936     4928.4175        2.1978      134.2179
    874.4460     4913.8423        2.2056      132.8606
    874.5984     4899.2671        2.2014      133.5897
    874.7509     4884.6919        2.1959      134.5355
    874.9033     4870.1167        2.1908      135.4157
    875.0557     4862.7798        2.1872      136.0415
    875.2080     4862.8394        2.1905      135.4769
    875.3604     4862.8989        2.1880      135.9027
    875.5128     4862.9580        2.1872      136.0363
