~Version Information Section
VERS.              2.0  : CWLS LOG ASCII STANDARD - VERSION 2.0
WRAP.              NO   : ONE LINE PER DEPTH STEP
CREA.              21-jan-2025
#
~Well Information Section
#MNEM.UNIT         VALUE/NAME          DESCRIPTION
#_________         __________          ___________
STRT.M             30.1500             : START DEPTH
STOP.M             1859.5500           : STOP DEPTH
STEP.M             0.1524              : STEP
NULL.              -999.2500           : NULL VALUE
COMP.                                  : COMPANY
WELL.              F03-4               : WELL NAME
FLD.                                   : FIELD
LOC.                                   : LOCATION
PROV.                                  : PROVINCE
CNTY.                                  : COUNTY
STAT.                                  : STATE
CTRY.                                  : COUNTRY
SRVC.                                  : SERVICE COMPANY
DATE.                                  : LOG DATE
UWI.                                   : UNIQUE WELL ID
XCOORD.M           623255.980          : SURFACE X
YCOORD.M           6082586.870         : SURFACE Y
#
~Curve Information Section
#MNEM.UNIT         API CODE            DESCRIPTION
#_________         ________            ___________
DEPT.M                                 : 0 Depth
AI.m/sxg/cc                            : 1 AI from well tie
RHOB.g/cc                              : 2 Density
DT.us/ft                               : 3 Sonic
#
~Parameter Information Section
#MNEM.UNIT           VALUE             DESCRIPTION
#_________         __________          ___________
EKB.M              34.1000             : Elevation Kelly Bushing
EGL.M              -999.25             : Elevation Ground Level
#
~Other Information Section
#
~Ascii Data Section
# ...
   1031.4180     5411.8110        2.2381      127.2436
   1031.5704     5417.1763        2.2415      126.6518
   1031.7228     5422.5361        2.2440      126.2097
   1031.8752     5427.9009        2.2494      125.2881
   1032.0276     5433.2617        2.2520      124.8241
   1032.1801     5438.6265        2.2532      124.6148
   1032.3324     5415.0889        2.2528      124.6843
   1032.4849     5376.1133        2.2520      124.8286
   1032.6372     5337.1689        2.2514      124.9332
   1032.7896     5298.2246        2.2501      125.1566
   1032.9420     5259.2495        2.2474      125.6139
   1033.0944     5220.3047        2.2451      126.0211
   1033.2468     5181.3296        2.2441      126.1988
   1033.3992     5142.3853        2.2435      126.3052
   1033.5516     5109.3706        2.2424      126.4892
   1033.7040     5079.1172        2.2395      126.9967
   1033.8564     5048.8389        2.2343      127.8945
   1034.0088     5018.5850        2.2224      129.9520
   1034.1613     4988.3071        2.1966      134.4111
   1034.3136     4958.0532        2.1789      137.4848
   1034.4661     4927.7754        2.1774      137.7435
   1034.6184     4903.0776        2.1758      138.0165
   1034.7708     4913.1411        2.1768      137.8418
   1034.9232     4923.2124        2.1820      136.9534
   1035.0756     4933.2754        2.1853      136.3704
   1035.2280     4943.3467        2.1844      136.5359
   1035.3804     4953.4102        2.1819      136.9589
   1035.5328     4963.4810        2.1828      136.8151
   1035.6852     4973.5444        2.1911      135.3660
   1035.8376     4973.8618        2.1968      134.3849
   1035.9900     4972.0488        2.1988      134.0472
   1036.1425     4970.2349        2.2001      133.8147
   1036.2948     4968.4219        2.2013      133.6156
   1036.4473     4966.6079        2.2023      133.4357
   1036.5996     4964.7949        2.2044      133.0741
   1036.7520     4962.9819        2.2029      133.3373
   1036.9044     4969.4419        2.2013      133.6157
   1037.0568     4991.9844        2.2000      133.8353
   1037.2092     5014.5444        2.1987      134.0483
   1037.3616     5037.0864        2.1972      134.3063
   1037.5140     5059.6470        2.1953      134.6408
   1037.6664     5082.1890        2.1937      134.9192
   1037.8188     5104.7490        2.1871      136.0690
   1037.9712     5127.2910        2.1853      136.3674
   1038.1237     5152.0356        2.1823      136.8838
   1038.2760     5176.9478        2.1826      136.8412
   1038.4285     5201.8799        2.1842      136.5791
   1038.5808     5226.7930        2.2149      131.2467
   1038.7332     5251.7056        2.2206      130.2634
   1038.8856     5276.6377        2.2397      126.9596
   1039.0380     5301.5508        2.2428      126.4133
   1039.1904     5316.0879        2.2407      126.7862
   1039.3428     5309.5884        2.2399      126.9290
   1039.4952     5303.0830        2.2391      127.0609
   1039.6476     5296.5835        2.2382      127.2299
   1039.8000     5290.0786        2.2368      127.4564
   1039.9524     5283.5791        2.2339      127.9509
   1040.1049     5277.0732        2.2331      128.0960
   1040.2572     5270.5737        2.2321      128.2779
   1040.4095     5266.8340        2.2314      128.4043
   1040.5620     5265.9438        2.2304      128.5739
   1040.7144     5265.0542        2.2286      128.8770
   1040.8668     5264.1636        2.2275      129.0636
   1041.0192     5263.2739        2.2245      129.5915
   1041.1716     5262.3833        2.2234      129.7768
   1041.3240     5261.4941        2.2233      129.7964
   1041.4764     5260.6030        2.2226      129.9174
   1041.6288     5263.4473        2.2222      129.9865
   1041.7812     5267.4824        2.2236      129.7458
   1041.9336     5271.5137        2.2282      128.9497
   1042.0861     5275.5479        2.2306      128.5247
   1042.2384     5279.5796        2.2309      128.4841
   1042.3907     5283.6108        2.2311      128.4343
   1042.5432     5287.6450        2.2313      128.4061
   1042.6956     5291.6763        2.2311      128.4354
   1042.8480     5300.0127        2.2305      128.5451
   1043.0004     5308.3457        2.2298      128.6659
   1043.1528     5316.6855        2.2290      128.8036
   1043.3052     5325.0186        2.2277      129.0326
   1043.4576     5333.3589        2.2265      129.2454
   1043.6100     5341.6919        2.2254      129.4276
   1043.7625     5350.0317        2.2253      129.4487
   1043.9148     5359.0342        2.2271      129.1390
   1044.0673     5370.0869        2.2306      128.5394
   1044.2196     5381.1318        2.2369      127.4464
   1044.3719     5392.1768        2.2422      126.5224
   1044.5244     5403.2305        2.2439      126.2259
   1044.6768     5414.2754        2.2445      126.1217
   1044.8292     5425.3286        2.2447      126.0924
   1044.9816     5436.3735        2.2451      126.0304
   1045.1340     5439.6650        2.2445      126.1223
   1045.2864     5429.2324        2.2433      126.3321
   1045.4388     5418.7915        2.2425      126.4786
   1045.5912     5408.3589        2.2421      126.5373
   1045.7437     5397.9175        2.2436      126.2817
   1045.8960     5387.4844        2.2450      126.0315
   1046.0485     5377.0435        2.2480      125.5193
   1046.2008     5366.6104        2.2514      124.9240
   1046.3531     5352.2119        2.2525      124.7333
   1046.5056     5332.1533        2.2532      124.6148
   1046.6580     5312.1108        2.2527      124.7088
   1046.8104     5292.0518        2.2452      126.0026
   1046.9628     5272.0088        2.2367      127.4773
   1047.1152     5251.9502        2.2320      128.2832
   1047.2676     5231.9077        2.2300      128.6283
   1047.4200     5211.8486        2.2292      128.7709
   1047.5724     5203.0010        2.2261      129.3023
   1047.7249     5203.6572        2.2237      129.7165
   1047.8772     5204.3135        2.2216      130.0864
   1048.0297     5204.9692        2.2182      130.6861
   1048.1820     5205.6250        2.2168      130.9364
   1048.3344     5206.2808        2.2143      131.3540
   1048.4868     5206.9370        2.2125      131.6534
   1048.6392     5207.5923        2.2127      131.6222
   1048.7916     5214.6577        2.2151      131.2156
   1048.9440     5222.4990        2.2177      130.7592
   1049.0964     5230.3472        2.2177      130.7692
   1049.2488     5238.1890        2.2217      130.0830
   1049.4012     5246.0366        2.2238      129.6998
   1049.5536     5253.8784        2.2258      129.3701
   1049.7061     5261.7261        2.2279      129.0070
   1049.8584     5268.7734        2.2303      128.5881
   1050.0109     5272.5728        2.2307      128.5186
   1050.1632     5276.3687        2.2305      128.5526
   1050.3156     5280.1646        2.2303      128.5891
   1050.4680     5283.9639        2.2300      128.6270
   1050.6204     5287.7598        2.2292      128.7718
   1050.7728     5291.5586        2.2255      129.4092
   1050.9252     5295.3545        2.2271      129.1426
   1051.0776     5297.4756        2.2297      128.6789
   1051.2300     5297.3867        2.2320      128.2781
   1051.3824     5297.2979        2.2308      128.4998
   1051.5348     5297.2090        2.2266      129.2191
   1051.6873     5297.1206        2.2248      129.5400
   1051.8396     5297.0317        2.2264      129.2615
   1051.9921     5296.9429        2.2323      128.2249
   1052.1444     5296.8535        2.2396      126.9765
   1052.2968     5287.9595        2.2424      126.4874
   1052.4492     5274.2764        2.2410      126.7240
   1052.6016     5260.6050        2.2351      127.7643
   1052.7540     5246.9214        2.2263      129.2771
   1052.9064     5233.2495        2.2211      130.1743
   1053.0588     5219.5669        2.2215      130.1046
   1053.2112     5205.8945        2.2253      129.4533
   1053.3636     5192.2114        2.2285      128.8906
   1053.5160     5186.0679        2.2312      128.4292
